id,name,alt_name,region,country,latitude,longitude,tags,km_distance_to_ocean,is_coastal,ocean_lat1,ocean_lon1
AK1,Afognak,Agw’aneq,Alaska,US,58.0078,-152.768,"ardac,awe,eds,ncr",1.0,TRUE,57.9202,-152.9095
AK2,Akhiok,Kasukuak,Alaska,US,56.9455,-154.17,"ardac,awe,eds,ncr",0.8,TRUE,57.0185,-154.3053
AK3,Akiachak,Akiacuar,Alaska,US,60.9094,-161.431,"ardac,awe,eds,ncr",33.5,TRUE,60.433,-162.4693
AK4,Akiak,Akiaq,Alaska,US,60.9122,-161.214,"ardac,awe,eds,ncr",43.0,TRUE,60.4169,-162.583
AK5,Akutan,Achan-ingiiga,Alaska,US,54.1385,-165.778,"ardac,awe,eds,ncr",1.4,TRUE,54.1978,-165.9233
AK6,Alakanuk,Alarneq,Alaska,US,62.6889,-164.615,"ardac,awe,eds,ncr",0.5,TRUE,62.7494,-164.7989
AK7,Alatna,Alaasuq,Alaska,US,66.5542,-152.7019,"ardac,awe,eds,ncr",335.0,FALSE,66.4668,-161.409
AK488,Alcan Border,,Alaska,US,62.6856,-141.1253,"ardac,awe,eds,ncr",284.8,FALSE,60.2524,-142.5763
AK8,Aleknagik,Alaqnaqiq,Alaska,US,59.273,-158.618,"ardac,awe,eds,ncr",11.7,TRUE,59.0177,-158.7265
AK489,Aleneva,,Alaska,US,58.0046,-152.8825,"ardac,awe,eds,ncr",0.9,TRUE,57.9168,-153.0237
AK9,Aleut Village,,Alaska,US,58.0171,-152.761,"ardac,awe,eds",0.7,TRUE,57.9295,-152.9025
AK10,Alexander Creek,,Alaska,US,61.4171,-150.593,"ardac,awe,eds,ncr",6.0,TRUE,61.1703,-150.7721
AK11,Allakaket,Aalaa Kkaakk’et,Alaska,US,66.5656,-152.646,"ardac,awe,eds,ncr",337.4,FALSE,66.3191,-161.3129
AK12,Ambler,Ivisaappaat,Alaska,US,67.0861,-157.851,"ardac,awe,eds,ncr",116.2,FALSE,66.8627,-161.7188
AK13,Anaktuvuk Pass,Anaqtuuvak / Naqsraq,Alaska,US,68.1433,-151.736,"ardac,awe,eds,ncr",246.6,FALSE,70.2748,-147.9584
AK14,Anchor Point,,Alaska,US,59.7766,-151.831,"ardac,awe,eds,ncr",3.1,TRUE,59.852,-151.9726
AK15,Anchorage,Dgheyaytnu,Alaska,US,61.1817,-149.993,"ardac,awe,eds,ncr",2.1,TRUE,61.0974,-150.156
AK16,Anderson,,Alaska,US,64.3441,-149.187,"ardac,awe,eds,ncr",316.6,FALSE,61.1887,-149.8175
AK18,Angoon,Aangóon,Alaska,US,57.5033,-134.584,"ardac,awe,eds,ncr",1.3,TRUE,57.5945,-134.6758
AK19,Aniak,Anyaraq,Alaska,US,61.5783,-159.522,"ardac,awe,eds,ncr",160.0,FALSE,60.5235,-162.4883
AK20,Annette,,Alaska,US,55.063,-131.541,"ardac,awe,eds",0.3,TRUE,55.1566,-131.6195
AK21,Anvik,Gitr’ingith Chagg,Alaska,US,62.6561,-160.207,"ardac,awe,eds,ncr",107.0,FALSE,63.4947,-161.2817
AK22,Arctic Village,Vashrąįį K'ǫǫ,Alaska,US,68.1269,-145.538,"ardac,awe,eds,ncr",205.4,FALSE,70.1664,-145.0053
AK23,Atka,Atx̂ax̂,Alaska,US,52.191,-174.189,"ardac,awe,eds,ncr",0.6,TRUE,52.2392,-174.3384
AK24,Atmautluak,Atmaulluaq,Alaska,US,60.8641,-162.2723,"ardac,awe,eds,ncr",15.6,TRUE,60.4456,-162.3157
AK25,Atqasuk,,Alaska,US,70.4694,-157.396,"ardac,awe,eds,ncr",46.9,TRUE,71.027,-158.1887
AK26,Attu,,Alaska,US,52.9365,173.24,"ardac,awe,eds,ncr",1.1,TRUE,52.9664,173.0757
AK27,Auke Bay,,Alaska,US,58.383,-134.657,"ardac,awe,eds,ncr",0.4,TRUE,58.3187,-134.8399
AK28,Ayakulik,,Alaska,US,57.2113,-154.546,"ardac,awe,eds,ncr",2.1,TRUE,57.1216,-154.6799
AK558,Back Island,,Alaska,US,55.5483,-131.7561,eds,4.0,TRUE,55.6417,-131.8361
AK490,Badger,,Alaska,US,64.8058,-147.4039,"ardac,awe,eds,ncr",380.4,FALSE,60.9507,-147.0027
AK29,Baranof Warm Springs,,Alaska,US,57.0895,-134.8337,"ardac,awe,eds,ncr",2.8,TRUE,57.1342,-134.6376
AK30,Bartlett Cove,,Alaska,US,58.45,-135.916,"ardac,awe,eds",1.5,TRUE,58.5401,-136.0138
AK491,Bear Creek,,Alaska,US,60.1839,-149.3886,"ardac,awe,eds,ncr",6.8,TRUE,59.9387,-149.57
AK31,Beaver,Ts'aahudaaneekk'onh Denh,Alaska,US,66.3594,-147.396,"ardac,awe,eds,ncr",411.3,FALSE,70.1894,-146.5127
AK444,Beecher Pass State Marine Park,,Alaska,US,56.6003,-133.0267,"ardac,awe,eds",1.2,TRUE,56.3838,-133.2939
AK32,Belkofski,Taxtamax̂,Alaska,US,55.0905,-162.034,"ardac,awe,eds,ncr",0.8,TRUE,55.1544,-162.1768
AK33,Bell Island Hot Springs,,Alaska,US,55.933,-131.566,"ardac,awe,eds,ncr",1.6,TRUE,55.8731,-131.742
AK492,Beluga,,Alaska,US,61.1849,-151.035,"ardac,awe,eds,ncr",0.4,TRUE,61.0921,-150.8586
AK35,Bessie No. 5 Dredge,,Alaska,US,64.5502,-165.151,"ardac,awe,eds,ncr",10.1,TRUE,64.2902,-165.2208
AK36,Bethel,Mamterilleq,Alaska,US,60.7922,-161.756,"ardac,awe,eds,ncr",12.0,TRUE,60.4949,-162.5016
AK37,Bettles,Kk’odlel T’odegheelenh Denh,Alaska,US,66.9185,-151.5162,"ardac,awe,eds,ncr",381.7,FALSE,70.2002,-148.0775
AK445,Bettles Bay State Marine Park,,Alaska,US,60.9597,-148.3184,"ardac,awe,eds,ncr",0.4,TRUE,60.8489,-147.8182
AK465,Big Bear Baby Bear State Marine Park,,Alaska,US,57.432,-135.563,"ardac,awe,eds",0.9,TRUE,57.2102,-135.8209
AK38,Big Delta,,Alaska,US,64.1525,-145.842,"ardac,awe,eds,ncr",335.2,FALSE,61.0148,-146.7977
AK39,Big Lake,,Alaska,US,61.5378,-149.824,"ardac,awe,eds,ncr",10.1,TRUE,61.1304,-150.03
AK40,Bill Moore's Slough,,Alaska,US,62.9504,-163.7777,"ardac,awe,eds,ncr",4.3,TRUE,63.1961,-163.6588
AK41,Biorka,,Alaska,US,53.831,-166.208,"ardac,awe,eds",0.9,TRUE,53.8898,-166.3528
AK42,Birch Creek,Łiteet'aii,Alaska,US,66.2687,-145.824,"ardac,awe,eds,ncr",411.7,FALSE,69.5112,-140.7405
AK559,Birch Lake Recreation Annex,,Alaska,US,64.3175,-146.647,eds,341.2,FALSE,60.9974,-147.2266
AK43,Birchwood,,Alaska,US,61.4081,-149.481,"ardac,awe,eds,ncr",9.3,TRUE,61.1628,-149.6687
AK44,Bird Point,,Alaska,US,60.9311,-149.358,"ardac,awe,eds,ncr",0.3,TRUE,61.0196,-149.8341
AK560,Blair Lake Air Force Rangeex,,Alaska,US,64.3876,-147.6672,eds,332.1,FALSE,61.0174,-147.1375
AK45,Bodenburg Butte,,Alaska,US,61.5495,-149.047,"ardac,awe,eds,ncr",11.9,TRUE,61.1647,-149.9367
AK466,Bogoslof Island Refuge,,Alaska,US,53.9379,-168.0438,"ardac,awe,eds",40.9,TRUE,53.9943,-168.1916
AK46,Boswell Bay,,Alaska,US,60.4001,-146.133,"ardac,awe,eds",1.9,TRUE,60.4813,-146.2636
AK47,Brevig Mission,Sitaisaq,Alaska,US,65.3347,-166.489,"ardac,awe,eds,ncr",0.7,TRUE,65.3929,-166.6945
AK48,Buckland,Kaŋiq,Alaska,US,65.9797,-161.123,"ardac,awe,eds,ncr",15.3,TRUE,66.0264,-161.7172
AK493,Buffalo Soapstone,,Alaska,US,61.6684,-149.1217,"ardac,awe,eds,ncr",19.9,TRUE,61.1114,-149.6975
AK494,Butte,,Alaska,US,61.5417,-149.0363,"ardac,awe,eds,ncr",12.1,TRUE,61.157,-149.9259
AK49,Candle,,Alaska,US,65.9133,-161.924,"ardac,awe,eds,ncr",7.5,TRUE,65.9968,-161.7287
AK467,Canoe Passage State Marine Park,,Alaska,US,60.5181,-146.1118,"ardac,awe,eds,ncr",0.5,TRUE,60.5993,-146.2428
AK50,Cantwell,Yidateni Na’,Alaska,US,63.3917,-148.951,"ardac,awe,eds,ncr",211.4,FALSE,61.0572,-149.81
AK51,Cape Lisburne,,Alaska,US,68.8678,-166.193,"ardac,awe,eds,ncr",1.9,TRUE,68.927,-166.4277
AK52,Cape Pole,,Alaska,US,55.965,-133.798,"ardac,awe,eds,ncr",2.4,TRUE,56.0569,-133.884
AK53,Cape Yakataga,,Alaska,US,60.0652,-142.428,"ardac,awe,eds,ncr",3.5,TRUE,60.1498,-142.5479
AK468,Captain Cook State Recreation Area,,Alaska,US,60.7858,-151.0463,"ardac,awe,eds,ncr",1.2,TRUE,60.862,-151.1905
AK54,Central,,Alaska,US,65.5724,-144.803,"ardac,awe,eds,ncr",474.1,FALSE,69.5226,-140.6834
AK55,Chakaktolik,,Alaska,US,61.7711,-163.625,"ardac,awe,eds,ncr",59.3,TRUE,62.2369,-164.9928
AK56,Chakwaktolik,,Alaska,US,61.2291,-163.754,"ardac,awe,eds,ncr",25.8,TRUE,60.7354,-164.7674
AK57,Chalkyitsik,Jałgiitsik,Alaska,US,66.6544,-143.722,"ardac,awe,eds,ncr",344.8,FALSE,69.5275,-140.8184
AK58,Chaniliut,,Alaska,US,63.0332,-163.417,"ardac,awe,eds,ncr",2.6,TRUE,63.0952,-163.6006
AK495,Chase,,Alaska,US,62.4251,-150.1245,"ardac,awe,eds,ncr",107.7,FALSE,61.2087,-150.4258
AK60,Chatham,,Alaska,US,57.514,-134.924,"ardac,awe,eds,ncr",4.0,TRUE,57.5589,-134.7256
AK61,Chefornak,Cevvʼarneq / Caputnguaq,Alaska,US,60.1607,-164.271,"ardac,awe,eds,ncr",10.6,TRUE,60.2216,-164.4401
AK62,Chena Hot Springs,,Alaska,US,65.053,-146.056,"ardac,awe,eds,ncr",427.7,FALSE,61.1064,-147.1946
AK496,Chena Ridge,,Alaska,US,64.8228,-147.9764,"ardac,awe,eds,ncr",376.2,FALSE,61.06,-149.8515
AK561,Chena River Research,,Alaska,US,64.8283,-146.9699,eds,388.8,FALSE,60.9896,-146.9544
AK63,Chenega Bay,Caniqaq,Alaska,US,60.0746,-148.003,"ardac,awe,eds,ncr",0.9,TRUE,59.9926,-148.1656
AK64,Chevak,Cevʼaq,Alaska,US,61.5278,-165.586,"ardac,awe,eds,ncr",10.2,TRUE,61.587,-165.765
AK65,Chickaloon,Nay’dini’aa Na’,Alaska,US,61.7967,-148.463,"ardac,awe,eds,ncr",53.1,TRUE,61.1033,-149.75
AK66,Chicken,,Alaska,US,64.0733,-141.936,"ardac,awe,eds,ncr",397.3,FALSE,61.0245,-146.644
AK67,Chignik,Cirniq,Alaska,US,56.2953,-158.402,"ardac,awe,eds",0.8,TRUE,56.2015,-158.523
AK68,Chignik Lagoon,Nanwarnaq,Alaska,US,56.3104,-158.5361,"ardac,awe,eds,ncr",0.9,TRUE,56.3895,-158.3844
AK69,Chignik Lake,Igyaraq,Alaska,US,56.2552,-158.7696,"ardac,awe,eds,ncr",7.8,TRUE,56.1726,-158.5984
AK446,Chilkat River Critical Habitat Area,,Alaska,US,59.373,-135.8596,"ardac,awe,eds,ncr",18.3,TRUE,58.8176,-135.0012
AK70,Chiniak,,Alaska,US,57.617,-152.2166,"ardac,awe,eds,ncr",3.0,TRUE,57.6921,-152.3503
AK71,Chisana,,Alaska,US,62.0671,-142.049,"ardac,awe,eds,ncr",203.9,FALSE,60.2379,-142.873
AK72,Chistochina,Tsiis Tl’edze’ Caegge,Alaska,US,62.565,-144.665,"ardac,awe,eds,ncr",181.7,FALSE,60.9605,-146.64
AK73,Chitina,Tsedi Na',Alaska,US,61.5158,-144.437,"ardac,awe,eds,ncr",89.9,TRUE,60.6997,-145.839
AK74,Christian,,Alaska,US,67.3673,-145.2,"ardac,awe,eds,ncr",288.3,FALSE,69.7566,-142.176
AK75,Chuathbaluk,Curarpalek,Alaska,US,61.5726,-159.235,"ardac,awe,eds,ncr",172.1,FALSE,60.5036,-162.5386
AK447,Chugach National Forest Municipal Watershed,,Alaska,US,60.5195,-145.7223,"ardac,awe,eds,ncr",3.7,TRUE,60.6011,-145.8523
AK76,Chuloonawick,,Alaska,US,62.8961,-163.894,"ardac,awe,eds,ncr",11.0,TRUE,63.0926,-164.4874
AK77,Circle,Danzhit Khànląįį,Alaska,US,65.8255,-144.061,"ardac,awe,eds,ncr",437.7,FALSE,69.5037,-140.8608
AK78,Circle Hot Springs,,Alaska,US,65.4833,-144.634,"ardac,awe,eds,ncr",481.4,FALSE,69.4608,-140.9487
AK79,Clam Gulch,,Alaska,US,60.2311,-151.394,"ardac,awe,eds,ncr",2.4,TRUE,60.3069,-151.5365
AK80,Clark's Point,Saguyaq,Alaska,US,58.8441,-158.551,"ardac,awe,eds,ncr",0.4,TRUE,58.912,-158.7028
AK81,Clear,,Alaska,US,64.3332,-149.167,"ardac,awe,eds,ncr",315.4,FALSE,61.1779,-149.7993
AK562,Clear Air Force Station,,Alaska,US,64.2882,-149.1907,eds,310.4,FALSE,61.1329,-149.8198
AK82,Clover Pass,,Alaska,US,55.472,-131.791,"ardac,awe,eds,ncr",1.3,TRUE,55.5654,-131.8709
AK83,Coffman Cove,,Alaska,US,56.0119,-132.8296,"ardac,awe,eds,ncr",1.5,TRUE,55.8457,-133.3689
AK84,Cohoe,,Alaska,US,60.3671,-151.3,"ardac,awe,eds,ncr",2.0,TRUE,60.443,-151.4429
AK85,Cold Bay,,Alaska,US,55.1858,-162.721,"ardac,awe,eds,ncr",2.0,TRUE,55.2489,-162.8653
AK497,Coldfoot,,Alaska,US,67.251,-150.1744,"ardac,awe,eds,ncr",342.2,FALSE,70.2293,-148.0057
AK86,College,,Alaska,US,64.8582,-147.808,"ardac,awe,eds,ncr",381.6,FALSE,61.0973,-149.705
AK87,Cooper Landing,,Alaska,US,60.4906,-149.833,"ardac,awe,eds,ncr",47.2,TRUE,60.0731,-149.7064
AK88,Copper Center,Tl’aticae’e,Alaska,US,61.955,-145.305,"ardac,awe,eds,ncr",106.0,FALSE,60.9692,-146.7405
AK89,Cordova,,Alaska,US,60.5428,-145.757,"ardac,awe,eds,ncr",0.8,TRUE,60.6243,-145.8872
AK90,Council,,Alaska,US,64.895,-163.676,"ardac,awe,eds,ncr",34.4,TRUE,64.6813,-163.0091
AK498,Covenant Life,,Alaska,US,59.4003,-136.0027,"ardac,awe,eds,ncr",27.0,TRUE,58.8458,-135.1412
AK91,Craig,Sháan Séet,Alaska,US,55.4764,-133.148,"ardac,awe,eds",1.6,TRUE,55.5688,-133.2313
AK92,Crooked Creek,Qipcarpak,Alaska,US,61.87,-158.111,"ardac,awe,eds,ncr",239.9,FALSE,63.4563,-161.0533
AK499,Crown Point,,Alaska,US,60.4289,-149.3707,"ardac,awe,eds,ncr",34.2,TRUE,60.0222,-149.5754
AK448,Dall Bay State Marine Park,,Alaska,US,55.1559,-131.749,"ardac,awe,eds,ncr",1.0,TRUE,55.2494,-131.8282
AK93,Deadhorse,,Alaska,US,70.2097,-148.418,"ardac,awe,eds,ncr",11.3,TRUE,70.2763,-148.1422
AK449,Decision Point State Marine Park,,Alaska,US,60.8016,-148.464,"ardac,awe,eds,ncr",0.8,TRUE,60.8526,-147.9354
AK94,Deering,Ipnatchiaq,Alaska,US,66.0755,-162.717,"ardac,awe,eds,ncr",1.1,TRUE,66.1386,-162.9197
AK95,Delta Junction,,Alaska,US,64.0377,-145.732,"ardac,awe,eds,ncr",324.7,FALSE,61.0619,-146.6581
AK500,Deltana,,Alaska,US,64.0404,-145.5182,"ardac,awe,eds,ncr",327.2,FALSE,61.0838,-146.799
AK501,Denali Park,,Alaska,US,63.6388,-148.7895,"ardac,awe,eds,ncr",239.7,FALSE,61.1434,-149.6891
AK502,Diamond Ridge,,Alaska,US,59.6814,-151.6226,"ardac,awe,eds,ncr",7.0,TRUE,59.757,-151.7633
AK96,Dillingham,Curyung,Alaska,US,59.0397,-158.457,"ardac,awe,eds,ncr",1.4,TRUE,58.9461,-158.5876
AK97,Diomede,Iŋaliq,Alaska,US,65.7648,-168.911,"ardac,awe,eds,ncr",0.4,TRUE,65.8199,-169.1248
AK98,Dot Lake,Kelt’aaddh Menn’,Alaska,US,63.663,-144.049,"ardac,awe,eds,ncr",305.7,FALSE,60.9578,-146.7371
AK503,Dot Lake Village,,Alaska,US,63.6568,-144.0484,"ardac,awe,eds,ncr",305.1,FALSE,60.9516,-146.7361
AK99,Douglas,,Alaska,US,58.2762,-134.392,"ardac,awe,eds,ncr",0.8,TRUE,58.1652,-134.2793
AK469,Driftwood Bay State Marine Park,,Alaska,US,59.9128,-149.2571,"ardac,awe,eds,ncr",1.4,TRUE,59.9909,-149.3933
AK100,Dry Creek,,Alaska,US,63.7,-144.567,"ardac,awe,eds,ncr",300.5,FALSE,60.9686,-146.8802
AK101,Dutch Harbor,,Alaska,US,53.891,-166.535,"ardac,awe,eds",3.2,TRUE,53.9494,-166.6805
AK573,Dyke Range,,Alaska,US,64.7118,-147.3332,eds,371.2,FALSE,61.0346,-147.2404
AK102,Eagle,Tthee T'äwdlenn,Alaska,US,64.788,-141.2,"ardac,awe,eds,ncr",482.9,FALSE,68.7892,-136.5351
AK103,Eagle River,,Alaska,US,61.3221,-149.567,"ardac,awe,eds,ncr",9.3,TRUE,61.0767,-149.7535
AK104,Eagle Village,,Alaska,US,64.7805,-141.114,"ardac,awe,eds,ncr",484.5,FALSE,68.8215,-136.8652
AK441,Eareckson Air Station,,Alaska,US,52.7122,174.1136,"ardac,awe,eds",1.2,TRUE,52.7434,173.9509
AK105,Edna Bay,,Alaska,US,55.9489,-133.662,"ardac,awe,eds,ncr",1.3,TRUE,56.0409,-133.7476
AK106,Eek,Ekvicuaq,Alaska,US,60.2189,-162.024,"ardac,awe,eds,ncr",7.5,TRUE,60.2623,-162.515
AK107,Egavik,,Alaska,US,64.0332,-160.917,"ardac,awe,eds,ncr",1.8,TRUE,64.0983,-161.1015
AK108,Egegik,Igyagiiq,Alaska,US,58.2155,-157.376,"ardac,awe,eds,ncr",1.1,TRUE,58.2848,-157.5227
AK109,Egorkovskoi,,Alaska,US,53.564,-168.0,"ardac,awe,eds,ncr",0.9,TRUE,53.6205,-168.1464
AK442,Eielson Air Force Base,,Alaska,US,64.6656,-147.1014,"ardac,awe,eds,ncr",369.6,FALSE,60.9884,-147.0353
AK563,Eielson Alpa Research (1-1),,Alaska,US,65.2349,-147.763,eds,423.2,FALSE,61.15,-149.7318
AK564,Eielson Alpa Research (2-2),,Alaska,US,65.1945,-147.3161,eds,423.4,FALSE,61.0159,-146.9922
AK565,Eielson Alpa Research (2-3),,Alaska,US,65.0653,-147.5641,eds,406.7,FALSE,61.0488,-147.175
AK566,Eielson Alpa Research (2-4),,Alaska,US,65.0994,-148.0044,eds,406.4,FALSE,61.1737,-149.9133
AK568,Eielson Alpa Research (3-23),,Alaska,US,65.027,-147.1964,eds,406.8,FALSE,61.0267,-147.1881
AK567,Eielson Alpa Research (3-3),,Alaska,US,64.9103,-147.4459,eds,391.2,FALSE,61.055,-147.0384
AK569,Eielson Alpa Research (3-34),,Alaska,US,64.945,-147.861,eds,390.6,FALSE,61.1831,-149.7569
AK110,Eklutna,Idlughet,Alaska,US,61.458,-149.362,"ardac,awe,eds,ncr",3.3,TRUE,61.0617,-149.9092
AK111,Ekuk,,Alaska,US,58.804,-158.541,"ardac,awe,eds,ncr",0.6,TRUE,58.8719,-158.6926
AK112,Ekwok,Iquaq,Alaska,US,59.3497,-157.475,"ardac,awe,eds,ncr",43.7,TRUE,58.7718,-157.5583
AK113,Elephant Point,,Alaska,US,66.2673,-161.333,"ardac,awe,eds",1.5,TRUE,66.3322,-161.5339
AK114,Elfin Cove,,Alaska,US,58.1944,-136.343,"ardac,awe,eds",0.4,TRUE,58.2842,-136.4412
AK115,Elim,Neviarcaurluq,Alaska,US,64.6175,-162.26,"ardac,awe,eds,ncr",0.5,TRUE,64.7012,-162.0745
AK116,Ellamar,,Alaska,US,60.8961,-146.708,"ardac,awe,eds,ncr",0.5,TRUE,60.9767,-146.842
AK570,Elmendorf Air Force Base,,Alaska,US,61.2698,-149.8112,eds,3.4,TRUE,61.1857,-149.9751
AK583,Elmendorf Air Force Base Site 2,,Alaska,US,61.24,-149.765,eds,6.7,TRUE,61.1559,-149.9289
AK117,Emmonak,Imangaq,Alaska,US,62.7778,-164.523,"ardac,awe,eds,ncr",3.2,TRUE,62.8119,-165.0588
AK470,Entry Cove State Marine Park,,Alaska,US,60.8048,-148.3636,"ardac,awe,eds,ncr",1.1,TRUE,60.8554,-147.8348
AK450,Ernie Haugen Public Use Area,,Alaska,US,56.5421,-132.6616,"ardac,awe,eds,ncr",0.9,TRUE,56.3767,-133.2095
AK119,Eska,,Alaska,US,61.7381,-148.906,"ardac,awe,eds,ncr",32.2,TRUE,61.1926,-149.8241
AK120,Ester,,Alaska,US,64.8472,-148.014,"ardac,awe,eds,ncr",378.6,FALSE,61.0838,-149.8861
AK504,Eureka Roadhouse,,Alaska,US,61.9375,-147.1688,"ardac,awe,eds,ncr",79.3,TRUE,61.0347,-147.1769
AK505,Evansville,,Alaska,US,66.9238,-151.5061,"ardac,awe,eds,ncr",381.0,FALSE,70.2054,-148.0652
AK122,Excursion Inlet,,Alaska,US,58.417,-135.441,"ardac,awe,eds,ncr",0.6,TRUE,58.4626,-135.2381
AK123,Eyak,Igya’aq,Alaska,US,60.5652,-145.7,"ardac,awe,eds,ncr",4.3,TRUE,60.6468,-145.8302
AK124,Fairbanks,,Alaska,US,64.8378,-147.716,"ardac,awe,eds,ncr",380.3,FALSE,60.9834,-147.2769
AK574,Fairbanks Eielson Pipeline,,Alaska,US,64.6656,-147.1014,eds,369.6,FALSE,60.9884,-147.0353
AK575,Fairbanks Permafrost Station,,Alaska,US,64.8743,-147.68,eds,384.7,FALSE,61.0197,-147.2447
AK125,False Pass,Isanax̂,Alaska,US,54.8548,-163.407,"ardac,awe,eds,ncr",0.8,TRUE,54.9171,-163.5512
AK506,Farm Loop,,Alaska,US,61.6354,-149.1482,"ardac,awe,eds,ncr",16.0,TRUE,61.0783,-149.723
AK507,Farmers Loop,,Alaska,US,64.8988,-147.6978,"ardac,awe,eds,ncr",387.2,FALSE,61.0442,-147.2601
AK126,Ferry,,Alaska,US,64.0172,-149.117,"ardac,awe,eds,ncr",280.3,FALSE,61.1859,-149.7048
AK127,Fish Village,,Alaska,US,62.5212,-163.847,"ardac,awe,eds,ncr",38.6,TRUE,62.5322,-164.726
AK508,Fishhook,,Alaska,US,61.6718,-149.2239,"ardac,awe,eds,ncr",18.7,TRUE,61.1144,-149.798
AK128,Flat,,Alaska,US,62.4536,-158.007,"ardac,awe,eds,ncr",198.5,FALSE,63.38,-161.2111
AK129,Fort Glenn,,Alaska,US,53.3956,-167.881,"ardac,awe,eds,ncr",1.6,TRUE,53.4861,-167.7604
AK440,Fort Greely,,Alaska,US,63.9731,-145.7181,"ardac,awe,eds,ncr",318.1,FALSE,60.9975,-146.6436
AK576,Fort Richardson,,Alaska,US,61.2656,-149.641,eds,10.4,TRUE,61.1817,-149.8054
AK438,Fort Wainwright,,Alaska,US,64.8278,-147.6429,"ardac,awe,eds,ncr",380.0,FALSE,60.9733,-147.2127
AK130,Fort Yukon,Gwichyaa Zheh,Alaska,US,66.5647,-145.274,"ardac,awe,eds,ncr",377.4,FALSE,69.7881,-142.4092
AK509,Four Mile Road,,Alaska,US,64.6018,-149.1306,"ardac,awe,eds,ncr",345.4,FALSE,61.1229,-149.8148
AK131,Fox,,Alaska,US,64.958,-147.618,"ardac,awe,eds,ncr",394.4,FALSE,61.103,-147.1891
AK510,Fox River,,Alaska,US,59.8164,-151.0895,"ardac,awe,eds,ncr",2.5,TRUE,60.0608,-151.542
AK471,Fox River Flats Critical Habitat Area,,Alaska,US,59.7935,-150.925,"ardac,awe,eds,ncr",4.1,TRUE,59.5388,-150.772
AK511,Fritz Creek,,Alaska,US,59.6915,-151.3746,"ardac,awe,eds,ncr",1.9,TRUE,59.6055,-151.5268
AK512,Funny River,,Alaska,US,60.5021,-150.7939,"ardac,awe,eds,ncr",26.7,TRUE,60.5856,-151.2675
AK451,Funter Bay State Marine Park,,Alaska,US,58.2505,-134.9227,"ardac,awe,eds,ncr",1.0,TRUE,58.1858,-135.1044
AK132,Gakona,Ggax Kuna’,Alaska,US,62.3019,-145.302,"ardac,awe,eds,ncr",141.0,FALSE,60.9941,-146.8265
AK133,Galena,Notaalee Denh,Alaska,US,64.7333,-156.927,"ardac,awe,eds,ncr",183.9,FALSE,64.681,-160.9
AK134,Gambell,Sivuqaq,Alaska,US,63.7797,-171.741,"ardac,awe,eds",0.5,TRUE,63.8309,-171.9454
AK513,Game Creek,,Alaska,US,58.0752,-135.484,"ardac,awe,eds,ncr",2.6,TRUE,58.1209,-135.2832
AK514,Gateway,,Alaska,US,61.5638,-149.2645,"ardac,awe,eds,ncr",6.4,TRUE,61.1679,-149.8148
AK135,Georgetown,,Alaska,US,61.9085,-157.787,"ardac,awe,eds,ncr",248.9,FALSE,63.4847,-161.0784
AK136,Girdwood,,Alaska,US,60.9421,-149.167,"ardac,awe,eds,ncr",0.6,TRUE,61.0415,-149.9784
AK515,Glacier View,,Alaska,US,61.7977,-147.6026,"ardac,awe,eds,ncr",58.3,TRUE,61.04,-147.2313
AK137,Glennallen,,Alaska,US,62.1092,-145.546,"ardac,awe,eds,ncr",116.3,FALSE,60.9425,-146.6829
AK516,Goldstream,,Alaska,US,64.9131,-147.9051,"ardac,awe,eds,ncr",386.7,FALSE,61.1508,-149.7939
AK452,Goldstream Public Use Area,,Alaska,US,64.93,-147.7653,"ardac,awe,eds,ncr",389.9,FALSE,61.1693,-149.6717
AK138,Golovin,Cingik / Siŋik,Alaska,US,64.5433,-163.029,"ardac,awe,eds,ncr",1.8,TRUE,64.4451,-163.1694
AK139,Goodnews Bay,Mamterat,Alaska,US,59.1186,-161.589,"ardac,awe,eds,ncr",0.7,TRUE,59.1828,-161.748
AK140,Grayling,Sixno' Xidakagg,Alaska,US,62.9062,-160.077,"ardac,awe,eds,ncr",87.1,TRUE,63.4235,-161.079
AK141,Gulkana,C'uul C'ena',Alaska,US,62.2714,-145.382,"ardac,awe,eds,ncr",136.3,FALSE,60.9627,-146.9018
AK142,Gustavus,,Alaska,US,58.4125,-135.738,"ardac,awe,eds,ncr",3.6,TRUE,58.5027,-135.8352
AK143,Haines,Deishú,Alaska,US,59.2358,-135.445,"ardac,awe,eds,ncr",1.2,TRUE,58.9251,-135.1101
AK517,Halibut Cove,,Alaska,US,59.5906,-151.2335,"ardac,awe,eds,ncr",1.2,TRUE,59.5108,-151.7064
AK518,Happy Valley,,Alaska,US,59.9328,-151.729,"ardac,awe,eds,ncr",6.2,TRUE,60.0083,-151.871
AK519,Harding-Birch Lakes,,Alaska,US,64.3481,-146.855,"ardac,awe,eds,ncr",340.4,FALSE,61.0108,-147.0791
AK145,Haycock,,Alaska,US,65.2172,-161.167,"ardac,awe,eds,ncr",30.7,TRUE,64.9592,-161.2751
AK472,Hazen Bay Refuge,,Alaska,US,60.8465,-165.0807,"ardac,awe,eds",7.1,TRUE,60.9063,-165.255
AK146,Healy,,Alaska,US,63.8578,-148.966,"ardac,awe,eds,ncr",263.1,FALSE,61.1994,-149.8789
AK147,Healy Lake,Mendees Cheeg,Alaska,US,63.9441,-144.755,"ardac,awe,eds,ncr",324.0,FALSE,61.0311,-146.7702
AK148,Highland Park,,Alaska,US,64.7582,-147.371,"ardac,awe,eds,ncr",375.7,FALSE,61.0641,-146.9388
AK520,Hobart Bay,,Alaska,US,57.401,-133.4127,"ardac,awe,eds,ncr",0.6,TRUE,57.493,-133.5012
AK149,Holikachuk,,Alaska,US,62.9112,-159.517,"ardac,awe,eds,ncr",106.9,FALSE,63.3989,-161.2322
AK150,Hollis,,Alaska,US,55.4879,-132.663,"ardac,awe,eds,ncr",1.4,TRUE,55.477,-133.1073
AK151,Holy Cross,Ingirraller / Deloy Chet,Alaska,US,62.1994,-159.771,"ardac,awe,eds,ncr",162.7,FALSE,63.5073,-161.2918
AK152,Homer,,Alaska,US,59.6425,-151.548,"ardac,awe,eds,ncr",4.3,TRUE,59.5563,-151.6995
AK153,Hoonah,Xunaa / Gaaw Yat’aḵ Aan,Alaska,US,58.11,-135.444,"ardac,awe,eds,ncr",0.3,TRUE,58.2005,-135.5396
AK154,Hooper Bay,Naparyaarmiut,Alaska,US,61.5311,-166.097,"ardac,awe,eds,ncr",0.6,TRUE,61.5896,-166.277
AK155,Hope,,Alaska,US,60.9203,-149.64,"ardac,awe,eds,ncr",2.1,TRUE,60.998,-149.7814
AK473,Horseshoe Bay State Marine Park,,Alaska,US,60.0322,-147.9418,"ardac,awe,eds",0.5,TRUE,60.1116,-148.0753
AK156,Houston,,Alaska,US,61.6302,-149.818,"ardac,awe,eds,ncr",18.2,TRUE,61.2228,-150.0247
AK157,Hughes,Hut’odlee Kkaakk’et,Alaska,US,66.0488,-154.255,"ardac,awe,eds,ncr",272.1,FALSE,66.4481,-161.3363
AK158,Huslia,Ts’aateyhdenaadekk’onh Denh,Alaska,US,65.6986,-156.4,"ardac,awe,eds,ncr",191.1,FALSE,64.9779,-161.1277
AK159,Hydaburg,Higdáa G̱ándlaay,Alaska,US,55.208,-132.827,"ardac,awe,eds,ncr",1.8,TRUE,55.1462,-132.9976
AK160,Hyder,,Alaska,US,55.9169,-130.025,"ardac,awe,eds,ncr",1.0,TRUE,55.6226,-131.5838
AK161,Iditarod,,Alaska,US,62.5448,-158.094,"ardac,awe,eds,ncr",188.6,FALSE,63.4692,-161.3106
AK162,Igiugig,Igyaraq,Alaska,US,59.3278,-155.895,"ardac,awe,eds,ncr",54.1,TRUE,59.2526,-154.123
AK163,Ikatan,,Alaska,US,54.75,-163.308,"ardac,awe,eds,ncr",1.3,TRUE,54.6513,-163.4119
AK164,Iliamna,Illiamna,Alaska,US,59.7536,-154.817,"ardac,awe,eds,ncr",56.3,TRUE,59.6669,-153.6704
AK165,Inakpuk,,Alaska,US,59.5331,-157.15,"ardac,awe,eds,ncr",47.1,TRUE,58.7854,-157.5378
AK166,Indian,,Alaska,US,60.9881,-149.513,"ardac,awe,eds,ncr",0.2,TRUE,61.0659,-149.6544
AK167,Indian River,,Alaska,US,62.6672,-144.433,"ardac,awe,eds,ncr",197.5,FALSE,61.0838,-146.7607
AK168,Ingrihak,,Alaska,US,61.7561,-162.0,"ardac,awe,eds,ncr",114.8,FALSE,60.4941,-162.5049
AK474,Ishtalitna Creek Hot Springs Research Natural Area,,Alaska,US,65.8669,-151.6311,"ardac,awe,eds,ncr",393.2,FALSE,66.4392,-161.4888
AK169,Ivanof Bay,,Alaska,US,55.8996,-159.507,"ardac,awe,eds,ncr",0.8,TRUE,55.6561,-159.3127
AK475,Jack Bay State Marine Park,,Alaska,US,61.032,-146.5743,"ardac,awe,eds,ncr",0.3,TRUE,60.9518,-146.7453
AK453,Joe Mace Island State Marine Park,,Alaska,US,56.3473,-133.635,"ardac,awe,eds",1.3,TRUE,56.4393,-133.7215
AK170,Joe Ward Camp,,Alaska,US,66.8673,-143.699,"ardac,awe,eds,ncr",321.8,FALSE,69.5805,-140.857
AK439,Joint Base Elmendorf-Richardson,,Alaska,US,61.2514,-149.8064,"ardac,awe,eds,ncr",4.4,TRUE,61.1673,-149.9703
AK171,Jonesville,,Alaska,US,61.7311,-148.933,"ardac,awe,eds,ncr",30.8,TRUE,61.1854,-149.8504
AK172,Juneau,Dzánti K'ihéeni,Alaska,US,58.3019,-134.42,"ardac,awe,eds,ncr",2.1,TRUE,58.238,-134.6029
AK173,Kachemak,,Alaska,US,59.6488,-151.451,"ardac,awe,eds,ncr",0.9,TRUE,59.5628,-151.6028
AK174,Kake,Ḵéex̱ʼ,Alaska,US,56.9758,-133.947,"ardac,awe,eds,ncr",4.2,TRUE,57.0675,-134.0358
AK176,Kaktovik,Qaaktuġvik,Alaska,US,70.1131,-143.6623,"ardac,awe,eds,ncr",2.5,TRUE,70.1983,-143.8391
AK177,Kalifornsky,Unhghenesditnu,Alaska,US,60.4412,-151.198,"ardac,awe,eds,ncr",6.0,TRUE,60.5172,-151.341
AK179,Kaltag,Ggaał Doh,Alaska,US,64.3272,-158.722,"ardac,awe,eds,ncr",106.0,FALSE,64.1455,-161.1053
AK180,Kanakanak,,Alaska,US,59.0031,-158.533,"ardac,awe,eds,ncr",0.7,TRUE,59.071,-158.6855
AK443,Kantishna,,Alaska,US,63.5253,-150.9581,"ardac,awe,eds,ncr",237.4,FALSE,61.1594,-150.6607
AK454,Kanuti Hot Springs Area Of Critical Environmental Concern,,Alaska,US,66.3427,-150.8468,"ardac,awe,eds,ncr",419.7,FALSE,70.2922,-148.153
AK181,Karluk,Kal’ut,Alaska,US,57.5719,-154.455,"ardac,awe,eds,ncr",0.5,TRUE,57.6445,-154.5932
AK182,Kasaan,Gasa'áan,Alaska,US,55.5389,-132.401,"ardac,awe,eds,ncr",0.4,TRUE,55.5271,-131.9386
AK183,Kashega,,Alaska,US,53.467,-167.16,"ardac,awe,eds,ncr",0.7,TRUE,53.5246,-167.3048
AK184,Kashegelok,,Alaska,US,60.8331,-157.833,"ardac,awe,eds,ncr",189.5,FALSE,58.9308,-158.7101
AK185,Kasigluk,Kassigluq,Alaska,US,60.8955,-162.521,"ardac,awe,eds,ncr",26.0,TRUE,60.4769,-162.5612
AK186,Kasilof,,Alaska,US,60.3375,-151.274,"ardac,awe,eds,ncr",5.6,TRUE,60.4135,-151.4167
AK187,Kathakne,,Alaska,US,62.9692,-141.832,"ardac,awe,eds,ncr",291.3,FALSE,60.183,-143.0249
AK188,Kenai,Shk'ituk't,Alaska,US,60.5544,-151.258,"ardac,awe,eds,ncr",1.8,TRUE,60.6304,-151.4016
AK476,Kenai River Special Management Area,,Alaska,US,60.5069,-150.9635,"ardac,awe,eds,ncr",17.4,TRUE,60.5832,-151.1062
AK189,Kenny Lake,,Alaska,US,61.7379,-144.945,"ardac,awe,eds,ncr",98.8,TRUE,60.9349,-146.6766
AK190,Kepangalook,,Alaska,US,60.8501,-161.617,"ardac,awe,eds,ncr",21.8,TRUE,60.3929,-162.3238
AK191,Ketchikan,Kichx̱áan,Alaska,US,55.3422,-131.646,"ardac,awe,eds,ncr",1.0,TRUE,55.2821,-131.8191
AK192,Kiana,Katyaaq,Alaska,US,66.975,-160.423,"ardac,awe,eds,ncr",35.8,TRUE,66.8258,-161.8116
AK193,Kinegnak,,Alaska,US,58.8331,-161.667,"ardac,awe,eds,ncr",1.9,TRUE,58.8972,-161.8248
AK194,King Cove,Agdaaĝux̂,Alaska,US,55.0629,-162.31,"ardac,awe,eds",0.6,TRUE,55.1265,-162.4532
AK195,King Island,Ugiuvak,Alaska,US,64.9694,-168.065,"ardac,awe,eds,ncr",1.4,TRUE,65.0255,-168.2711
AK196,King Salmon,,Alaska,US,58.6883,-156.661,"ardac,awe,eds,ncr",17.1,TRUE,58.5813,-157.4193
AK197,Kipnuk,Qipnek,Alaska,US,59.9389,-164.041,"ardac,awe,eds,ncr",5.3,TRUE,60.0001,-164.2086
AK198,Kivalina,Kivaliñiq,Alaska,US,67.7269,-164.533,"ardac,awe,eds,ncr",2.6,TRUE,67.788,-164.7533
AK199,Kiwalik,,Alaska,US,66.0333,-161.833,"ardac,awe,eds",1.0,TRUE,66.1167,-161.6365
AK200,Klawock,Lawaak,Alaska,US,55.5522,-133.096,"ardac,awe,eds",0.8,TRUE,55.49,-133.2677
AK201,Klery Creek,,Alaska,US,67.1793,-160.4,"ardac,awe,eds,ncr",53.3,TRUE,66.8682,-161.7513
AK202,Klukwan,Tlákw.aan,Alaska,US,59.3991,-135.894,"ardac,awe,eds,ncr",21.2,TRUE,58.8439,-135.0343
AK203,Knik,,Alaska,US,61.4578,-149.729,"ardac,awe,eds,ncr",1.6,TRUE,61.2122,-149.915
AK521,Knik River,,Alaska,US,61.4812,-149.13,"ardac,awe,eds,ncr",6.4,TRUE,61.0858,-149.6805
AK204,Kobuk,Laugviik,Alaska,US,66.9072,-156.881,"ardac,awe,eds,ncr",151.4,FALSE,66.8335,-161.5907
AK205,Kodiak,Sun'aq,Alaska,US,57.79,-152.407,"ardac,awe,eds,ncr",3.1,TRUE,57.8649,-152.5418
AK522,Kodiak Station,,Alaska,US,57.7552,-152.514,"ardac,awe,eds,ncr",1.4,TRUE,57.83,-152.6489
AK206,Kokhanok,Qarr’unaq,Alaska,US,59.4426,-154.761,"ardac,awe,eds,ncr",35.5,TRUE,59.1937,-154.263
AK207,Kokrines,Łoyh Denlekk’es Denh,Alaska,US,64.9332,-154.7,"ardac,awe,eds,ncr",289.9,FALSE,64.8517,-160.9929
AK208,Koliganek,Qalirneq,Alaska,US,59.7286,-157.284,"ardac,awe,eds,ncr",70.1,TRUE,58.9503,-158.6169
AK209,Kongiganak,Kangirnaq,Alaska,US,59.9647,-162.877,"ardac,awe,eds,ncr",4.6,TRUE,59.8669,-162.9985
AK210,Kotlik,Qerrulliik,Alaska,US,63.0341,-163.553,"ardac,awe,eds,ncr",4.5,TRUE,63.0959,-163.7369
AK211,Kotzebue,Qikiqtaġruk,Alaska,US,66.8983,-162.597,"ardac,awe,eds,ncr",1.8,TRUE,66.8,-162.7516
AK212,Koyuk,Kuuyuk,Alaska,US,64.9319,-161.157,"ardac,awe,eds,ncr",0.8,TRUE,65.0143,-160.9662
AK213,Koyukuk,Meneelghaadze’ T’oh,Alaska,US,64.8802,-157.701,"ardac,awe,eds,ncr",147.8,FALSE,64.8435,-160.9332
AK214,Kupreanof,,Alaska,US,56.8153,-133.006,"ardac,awe,eds,ncr",1.2,TRUE,57.1121,-133.2841
AK215,Kustatan,Qezdeghnen,Alaska,US,60.7171,-151.75,"ardac,awe,eds,ncr",0.2,TRUE,60.6307,-151.906
AK216,Kvichak,,Alaska,US,58.9671,-156.933,"ardac,awe,eds,ncr",1.2,TRUE,58.6968,-157.6791
AK217,Kwethluk,Kuiggluk,Alaska,US,60.8122,-161.436,"ardac,awe,eds,ncr",27.1,TRUE,60.4963,-162.5132
AK218,Kwigillingok,Kuigilnguq,Alaska,US,59.8644,-163.134,"ardac,awe,eds,ncr",2.7,TRUE,59.9267,-163.2995
AK219,Kwiguk,,Alaska,US,62.7683,-164.5067,"ardac,awe,eds,ncr",2.0,TRUE,62.8025,-165.0423
AK523,Lake Louise,,Alaska,US,62.2721,-146.5351,"ardac,awe,eds,ncr",126.8,FALSE,61.065,-146.9712
AK220,Lake Minchumina,Menchuh Mene’,Alaska,US,63.8828,-152.312,"ardac,awe,eds,ncr",295.2,FALSE,61.177,-150.9179
AK455,Lake Todatonten Pingos Research Natural Area,,Alaska,US,66.1055,-152.938,"ardac,awe,eds,ncr",329.7,FALSE,66.3331,-161.5897
AK221,Larsen Bay,Uyaqsaq,Alaska,US,57.54,-153.979,"ardac,awe,eds,ncr",1.1,TRUE,57.6131,-153.8123
AK222,Last Tetlin Village,,Alaska,US,63.0332,-142.616,"ardac,awe,eds,ncr",279.5,FALSE,60.1894,-143.0969
AK223,Latouche,,Alaska,US,60.0511,-147.9,"ardac,awe,eds,ncr",2.1,TRUE,60.1305,-148.0335
AK524,Lazy Mountain,,Alaska,US,61.6152,-149.0608,"ardac,awe,eds,ncr",16.3,TRUE,61.0687,-149.9727
AK225,Lena Beach,,Alaska,US,58.393,-134.746,"ardac,awe,eds,ncr",1.4,TRUE,58.484,-134.8406
AK226,Levelock,Liivlek,Alaska,US,59.115,-156.857,"ardac,awe,eds,ncr",0.6,TRUE,58.6833,-157.59
AK227,Libbyville,,Alaska,US,58.7781,-157.056,"ardac,awe,eds,ncr",0.7,TRUE,58.6777,-157.5023
AK228,Lime Village,Hekdichen Hdakaq',Alaska,US,61.3564,-155.436,"ardac,awe,eds,ncr",173.9,FALSE,60.7777,-152.2242
AK229,Livengood,,Alaska,US,65.5244,-148.545,"ardac,awe,eds,ncr",450.1,FALSE,61.0866,-149.7938
AK230,Loring,,Alaska,US,55.603,-131.632,"ardac,awe,eds,ncr",0.2,TRUE,55.543,-131.8064
AK525,Lowell Point,,Alaska,US,60.0709,-149.442,"ardac,awe,eds,ncr",0.9,TRUE,59.9872,-149.6009
AK231,Lower Kalskag,Qalqaq,Alaska,US,61.5122,-160.358,"ardac,awe,eds,ncr",121.9,FALSE,60.4835,-162.6354
AK232,Lower Tonsina,Kentsii Cae'e,Alaska,US,61.655,-144.659,"ardac,awe,eds,ncr",104.8,FALSE,60.6563,-145.771
AK233,Lucky Shot Landing,,Alaska,US,61.7751,-149.408,"ardac,awe,eds,ncr",29.3,TRUE,61.2068,-149.6432
AK526,Lutak,,Alaska,US,59.3233,-135.5602,"ardac,awe,eds,ncr",0.5,TRUE,58.8119,-135.0092
AK477,Magoun Islands State Marine Park,,Alaska,US,57.1619,-135.5777,"ardac,awe,eds",1.4,TRUE,57.2078,-135.3821
AK234,Manley Hot Springs,Too Naaleł Denh,Alaska,US,65.0011,-150.634,"ardac,awe,eds,ncr",394.3,FALSE,61.1844,-150.852
AK235,Manokotak,Manuquutaq,Alaska,US,58.9796,-159.053,"ardac,awe,eds,ncr",13.1,TRUE,58.8724,-159.4958
AK236,Mansfield Village,Dihthâad,Alaska,US,63.4672,-143.433,"ardac,awe,eds,ncr",300.1,FALSE,60.9711,-146.7839
AK237,Marshall,Masserculleq,Alaska,US,61.8778,-162.081,"ardac,awe,eds,ncr",128.2,FALSE,63.1833,-163.3282
AK238,Marys Igloo,,Alaska,US,65.1478,-165.063,"ardac,awe,eds,ncr",46.6,TRUE,65.0908,-166.7826
AK239,Matanuska,,Alaska,US,61.5421,-149.229,"ardac,awe,eds,ncr",4.8,TRUE,61.1463,-149.7793
AK240,McCarthy,,Alaska,US,61.4333,-142.922,"ardac,awe,eds,ncr",121.5,FALSE,60.1864,-142.8323
AK241,McGrath,Tochak’,Alaska,US,62.9564,-155.596,"ardac,awe,eds,ncr",274.0,FALSE,63.8494,-160.9866
AK242,McKinley Park Airport,,Alaska,US,63.7331,-148.9111,"ardac,awe,eds,ncr",249.5,FALSE,61.0752,-149.8251
AK527,Meadow Lakes,,Alaska,US,61.5846,-149.628,"ardac,awe,eds,ncr",10.8,TRUE,61.1775,-149.8368
AK243,Meakerville,,Alaska,US,60.5421,-145.008,"ardac,awe,eds,ncr",1.1,TRUE,60.4639,-145.1803
AK244,Medfra,,Alaska,US,63.1067,-154.714,"ardac,awe,eds,ncr",287.5,FALSE,61.2003,-150.7658
AK245,Mekoryuk,Mikuryar,Alaska,US,60.388,-166.185,"ardac,awe,eds,ncr",0.3,TRUE,60.4464,-166.3588
AK246,Mendeltna,,Alaska,US,62.0487,-146.5386,"ardac,awe,eds,ncr",101.8,FALSE,61.0027,-146.936
AK247,Mentasta Lake,Mendaesde,Alaska,US,62.9212,-143.792,"ardac,awe,eds,ncr",239.0,FALSE,61.0623,-146.9184
AK528,Mertarvik,,Alaska,US,60.8196,-164.5123,"ardac,awe,eds,ncr",2.6,TRUE,60.6941,-164.9605
AK248,Metlakatla,Maxłakxaała,Alaska,US,55.1292,-131.572,"ardac,awe,eds",0.6,TRUE,55.2228,-131.6507
AK249,Meyers Chuck,,Alaska,US,55.7408,-132.256,"ardac,awe,eds,ncr",0.4,TRUE,55.5749,-131.8854
AK529,Mill Bay,,Alaska,US,57.8195,-152.3559,"ardac,awe,eds,ncr",1.3,TRUE,57.7323,-152.4976
AK250,Minto,,Alaska,US,65.1496,-149.3504,"ardac,awe,eds,ncr",406.2,FALSE,61.1832,-150.0828
AK478,Misty Fjords National Monument,,Alaska,US,55.7913,-130.7927,"ardac,awe,eds,ncr",8.3,TRUE,55.6884,-131.6093
AK530,Moose Creek,,Alaska,US,64.7155,-147.1645,"ardac,awe,eds,ncr",374.0,FALSE,61.0382,-147.0911
AK251,Moose Pass,,Alaska,US,60.4876,-149.367,"ardac,awe,eds,ncr",37.3,TRUE,60.8993,-149.7947
AK252,Morzhovoi,,Alaska,US,54.91,-163.303,"ardac,awe,eds,ncr",0.4,TRUE,54.9724,-163.4473
AK253,Moses Point,,Alaska,US,64.7002,-162.033,"ardac,awe,eds",1.6,TRUE,64.764,-162.2244
AK531,Mosquito Lake,,Alaska,US,59.4246,-136.016,"ardac,awe,eds,ncr",28.7,TRUE,58.8702,-135.1537
AK254,Mountain Village,Asaacaryaraq,Alaska,US,62.0884,-163.72,"ardac,awe,eds,ncr",58.5,TRUE,62.2338,-164.9872
AK532,Mud Bay,,Alaska,US,59.1702,-135.3665,"ardac,awe,eds,ncr",1.4,TRUE,58.8593,-135.033
AK571,Murphy Dome Long Range Radar Site,,Alaska,US,64.9517,-148.3398,eds,387.7,FALSE,61.1744,-149.8421
AK256,Nabesna,Naambia Niign Daacheeg,Alaska,US,62.3719,-143.009,"ardac,awe,eds,ncr",203.9,FALSE,60.2997,-142.8623
AK257,Nakeen,,Alaska,US,58.9361,-157.038,"ardac,awe,eds,ncr",0.7,TRUE,58.674,-157.4699
AK258,Naknek,Nakniq,Alaska,US,58.7283,-157.014,"ardac,awe,eds,ncr",0.6,TRUE,58.6361,-157.1473
AK259,Nanwalek,English Bay,Alaska,US,59.354,-151.916,"ardac,awe,eds,ncr",0.5,TRUE,59.4293,-152.056
AK262,Napaimute,,Alaska,US,61.54,-158.674,"ardac,awe,eds,ncr",196.0,FALSE,60.4644,-162.3213
AK261,Napakiak,Naparyarraq,Alaska,US,60.6967,-161.952,"ardac,awe,eds,ncr",0.7,TRUE,60.4191,-162.3665
AK263,Napaskiak,Napaskiaq,Alaska,US,60.708,-161.766,"ardac,awe,eds,ncr",6.3,TRUE,60.4106,-162.5096
AK264,Nash Harbor,,Alaska,US,60.2041,-166.939,"ardac,awe,eds",3.7,TRUE,60.2294,-167.4348
AK577,National Guard Alcantra Armory Complex,,Alaska,US,61.603,-149.3748,eds,10.4,TRUE,61.2066,-149.9244
AK585,National Guard Anchorage International Airport,,Alaska,US,61.1599,-149.9695,eds,4.3,TRUE,61.0756,-150.1325
AK580,National Guard Fairbanks Armory,,Alaska,US,64.8417,-147.7535,eds,380.4,FALSE,61.0815,-149.656
AK584,National Guard Wasilla Storefront Recruiting Office,,Alaska,US,61.5769,-149.4107,eds,7.2,TRUE,61.1804,-149.9594
AK533,Naukati Bay,,Alaska,US,55.8762,-133.1921,"ardac,awe,eds,ncr",1.6,TRUE,55.8139,-133.3652
AK557,Naval Air Facility Adak,,Alaska,US,51.8751,-176.6498,eds,1.4,TRUE,51.9199,-176.8008
AK265,Nelchina,,Alaska,US,61.996,-146.8203,"ardac,awe,eds,ncr",93.4,TRUE,61.1102,-147.1734
AK266,Nelson Lagoon,Niilsanam Alĝuudaa,Alaska,US,56.0012,-161.201,"ardac,awe,eds,ncr",1.6,TRUE,56.0661,-161.3459
AK267,Nenana,Toghotili,Alaska,US,64.5638,-149.093,"ardac,awe,eds,ncr",341.3,FALSE,61.0851,-149.7805
AK268,New Knockhock,,Alaska,US,62.1291,-164.894,"ardac,awe,eds,ncr",29.1,TRUE,62.1892,-165.0751
AK269,New Stuyahok,Cetuyaraq,Alaska,US,59.4528,-157.312,"ardac,awe,eds,ncr",44.8,TRUE,58.7046,-157.6954
AK270,Newhalen,Nuuriileng,Alaska,US,59.72,-154.897,"ardac,awe,eds,ncr",56.8,TRUE,59.3103,-154.0728
AK271,Newtok,Niugtaq,Alaska,US,60.9427,-164.629,"ardac,awe,eds,ncr",1.2,TRUE,60.8168,-165.0785
AK272,Nightmute,Negtemiut,Alaska,US,60.4794,-164.724,"ardac,awe,eds,ncr",14.4,TRUE,60.5129,-165.2221
AK578,Nike Alaska Mike,,Alaska,US,64.5849,-146.7309,eds,367.1,FALSE,61.0862,-147.0053
AK579,Nike Alaska Peter,,Alaska,US,64.6745,-146.7542,eds,376.1,FALSE,61.0145,-147.0621
AK273,Nikiski,,Alaska,US,60.6394,-151.334,"ardac,awe,eds,ncr",1.1,TRUE,60.7153,-151.4782
AK274,Nikolaevsk,,Alaska,US,59.8109,-151.623,"ardac,awe,eds,ncr",12.4,TRUE,59.8865,-151.7642
AK275,Nikolai,Nikolai,Alaska,US,63.0133,-154.375,"ardac,awe,eds,ncr",268.7,FALSE,61.1063,-150.7958
AK276,Nikolski,Chalukax̂,Alaska,US,52.938,-168.868,"ardac,awe,eds,ncr",1.6,TRUE,52.9934,-169.0133
AK277,Nilikluguk,,Alaska,US,60.6501,-165.15,"ardac,awe,eds,ncr",1.4,TRUE,60.7098,-165.3233
AK278,Ninilchik,,Alaska,US,60.0514,-151.669,"ardac,awe,eds,ncr",2.3,TRUE,60.127,-151.8114
AK279,Noatak,Nuataam Kuuŋa,Alaska,US,67.5711,-162.965,"ardac,awe,eds,ncr",43.5,TRUE,67.5871,-164.0175
AK280,Nome,Sitŋasuaq,Alaska,US,64.5107,-165.4447,"ardac,awe,eds,ncr",0.1,TRUE,64.4104,-165.5766
AK281,Nondalton,Nundaltin,Alaska,US,59.9736,-154.846,"ardac,awe,eds,ncr",72.3,TRUE,59.724,-153.3702
AK282,Noorvik,Nuurvik,Alaska,US,66.8383,-161.033,"ardac,awe,eds,ncr",19.6,TRUE,66.8854,-161.6465
AK534,North Lakes,,Alaska,US,61.6135,-149.3298,"ardac,awe,eds,ncr",12.3,TRUE,61.2173,-149.8801
AK283,North Pole,,Alaska,US,64.7511,-147.349,"ardac,awe,eds,ncr",375.3,FALSE,61.0738,-147.2543
AK284,Northway,K’ehtthiign,Alaska,US,62.9616,-141.937,"ardac,awe,eds,ncr",287.8,FALSE,60.3343,-143.067
AK285,Northway Indian Village,,Alaska,US,62.9832,-141.949,"ardac,awe,eds,ncr",289.6,FALSE,60.196,-143.1324
AK286,Northway Junction,,Alaska,US,63.0173,-141.792,"ardac,awe,eds,ncr",296.9,FALSE,60.2314,-142.99
AK287,Nuiqsut,Nuiqsat,Alaska,US,70.2175,-150.976,"ardac,awe,eds,ncr",19.4,TRUE,70.6261,-151.1386
AK288,Nulato,Noolaaghe Doh,Alaska,US,64.7194,-158.103,"ardac,awe,eds,ncr",127.9,FALSE,64.692,-160.9384
AK289,Nunam Iqua,Sheldon Point,Alaska,US,62.5336,-164.841,"ardac,awe,eds,ncr",0.8,TRUE,62.5938,-165.0244
AK290,Nunapitchuk,Nunapicuar,Alaska,US,60.8969,-162.459,"ardac,awe,eds,ncr",23.8,TRUE,60.4783,-162.5
AK479,Nunivak Island Refuge,,Alaska,US,59.8228,-165.2814,"ardac,awe,eds",19.5,TRUE,59.8824,-165.4506
AK291,Nyac,,Alaska,US,61.0061,-159.946,"ardac,awe,eds,ncr",110.1,FALSE,60.4664,-162.3236
AK292,Ohogamiut,Urr'agmiut,Alaska,US,61.5677,-161.864,"ardac,awe,eds,ncr",94.7,TRUE,60.4668,-162.4128
AK293,Old Harbor,Nuniaq,Alaska,US,57.2028,-153.304,"ardac,awe,eds,ncr",1.0,TRUE,57.1128,-153.1414
AK294,Old Minto,Menhti Xwghotthit,Alaska,US,64.8882,-149.182,"ardac,awe,eds,ncr",377.3,FALSE,61.085,-149.9087
AK456,Oliver Inlet State Marine Park,,Alaska,US,58.1015,-134.3127,"ardac,awe,eds,ncr",0.5,TRUE,58.1454,-134.1102
AK295,Ophir,,Alaska,US,63.1447,-156.519,"ardac,awe,eds,ncr",223.0,FALSE,63.7349,-160.7872
AK296,Oscarville,Kuiggayagaq,Alaska,US,60.7273,-161.79,"ardac,awe,eds,ncr",5.6,TRUE,60.4298,-162.5338
AK297,Osviak,,Alaska,US,58.8171,-161.3,"ardac,awe,eds,ncr",0.3,TRUE,58.7207,-161.4219
AK298,Ouzinkie,Uusenkaa,Alaska,US,57.9236,-152.496,"ardac,awe,eds,ncr",0.6,TRUE,57.9946,-152.3244
AK299,Paimiut,Paimute,Alaska,US,61.6971,-165.83,"ardac,awe,eds,ncr",0.7,TRUE,61.756,-166.0104
AK300,Palmer,,Alaska,US,61.5997,-149.113,"ardac,awe,eds,ncr",13.3,TRUE,61.2043,-149.6658
AK301,Pastolik,,Alaska,US,62.9972,-163.304,"ardac,awe,eds,ncr",4.4,TRUE,63.2197,-163.5385
AK302,Pauloff Harbor,,Alaska,US,54.4589,-162.7,"ardac,awe,eds,ncr",1.5,TRUE,54.5221,-162.8416
AK303,Paxson,,Alaska,US,63.033,-145.4979,"ardac,awe,eds,ncr",216.4,FALSE,61.0613,-146.8556
AK304,Pedro Bay,,Alaska,US,59.7914,-154.098,"ardac,awe,eds,ncr",27.9,TRUE,59.702,-153.5978
AK305,Pelican,K'udeis'x̱'e,Alaska,US,57.9608,-136.227,"ardac,awe,eds,ncr",0.9,TRUE,58.0507,-136.3242
AK306,Pennock Island,,Alaska,US,55.328,-131.628,"ardac,awe,eds,ncr",0.9,TRUE,55.268,-131.8011
AK307,Perryville,Perry-q,Alaska,US,55.9119,-159.166,"ardac,awe,eds,ncr",0.4,TRUE,55.6553,-159.261
AK308,Petersburg,Séet Ká,Alaska,US,56.8125,-132.955,"ardac,awe,eds,ncr",0.3,TRUE,57.1094,-133.2327
AK309,Petersville,,Alaska,US,62.373,-150.7332,"ardac,awe,eds,ncr",112.7,FALSE,61.1477,-150.6736
AK310,Pile Bay Village,,Alaska,US,59.7789,-153.8819,"ardac,awe,eds,ncr",17.3,TRUE,59.6887,-153.3825
AK311,Pilot Point,Agisaq,Alaska,US,57.5641,-157.579,"ardac,awe,eds,ncr",0.5,TRUE,57.6332,-157.7234
AK312,Pilot Station,Tuutalgaq,Alaska,US,61.9389,-162.875,"ardac,awe,eds,ncr",102.7,FALSE,62.174,-165.2192
AK313,Pitkas Point,Negeqliim Painga,Alaska,US,62.0328,-163.288,"ardac,awe,eds,ncr",80.2,TRUE,62.3158,-164.9522
AK314,Platinum,Arviiq,Alaska,US,59.013,-161.816,"ardac,awe,eds,ncr",0.8,TRUE,59.0769,-161.9749
AK535,Pleasant Valley,,Alaska,US,64.8802,-146.8875,"ardac,awe,eds,ncr",395.5,FALSE,61.0583,-147.2165
AK315,Point Baker,,Alaska,US,56.3528,-133.621,"ardac,awe,eds,ncr",0.4,TRUE,56.4448,-133.7075
AK480,Point Bridget State Park,,Alaska,US,58.6657,-134.9685,"ardac,awe,eds,ncr",0.5,TRUE,58.7565,-135.0644
AK316,Point Hope,Tikiġaq,Alaska,US,68.348,-166.734,"ardac,awe,eds,ncr",1.8,TRUE,68.4064,-166.9651
AK317,Point Lay,Kali,Alaska,US,69.7574,-163.051,"ardac,awe,eds,ncr",1.8,TRUE,69.8209,-163.2864
AK536,Point MacKenzie,,Alaska,US,61.3471,-150.0659,"ardac,awe,eds,ncr",8.3,TRUE,61.101,-150.2487
AK537,Point Possession,,Alaska,US,60.9536,-150.6744,"ardac,awe,eds,ncr",4.7,TRUE,61.0302,-150.8184
AK318,Poorman,,Alaska,US,64.0991,-155.544,"ardac,awe,eds,ncr",257.3,FALSE,64.023,-160.9132
AK538,Pope-Vannoy Landing,,Alaska,US,59.5354,-154.5052,"ardac,awe,eds,ncr",26.7,TRUE,59.2852,-154.3266
AK319,Port Alexander,,Alaska,US,56.2497,-134.644,"ardac,awe,eds,ncr",1.2,TRUE,56.341,-134.7328
AK320,Port Alsworth,,Alaska,US,60.2025,-154.313,"ardac,awe,eds,ncr",66.2,TRUE,59.7892,-153.4841
AK321,Port Ashton,,Alaska,US,60.0581,-148.05,"ardac,awe,eds,ncr",0.4,TRUE,60.1228,-147.8582
AK539,Port Clarence,,Alaska,US,65.2573,-166.8661,"ardac,awe,eds,ncr",1.2,TRUE,65.315,-167.0718
AK322,Port Graham,Paluwik,Alaska,US,59.3514,-151.83,"ardac,awe,eds,ncr",0.9,TRUE,59.4268,-151.9698
AK323,Port Heiden,Masrriq,Alaska,US,56.9566,-158.645,"ardac,awe,eds,ncr",3.3,TRUE,57.0245,-158.789
AK324,Port Lions,Masiqsirraq,Alaska,US,57.8675,-152.882,"ardac,awe,eds,ncr",0.9,TRUE,57.9418,-153.0181
AK325,Port Mackenzie,,Alaska,US,61.2686,-149.9202,"ardac,awe,eds",1.0,TRUE,61.1844,-150.0838
AK326,Port Moller,,Alaska,US,55.99,-160.577,"ardac,awe,eds,ncr",0.2,TRUE,56.0556,-160.7208
AK327,Port Protection,,Alaska,US,56.3127,-133.602,"ardac,awe,eds",1.8,TRUE,56.4047,-133.6883
AK328,Portage,,Alaska,US,60.8381,-148.979,"ardac,awe,eds,ncr",3.1,TRUE,60.9386,-149.7872
AK329,Portage Creek,,Alaska,US,58.9006,-157.714,"ardac,awe,eds,ncr",16.2,TRUE,58.646,-157.828
AK330,Portlock,,Alaska,US,59.2144,-151.7461,"ardac,awe,eds,ncr",0.9,TRUE,59.2899,-151.8851
AK540,Primrose,,Alaska,US,60.3236,-149.3576,"ardac,awe,eds,ncr",22.5,TRUE,59.9169,-149.5618
AK331,Prudhoe Bay,,Alaska,US,70.2366,-148.38,"ardac,awe,eds,ncr",8.3,TRUE,70.3031,-148.1038
AK332,Quinhagak,Kuinerraq,Alaska,US,59.7489,-161.916,"ardac,awe,eds,ncr",3.4,TRUE,59.7927,-162.4
AK333,Rainbow,,Alaska,US,61.0041,-149.642,"ardac,awe,eds,ncr",1.7,TRUE,61.0818,-149.7838
AK334,Rampart,Dleł Taaneets,Alaska,US,65.5049,-150.17,"ardac,awe,eds,ncr",447.3,FALSE,61.2102,-150.8399
AK335,Red Devil,,Alaska,US,61.7611,-157.313,"ardac,awe,eds,ncr",271.5,FALSE,63.4931,-160.9619
AK541,Red Dog Mine,,Alaska,US,68.036,-162.8964,"ardac,awe,eds,ncr",70.4,TRUE,67.7288,-163.8411
AK336,Refuge Cove,,Alaska,US,55.407,-131.741,"ardac,awe,eds,ncr",0.8,TRUE,55.5004,-131.8207
AK542,Ridgeway,,Alaska,US,60.5165,-151.0582,"ardac,awe,eds,ncr",12.2,TRUE,60.5927,-151.2012
AK337,Ruby,Tl'aa'ologhe,Alaska,US,64.7394,-155.487,"ardac,awe,eds,ncr",252.4,FALSE,64.6631,-160.9774
AK338,Russian Mission,Iqugmiut,Alaska,US,61.7856,-161.325,"ardac,awe,eds,ncr",123.9,FALSE,60.4863,-162.5132
AK457,Safety Cove State Marine Park,,Alaska,US,59.9819,-149.2235,"ardac,awe,eds,ncr",0.9,TRUE,60.06,-149.3599
AK339,Saint George,Anĝaaxchalux̂,Alaska,US,56.603,-169.545,"ardac,awe,eds",1.8,TRUE,56.6572,-169.7059
AK340,Saint Mary's,Negeqliq,Alaska,US,62.053,-163.166,"ardac,awe,eds,ncr",84.4,TRUE,62.4973,-164.8875
AK341,Saint Michael,Taciq,Alaska,US,63.478,-162.039,"ardac,awe,eds,ncr",0.7,TRUE,63.5417,-162.2224
AK342,Saint Paul,Tanax̂ Amix̂,Alaska,US,57.1221,-170.276,"ardac,awe,eds,ncr",0.6,TRUE,57.1753,-170.4403
AK343,Salamatof,,Alaska,US,60.5878,-151.326,"ardac,awe,eds,ncr",0.7,TRUE,60.6637,-151.4699
AK344,Salcha,Soł Chaget,Alaska,US,64.5288,-146.899,"ardac,awe,eds,ncr",358.4,FALSE,61.0299,-147.1546
AK345,Salt Chuck,,Alaska,US,55.628,-132.552,"ardac,awe,eds,ncr",1.0,TRUE,55.463,-133.0871
AK346,Sanak,,Alaska,US,54.4831,-162.814,"ardac,awe,eds,ncr",1.2,TRUE,54.5461,-162.9559
AK347,Sand Point,,Alaska,US,55.3397,-160.497,"ardac,awe,eds,ncr",0.5,TRUE,55.4055,-160.6381
AK458,Sandspit Point State Marine Park,,Alaska,US,59.9378,-149.318,"ardac,awe,eds",1.5,TRUE,60.0158,-149.4544
AK348,Savonoski,,Alaska,US,58.7171,-156.867,"ardac,awe,eds,ncr",4.8,TRUE,58.6174,-157.313
AK349,Savoonga,Sivunga,Alaska,US,63.6904,-170.481,"ardac,awe,eds,ncr",1.3,TRUE,63.7432,-170.6826
AK481,Sawmill Bay State Marine Park,,Alaska,US,61.0575,-146.7888,"ardac,awe,eds,ncr",3.2,TRUE,60.977,-146.9594
AK350,Saxman,,Alaska,US,55.3183,-131.596,"ardac,awe,eds,ncr",2.0,TRUE,55.2583,-131.7691
AK351,Scammon Bay,Marayaarmiut,Alaska,US,61.8428,-165.582,"ardac,awe,eds,ncr",1.7,TRUE,61.8731,-166.1028
AK482,Security Bay State Marine Park,,Alaska,US,56.8515,-134.3301,"ardac,awe,eds",1.2,TRUE,56.9429,-134.4196
AK352,Selawik,Siiḷivik / Akuliġaq,Alaska,US,66.6039,-160.007,"ardac,awe,eds,ncr",11.5,TRUE,66.4584,-161.3787
AK353,Seldovia,Angagkitaqnuuq,Alaska,US,59.438,-151.711,"ardac,awe,eds,ncr",1.5,TRUE,59.5135,-151.8509
AK543,Seldovia Village,,Alaska,US,59.4716,-151.6548,"ardac,awe,eds,ncr",1.6,TRUE,59.5472,-151.7947
AK483,Serpentine Slide Research Natural Area,,Alaska,US,65.7113,-147.4653,"ardac,awe,eds,ncr",478.0,FALSE,70.1692,-145.9422
AK354,Seward,Qutalleq,Alaska,US,60.1043,-149.442,"ardac,awe,eds,ncr",0.3,TRUE,60.0206,-149.6011
AK355,Shageluk,Edixi,Alaska,US,62.6822,-159.562,"ardac,awe,eds,ncr",123.1,FALSE,63.509,-160.982
AK356,Shaktoolik,Saktuliq,Alaska,US,64.35,-161.183,"ardac,awe,eds,ncr",0.4,TRUE,64.4148,-161.3701
AK484,Shelter Island State Marine Park,,Alaska,US,58.4513,-134.881,"ardac,awe,eds,ncr",6.1,TRUE,58.5422,-134.9761
AK357,Shemya Station,,Alaska,US,52.7246,174.112,"ardac,awe,eds",1.6,TRUE,52.7558,173.9492
AK358,Shishmaref,Qigiqtaq,Alaska,US,66.2567,-166.072,"ardac,awe,eds,ncr",0.7,TRUE,66.3156,-166.2837
AK359,Shungnak,Isiŋnaq / Nuurviuraq,Alaska,US,66.888,-157.136,"ardac,awe,eds,ncr",140.0,FALSE,66.8259,-161.4332
AK544,Silver Springs,,Alaska,US,62.0138,-145.336,"ardac,awe,eds,ncr",111.0,FALSE,61.0277,-146.7732
AK360,Sitka,Sheet'ká,Alaska,US,57.053,-135.33,"ardac,awe,eds,ncr",1.3,TRUE,57.1437,-135.4225
AK361,Skagway,,Alaska,US,59.4583,-135.314,"ardac,awe,eds,ncr",1.3,TRUE,58.8364,-135.1559
AK362,Skwentna,,Alaska,US,61.9649,-151.158,"ardac,awe,eds,ncr",74.0,TRUE,61.2176,-150.7005
AK363,Slana,Stl’aa Caegge,Alaska,US,62.707,-143.9697,"ardac,awe,eds,ncr",214.2,FALSE,60.9883,-146.6959
AK365,Sleetmute,Cellitemiut,Alaska,US,61.7025,-157.17,"ardac,awe,eds,ncr",270.4,FALSE,63.4212,-161.165
AK366,Soldotna,,Alaska,US,60.4878,-151.058,"ardac,awe,eds,ncr",12.3,TRUE,60.564,-151.2009
AK367,Solomon,,Alaska,US,64.5608,-164.439,"ardac,awe,eds,ncr",2.6,TRUE,64.4613,-164.5746
AK545,South Lakes,,Alaska,US,61.5903,-149.3165,"ardac,awe,eds,ncr",9.6,TRUE,61.1942,-149.8666
AK368,South Naknek,Qinuyang,Alaska,US,58.7155,-156.998,"ardac,awe,eds,ncr",0.9,TRUE,58.6153,-157.4436
AK459,South Todatonten Summit Research Natural Area,,Alaska,US,66.0506,-152.881,"ardac,awe,eds,ncr",333.3,FALSE,66.4434,-161.5607
AK546,South Van Horn,,Alaska,US,64.8075,-147.774,"ardac,awe,eds,ncr",376.5,FALSE,61.0472,-149.672
AK369,Spenard,,Alaska,US,61.1881,-149.917,"ardac,awe,eds,ncr",2.7,TRUE,61.1039,-150.0802
AK460,Stan Price State Wildlife Sanctuary,,Alaska,US,57.9051,-134.275,"ardac,awe,eds,ncr",0.1,TRUE,57.9489,-134.0736
AK372,Stebbins,Tapraq,Alaska,US,63.5222,-162.288,"ardac,awe,eds,ncr",1.8,TRUE,63.5856,-162.4723
AK548,Steele Creek,,Alaska,US,64.9028,-147.5241,"ardac,awe,eds,ncr",389.5,FALSE,61.0477,-147.1072
AK373,Sterling,,Alaska,US,60.5381,-150.758,"ardac,awe,eds,ncr",28.7,TRUE,60.6218,-151.232
AK374,Stevens Village,Denyeet,Alaska,US,66.0063,-149.091,"ardac,awe,eds,ncr",467.4,FALSE,70.3183,-147.909
AK375,Stony River,Gidighuyghatno’ Xidochagg Qay / K'qizaghetnu,Alaska,US,61.7831,-156.588,"ardac,awe,eds,ncr",251.2,FALSE,60.7362,-152.3221
AK376,Summit,,Alaska,US,63.3292,-149.119,"ardac,awe,eds,ncr",203.6,FALSE,61.1554,-149.9436
AK461,Sunny Cove State Marine Park,,Alaska,US,59.9024,-149.3453,"ardac,awe,eds,ncr",3.3,TRUE,59.9804,-149.4816
AK377,Sunrise,,Alaska,US,60.8921,-149.425,"ardac,awe,eds,ncr",3.9,TRUE,60.9804,-149.9007
AK378,Suntrana,,Alaska,US,63.8582,-148.846,"ardac,awe,eds,ncr",263.8,FALSE,61.2005,-149.769
AK485,Surprise Cove State Marine Park,,Alaska,US,60.7568,-148.3873,"ardac,awe,eds,ncr",0.9,TRUE,60.8075,-147.8593
AK487,Susitna,,Alaska,US,61.5786,-150.6091,"ardac,awe,eds,ncr",23.7,TRUE,61.1701,-150.8053
AK549,Susitna North,,Alaska,US,62.1322,-150.0322,"ardac,awe,eds,ncr",74.8,TRUE,61.0778,-150.3157
AK379,Susitna Station,,Alaska,US,61.5432,-150.5162,"ardac,awe,eds,ncr",19.5,TRUE,61.1348,-150.7134
AK380,Sutton,,Alaska,US,61.7114,-148.894,"ardac,awe,eds,ncr",30.2,TRUE,61.166,-149.8115
AK550,Sutton-Alpine,,Alaska,US,61.7168,-148.8844,"ardac,awe,eds,ncr",31.0,TRUE,61.1714,-149.8022
AK381,Takotna,Tochotno’,Alaska,US,62.9886,-156.064,"ardac,awe,eds,ncr",250.7,FALSE,63.7377,-160.7019
AK462,Taku Harbor State Marine Park,,Alaska,US,58.0622,-134.0187,"ardac,awe,eds,ncr",0.0,TRUE,58.1538,-134.1105
AK382,Talkeetna,K'dalkitnu,Alaska,US,62.3239,-150.109,"ardac,awe,eds,ncr",96.5,TRUE,61.1076,-150.4099
AK383,Tanacross,Taats’altęy,Alaska,US,63.378,-143.356,"ardac,awe,eds,ncr",293.7,FALSE,61.0447,-146.6668
AK551,Tanaina,,Alaska,US,61.6141,-149.4508,"ardac,awe,eds,ncr",11.4,TRUE,61.2073,-149.6621
AK384,Tanana,Hohudodetlaatl Denh,Alaska,US,65.1719,-152.079,"ardac,awe,eds,ncr",398.0,FALSE,64.9341,-161.0902
AK386,Tatitlek,Taatiilaaq,Alaska,US,60.8647,-146.679,"ardac,awe,eds,ncr",1.7,TRUE,60.9453,-146.8128
AK387,Tazlina,Tezdlen Na’,Alaska,US,62.0305,-145.416,"ardac,awe,eds,ncr",110.8,FALSE,61.0436,-146.8515
AK388,Tee Harbor,,Alaska,US,58.41,-134.757,"ardac,awe,eds,ncr",1.2,TRUE,58.501,-134.8516
AK389,Telida,Tilayadi,Alaska,US,63.3833,-153.267,"ardac,awe,eds,ncr",265.2,FALSE,61.1529,-150.769
AK390,Teller,Tala,Alaska,US,65.2636,-166.361,"ardac,awe,eds,ncr",1.0,TRUE,65.322,-166.5657
AK392,Tenakee Springs,Tʼanag̱eey / Tlaagoowu Aan,Alaska,US,57.7808,-135.219,"ardac,awe,eds,ncr",1.1,TRUE,57.8261,-135.0195
AK393,Tetlin,Teełąy,Alaska,US,63.1373,-142.5208,"ardac,awe,eds,ncr",292.1,FALSE,60.2937,-143.0115
AK394,Tetlin Junction,,Alaska,US,63.3172,-142.599,"ardac,awe,eds,ncr",309.3,FALSE,61.0386,-146.6272
AK395,Thane,,Alaska,US,58.264,-134.328,"ardac,awe,eds,ncr",3.2,TRUE,58.153,-134.2155
AK486,Thoms Place State Marine Park,,Alaska,US,56.1732,-132.1328,"ardac,awe,eds",1.0,TRUE,55.8535,-131.8536
AK396,Thorne Bay,,Alaska,US,55.7274,-132.471,"ardac,awe,eds,ncr",1.4,TRUE,55.7676,-133.1926
AK463,Thumb Cove State Marine Park,,Alaska,US,60.004,-149.3008,"ardac,awe,eds,ncr",0.3,TRUE,59.9205,-149.4598
AK397,Tin City,,Alaska,US,65.5502,-167.851,"ardac,awe,eds,ncr",1.7,TRUE,65.6067,-168.061
AK398,Togiak,Tuyuryaq,Alaska,US,59.0619,-160.376,"ardac,awe,eds,ncr",1.7,TRUE,58.9664,-160.5014
AK399,Tok,,Alaska,US,63.3366,-142.985,"ardac,awe,eds,ncr",300.3,FALSE,61.03,-146.653
AK400,Tokeen,,Alaska,US,55.938,-133.324,"ardac,awe,eds,ncr",4.1,TRUE,56.0303,-133.4088
AK401,Toksook Bay,Nunakauyaq,Alaska,US,60.5303,-165.102,"ardac,awe,eds,ncr",3.3,TRUE,60.5901,-165.2746
AK402,Tolovana,,Alaska,US,64.8542,-149.824,"ardac,awe,eds,ncr",373.8,FALSE,61.21,-150.4555
AK552,Tolsona,,Alaska,US,62.099,-146.0444,"ardac,awe,eds,ncr",108.7,FALSE,61.0723,-146.7931
AK403,Tonsina,,Alaska,US,61.6558,-145.175,"ardac,awe,eds,ncr",83.7,TRUE,61.011,-146.8605
AK586,Toolik Field Station,,Alaska,US,68.6268,-149.5952,"ardac,awe,eds,ncr",190.3,FALSE,70.3101,-148.0662
AK553,Trapper Creek,,Alaska,US,62.3114,-150.2458,"ardac,awe,eds,ncr",97.2,TRUE,61.0948,-150.5414
AK404,Tuluksak,Tuulkessaaq,Alaska,US,61.1025,-160.962,"ardac,awe,eds,ncr",66.8,TRUE,60.4491,-162.3015
AK405,Tuntutuliak,Tuntutuliaq,Alaska,US,60.3397,-162.669,"ardac,awe,eds,ncr",3.4,TRUE,60.4236,-162.5089
AK406,Tununak,Tununeq,Alaska,US,60.5855,-165.256,"ardac,awe,eds,ncr",1.5,TRUE,60.6451,-165.4292
AK407,Twin Hills,Ingricuar,Alaska,US,59.0792,-160.275,"ardac,awe,eds,ncr",3.2,TRUE,58.9838,-160.4007
AK436,Two Rivers,,Alaska,US,64.8767,-147.0384,"ardac,awe,eds,ncr",392.9,FALSE,61.0379,-147.0147
AK408,Tyonek,Qaggeyshlat,Alaska,US,61.0681,-151.137,"ardac,awe,eds,ncr",1.0,TRUE,61.1372,-150.9455
AK409,Ugashik,Ugaasaq,Alaska,US,57.513,-157.397,"ardac,awe,eds,ncr",0.1,TRUE,57.5733,-157.8439
AK411,Umiat,,Alaska,US,69.3674,-152.133,"ardac,awe,eds,ncr",116.2,FALSE,70.5991,-152.2487
AK412,Umkumiute,,Alaska,US,60.4983,-165.199,"ardac,awe,eds,ncr",0.5,TRUE,60.558,-165.3716
AK413,Umnak,,Alaska,US,53.267,-168.217,"ardac,awe,eds,ncr",1.0,TRUE,53.3232,-168.3626
AK414,Unalakleet,Uŋalaqłiit,Alaska,US,63.873,-160.788,"ardac,awe,eds,ncr",3.6,TRUE,63.9383,-160.9712
AK415,Unalaska,Iluulux̂,Alaska,US,53.8733,-166.533,"ardac,awe,eds,ncr",3.3,TRUE,53.9317,-166.6784
AK416,Unga,Uĝnaasaqax̂,Alaska,US,55.1828,-160.506,"ardac,awe,eds,ncr",0.9,TRUE,55.2486,-160.6466
AK178,Upper Kalskag,Qalqaq,Alaska,US,61.5391,-160.306,"ardac,awe,eds,ncr",126.0,FALSE,60.5112,-162.5869
AK418,Utqiaġvik,Barrow,Alaska,US,71.2905,-156.789,"ardac,awe,eds,ncr",2.0,TRUE,71.3623,-157.0216
AK419,Utukakarvik,,Alaska,US,61.9611,-164.75,"ardac,awe,eds,ncr",37.2,TRUE,62.1811,-164.987
AK420,Uyak,,Alaska,US,57.6256,-153.988,"ardac,awe,eds,ncr",0.9,TRUE,57.6987,-153.8209
AK421,Valdez,Suacit,Alaska,US,61.1369,-146.3471,"ardac,awe,eds,ncr",1.1,TRUE,61.0748,-146.8539
AK422,Venetie,Vįįhtąįį,Alaska,US,67.0139,-146.419,"ardac,awe,eds,ncr",332.3,FALSE,70.1915,-145.5883
AK423,Wainwright,Ulġuniq,Alaska,US,70.6369,-160.038,"ardac,awe,eds,ncr",1.3,TRUE,70.7045,-160.2738
AK424,Wales,Kiŋigin,Alaska,US,65.6097,-168.0876,"ardac,awe,eds,ncr",0.8,TRUE,65.6659,-168.2985
AK425,Ward Cove,,Alaska,US,55.408,-131.724,"ardac,awe,eds,ncr",1.2,TRUE,55.5014,-131.8036
AK426,Wasilla,,Alaska,US,61.5814,-149.439,"ardac,awe,eds,ncr",7.7,TRUE,61.1746,-149.6502
AK427,Whale Pass,,Alaska,US,56.1,-133.167,"ardac,awe,eds,ncr",2.7,TRUE,56.1924,-133.2518
AK428,White Mountain,Nasirvik,Alaska,US,64.6813,-163.406,"ardac,awe,eds,ncr",8.6,TRUE,64.4221,-163.4919
AK554,Whitestone,,Alaska,US,64.1536,-145.8863,"ardac,awe,eds,ncr",334.7,FALSE,61.0157,-146.8377
AK555,Whitestone Logging Camp,,Alaska,US,58.0831,-135.4367,"ardac,awe,eds,ncr",0.4,TRUE,58.1736,-135.5322
AK429,Whittier,,Alaska,US,60.773,-148.684,"ardac,awe,eds,ncr",1.6,TRUE,60.8102,-147.8235
AK581,Whittier Anchorage Pipeline,,Alaska,US,60.9399,-149.2897,eds,2.6,TRUE,61.0287,-149.7658
AK430,Willow,,Alaska,US,61.7472,-150.037,"ardac,awe,eds,ncr",35.5,TRUE,61.1778,-150.2607
AK556,Willow Creek,,Alaska,US,61.8123,-145.1944,"ardac,awe,eds,ncr",96.1,TRUE,61.0062,-146.9237
AK431,Wiseman,,Alaska,US,67.41,-150.107,"ardac,awe,eds,ncr",324.5,FALSE,70.2247,-147.9576
AK432,Womens Bay,,Alaska,US,57.7099,-152.586,"ardac,awe,eds,ncr",2.2,TRUE,57.7846,-152.7209
AK433,Woody Island,,Alaska,US,57.78,-152.355,"ardac,awe,eds,ncr",2.1,TRUE,57.8549,-152.4897
AK434,Wrangell,Shtax’héen,Alaska,US,56.4708,-132.377,"ardac,awe,eds,ncr",0.1,TRUE,56.3571,-133.2039
AK435,Yakutat,Yaakwdáat,Alaska,US,59.5469,-139.727,"ardac,awe,eds,ncr",0.7,TRUE,59.6339,-139.8381
AK582,Yukon Command Training Site,,Alaska,US,64.6892,-146.6233,eds,379.9,FALSE,61.0294,-146.9463
AK572,Yukon Weapons Range,,Alaska,US,64.7682,-146.8895,eds,383.7,FALSE,60.9466,-147.2171
AK464,Ziegler Cove State Marine Park,,Alaska,US,60.8381,-148.3205,"ardac,awe,eds,ncr",1.1,TRUE,60.8885,-147.7911
