id,name,alt_name,region,country,latitude,longitude
AB1,Abee,,Alberta,CA,54.238,-113.025
AB2,Acadia Valley,,Alberta,CA,51.1585,-110.209
AB3,Acme,,Alberta,CA,51.4972,-113.509
AB4,Aetna,,Alberta,CA,49.1339,-113.24
AB5,Airdrie,,Alberta,CA,51.2814,-114.00399999999999
AB6,Alberta Beach,,Alberta,CA,53.6756,-114.353
AB7,Alder Flats,,Alberta,CA,52.9331,-114.95700000000001
AB8,Aldersyde,,Alberta,CA,50.6761,-113.87899999999999
AB9,Alexander,,Alberta,CA,53.8033,-113.919
AB10,Alexis,,Alberta,CA,53.7324,-114.491
AB11,Alhambra,,Alberta,CA,52.3431,-114.67200000000001
AB12,Alix,,Alberta,CA,52.3981,-113.189
AB13,Alliance,,Alberta,CA,52.4344,-111.785
AB14,Altario,,Alberta,CA,51.9186,-110.162
AB15,Amesbury,,Alberta,CA,55.0811,-112.49700000000001
AB16,Amisk,,Alberta,CA,52.5656,-111.057
AB17,Andrew,,Alberta,CA,53.8783,-112.335
AB18,Anzac,,Alberta,CA,56.4478,-111.046
AB19,Arcadia,,Alberta,CA,55.4026,-116.131
AB20,Ardenode,,Alberta,CA,51.1444,-113.42399999999999
AB21,Ardley,,Alberta,CA,52.2611,-113.23200000000001
AB22,Ardmore,,Alberta,CA,54.3314,-110.477
AB23,Ardrossan,,Alberta,CA,53.5522,-113.14399999999999
AB24,Argentia Beach,,Alberta,CA,53.0536,-114.016
AB25,Armada,,Alberta,CA,50.4139,-112.75399999999999
AB26,Armena,,Alberta,CA,53.1225,-112.949
AB27,Arrowwood,,Alberta,CA,50.7392,-113.15
AB28,Artists View Park West,,Alberta,CA,51.0788,-114.272
AB29,Ashmont,,Alberta,CA,54.1292,-111.568
AB30,Assumption,,Alberta,CA,58.6994,-118.68700000000001
AB31,Athabasca,,Alberta,CA,54.7151,-113.28399999999999
AB32,Atikameg,,Alberta,CA,55.9169,-115.65100000000001
AB33,Atmore,,Alberta,CA,54.8192,-112.55
AB34,Balmoral,,Alberta,CA,52.2754,-113.7
AB35,Banff,,Alberta,CA,51.178999999999995,-115.569
AB36,Barnwell,,Alberta,CA,49.7606,-112.26299999999999
AB37,Barons,,Alberta,CA,49.9975,-113.081
AB38,Barrhead,,Alberta,CA,54.1217,-114.404
AB39,Bashaw,,Alberta,CA,52.5831,-112.97
AB40,Bassano,,Alberta,CA,50.7875,-112.46799999999999
AB41,Bawlf,,Alberta,CA,52.9194,-112.46600000000001
AB42,Bay Tree,,Alberta,CA,55.825,-119.906
AB43,Beaumont,,Alberta,CA,53.3525,-113.415
AB44,Beauvallon,,Alberta,CA,53.6592,-111.36200000000001
AB45,Beaver,,Alberta,CA,58.4708,-116.584
AB46,Beaver Lake,,Alberta,CA,54.753,-111.927
AB47,Beaver Lake,,Alberta,CA,54.6687,-111.90700000000001
AB48,Beaver Mines,,Alberta,CA,49.4567,-114.197
AB49,Beaverlodge,,Alberta,CA,55.2118,-119.42200000000001
AB50,Beiseker,,Alberta,CA,51.385,-113.536
AB51,Bellevue,,Alberta,CA,49.5808,-114.366
AB52,Bellis,,Alberta,CA,54.1428,-112.15
AB53,Benalto,,Alberta,CA,52.3078,-114.27799999999999
AB54,Benchlands,,Alberta,CA,51.2834,-114.801
AB55,Bentley,,Alberta,CA,52.4664,-114.051
AB56,Bergen,,Alberta,CA,51.7081,-114.632
AB57,Berwyn,,Alberta,CA,56.1488,-117.72399999999999
AB58,Betula Beach,,Alberta,CA,53.5362,-114.677
AB59,Bezanson,,Alberta,CA,55.2286,-118.361
AB60,Big Valley,,Alberta,CA,52.0328,-112.75200000000001
AB61,Bigstone,,Alberta,CA,55.9436,-113.76899999999999
AB62,Bindloss,,Alberta,CA,50.88,-110.274
AB63,Birch Cove,,Alberta,CA,53.9538,-114.37200000000001
AB64,Bircham,,Alberta,CA,51.4589,-113.431
AB65,Birchcliff,,Alberta,CA,52.3619,-114.118
AB66,Bittern Lake,,Alberta,CA,53.0081,-113.057
AB67,Black Diamond,,Alberta,CA,50.6881,-114.234
AB68,Blackfalds,,Alberta,CA,52.3783,-113.796
AB69,Blackfoot,,Alberta,CA,53.2892,-110.17299999999999
AB70,Blackie,,Alberta,CA,50.6044,-113.62299999999999
AB71,Blairmore,,Alberta,CA,49.6081,-114.443
AB72,Blue Ridge,,Alberta,CA,54.125,-115.37799999999999
AB73,Blueberry Mountain,,Alberta,CA,55.9267,-119.15
AB74,Bluesky,,Alberta,CA,56.0735,-118.23899999999999
AB75,Bluffton,,Alberta,CA,52.7494,-114.292
AB76,Bodo,,Alberta,CA,52.1533,-110.079
AB77,Bon Accord,,Alberta,CA,53.8369,-113.412
AB78,Bonanza,,Alberta,CA,55.9128,-119.82700000000001
AB79,Bondiss,,Alberta,CA,54.5981,-112.695
AB80,Bonnyville,,Alberta,CA,54.2672,-110.73899999999999
AB81,Botha,,Alberta,CA,52.3081,-112.524
AB82,Bow Island,,Alberta,CA,49.8672,-111.37899999999999
AB83,Bowden,,Alberta,CA,51.9332,-114.03200000000001
AB84,Boyle,,Alberta,CA,54.5897,-112.807
AB85,Bragg Creek,,Alberta,CA,50.9503,-114.57
AB86,Brant,,Alberta,CA,50.5169,-113.512
AB87,Breton,,Alberta,CA,53.1101,-114.471
AB88,Breynat,,Alberta,CA,55.1414,-112.491
AB89,Bristol Oakes,,Alberta,CA,53.6824,-113.564
AB90,Brocket,,Alberta,CA,49.5467,-113.75
AB91,Brooks,,Alberta,CA,50.5672,-111.895
AB92,Brownfield,,Alberta,CA,52.3172,-111.43299999999999
AB93,Brownvale,,Alberta,CA,56.1282,-117.896
AB94,Bruce,,Alberta,CA,53.1739,-112.039
AB95,Bruderheim,,Alberta,CA,53.7997,-112.928
AB96,Brule,,Alberta,CA,53.284,-117.874
AB97,Buck Creek,,Alberta,CA,53.1039,-114.896
AB98,Buck Lake,,Alberta,CA,52.9486,-114.777
AB99,Buffalo Head Prairie,,Alberta,CA,58.0508,-116.34899999999999
AB100,Buffalo Lake Metis Settlement,,Alberta,CA,54.5791,-112.448
AB101,Buford,,Alberta,CA,53.2471,-113.927
AB102,Bulwark,,Alberta,CA,52.2417,-111.587
AB103,Burdett,,Alberta,CA,49.835,-111.523
AB104,Burmis,,Alberta,CA,49.5572,-114.288
AB105,Burnstick Lake,,Alberta,CA,51.9894,-114.89200000000001
AB106,Busby,,Alberta,CA,53.9481,-113.891
AB107,Byemoor,,Alberta,CA,51.9797,-112.287
AB108,Cadogan,,Alberta,CA,52.3192,-110.449
AB109,Cadomin,,Alberta,CA,53.0282,-117.331
AB110,Cadotte Lake,,Alberta,CA,56.4705,-116.382
AB111,Calahoo,,Alberta,CA,53.7145,-113.958
AB112,Calgary,,Alberta,CA,51.0458,-114.057
AB113,Calling Lake,,Alberta,CA,55.2103,-113.19
AB114,Calling Lake,,Alberta,CA,55.2463,-113.198
AB115,Calmar,,Alberta,CA,53.2664,-113.809
AB116,Cambria,,Alberta,CA,51.3939,-112.59
AB117,Campsie,,Alberta,CA,54.1278,-114.647
AB118,Camrose,,Alberta,CA,53.0181,-112.839
AB119,Canmore,,Alberta,CA,51.0928,-115.361
AB120,Canyon Creek,,Alberta,CA,55.3666,-115.09700000000001
AB121,Canyon Heights,,Alberta,CA,52.2907,-113.704
AB122,Carbon,,Alberta,CA,51.4858,-113.15100000000001
AB123,Carbondale,,Alberta,CA,53.7464,-113.527
AB124,Cardiff,,Alberta,CA,53.7728,-113.6
AB125,Cardston,,Alberta,CA,49.1962,-113.307
AB126,Carmangay,,Alberta,CA,50.1294,-113.111
AB127,Caroline,,Alberta,CA,52.0948,-114.738
AB128,Carseland,,Alberta,CA,50.8544,-113.471
AB129,Carstairs,,Alberta,CA,51.5656,-114.09899999999999
AB130,Caslan,,Alberta,CA,54.6311,-112.512
AB131,Cassils,,Alberta,CA,50.5769,-112.046
AB132,Castor,,Alberta,CA,52.2192,-111.904
AB133,Cayley,,Alberta,CA,50.4481,-113.84700000000001
AB134,Central Park,,Alberta,CA,52.3309,-113.823
AB135,Cereal,,Alberta,CA,51.4183,-110.8
AB136,Cessford,,Alberta,CA,51.0064,-111.557
AB137,Champion,,Alberta,CA,50.2397,-113.148
AB138,Chancellor,,Alberta,CA,51.0885,-112.835
AB139,Chauvin,,Alberta,CA,52.6936,-110.141
AB140,Cheadle,,Alberta,CA,51.0144,-113.541
AB141,Cherhill,,Alberta,CA,53.8192,-114.677
AB142,Cherry Grove,,Alberta,CA,54.3561,-110.075
AB143,Chestermere,,Alberta,CA,51.0373,-113.82799999999999
AB144,Chin,,Alberta,CA,49.7635,-112.445
AB145,Chinook,,Alberta,CA,51.4494,-110.925
AB146,Chipewyan Lake,,Alberta,CA,56.9403,-113.473
AB147,Chipewyan Prairie,,Alberta,CA,55.9358,-110.71700000000001
AB148,Chipman,,Alberta,CA,53.6983,-112.63799999999999
AB149,Chisholm,,Alberta,CA,54.9094,-114.169
AB150,Chokio,,Alberta,CA,49.5819,-113.66
AB151,Clairmont,,Alberta,CA,55.2614,-118.794
AB152,Clandonald,,Alberta,CA,53.5719,-110.714
AB153,Claresholm,,Alberta,CA,50.0197,-113.583
AB154,Cleardale,,Alberta,CA,56.3558,-119.478
AB155,Clearwater Estates,,Alberta,CA,53.5694,-114.081
AB156,Clive,,Alberta,CA,52.4774,-113.445
AB157,Cluny,,Alberta,CA,50.8411,-112.869
AB158,Clyde,,Alberta,CA,54.1502,-113.63600000000001
AB159,Coaldale,,Alberta,CA,49.7278,-112.619
AB160,Coalhurst,,Alberta,CA,49.7467,-112.931
AB161,Cochrane,,Alberta,CA,51.1897,-114.484
AB162,Cochrane Lake,,Alberta,CA,51.2434,-114.48200000000001
AB163,Cold Lake,,Alberta,CA,54.4664,-110.18799999999999
AB164,Coleman,,Alberta,CA,49.6353,-114.50299999999999
AB165,Colinton,,Alberta,CA,54.6206,-113.25299999999999
AB166,College Heights,,Alberta,CA,52.4892,-113.73299999999999
AB167,Collingwood Cove,,Alberta,CA,53.4469,-113.005
AB168,Compeer,,Alberta,CA,51.8594,-110.01299999999999
AB169,Condor,,Alberta,CA,52.3264,-114.555
AB170,Conklin,,Alberta,CA,55.6308,-111.09
AB171,Connemara,,Alberta,CA,50.4001,-113.829
AB172,Conrich,,Alberta,CA,51.0933,-113.863
AB173,Consort,,Alberta,CA,52.0123,-110.771
AB174,Cooking Lake,,Alberta,CA,53.4114,-113.12200000000001
AB175,Coronado,,Alberta,CA,53.8878,-113.295
AB176,Coronation,,Alberta,CA,52.0947,-111.448
AB177,Coutts,,Alberta,CA,49.0028,-111.959
AB178,Cowley,,Alberta,CA,49.568000000000005,-114.074
AB179,Craigmyle,,Alberta,CA,51.6697,-112.243
AB180,Cremona,,Alberta,CA,51.5453,-114.485
AB181,Crossfield,,Alberta,CA,51.4306,-114.031
AB182,Crystal Meadows,,Alberta,CA,53.5634,-114.16799999999999
AB183,Crystal Springs,,Alberta,CA,52.9733,-114.041
AB184,Czar,,Alberta,CA,52.4547,-110.82799999999999
AB185,Dalemead,,Alberta,CA,50.8747,-113.637
AB186,Dalroy,,Alberta,CA,51.1286,-113.669
AB187,Dapp,,Alberta,CA,54.345,-113.916
AB188,Dawn Valley,,Alberta,CA,53.6214,-114.02
AB189,Daysland,,Alberta,CA,52.8673,-112.264
AB190,De Winton,,Alberta,CA,50.8231,-114.01899999999999
AB191,Deadwood,,Alberta,CA,56.7411,-117.458
AB192,DeBolt,,Alberta,CA,55.2217,-118.02
AB193,Del Bonita,,Alberta,CA,49.0294,-112.791
AB194,Delburne,,Alberta,CA,52.1981,-113.235
AB195,Delia,,Alberta,CA,51.6306,-112.374
AB196,Dene Tha',,Alberta,CA,58.5149,-117.065
AB197,Denwood,,Alberta,CA,52.8176,-110.891
AB198,Derwent,,Alberta,CA,53.6545,-110.96700000000001
AB199,Devon,,Alberta,CA,53.3613,-113.725
AB200,Devonshire Meadows,,Alberta,CA,53.3888,-113.83
AB201,Dewberry,,Alberta,CA,53.5881,-110.525
AB202,Diamond City,,Alberta,CA,49.7956,-112.839
AB203,Dickson,,Alberta,CA,52.0581,-114.30799999999999
AB204,Didsbury,,Alberta,CA,51.6594,-114.137
AB205,Dixonville,,Alberta,CA,56.5374,-117.67200000000001
AB206,Dogpound,,Alberta,CA,51.4567,-114.397
AB207,Donalda,,Alberta,CA,52.5836,-112.574
AB208,Donnelly,,Alberta,CA,55.7289,-117.105
AB209,Dorothy,,Alberta,CA,51.2792,-112.325
AB210,Drayton Valley,,Alberta,CA,53.2215,-114.97399999999999
AB211,Driftpile,,Alberta,CA,55.3428,-115.788
AB212,Drumheller,,Alberta,CA,51.4644,-112.719
AB213,Duchess,,Alberta,CA,50.7311,-111.906
AB214,Duffield,,Alberta,CA,53.5281,-114.344
AB215,Duhamel,,Alberta,CA,52.9156,-112.963
AB216,Duncan's,,Alberta,CA,56.1208,-117.861
AB217,Dunmore,,Alberta,CA,49.9703,-110.584
AB218,Durward,,Alberta,CA,50.2956,-113.713
AB219,Duvernay,,Alberta,CA,53.7861,-111.69200000000001
AB220,Eaglesham,,Alberta,CA,55.7825,-117.883
AB221,East Coulee,,Alberta,CA,51.3436,-112.49799999999999
AB222,East Prairie Metis Settlement,,Alberta,CA,55.1891,-116.27
AB223,Eastview Acres,,Alberta,CA,49.7895,-113.016
AB224,Eckville,,Alberta,CA,52.36,-114.367
AB225,Edberg,,Alberta,CA,52.7847,-112.789
AB226,Edgerton,,Alberta,CA,52.7586,-110.458
AB227,Edmonton,,Alberta,CA,53.5358,-113.494
AB228,Edson,,Alberta,CA,53.5866,-116.436
AB229,Egremont,,Alberta,CA,54.0383,-113.126
AB230,Eldoes Trailer Park,,Alberta,CA,55.1696,-118.744
AB231,Elizabeth Metis Settlement,,Alberta,CA,54.217,-110.09200000000001
AB232,Elk Point,,Alberta,CA,53.9011,-110.90100000000001
AB233,Elkwater,,Alberta,CA,49.6608,-110.28200000000001
AB234,Ellscott,,Alberta,CA,54.5031,-112.90100000000001
AB235,Elmworth,,Alberta,CA,55.0539,-119.616
AB236,Elnora,,Alberta,CA,51.9936,-113.20100000000001
AB237,Empress,,Alberta,CA,50.9543,-110.008
AB238,Enchant,,Alberta,CA,50.17,-112.42200000000001
AB239,Endiang,,Alberta,CA,51.9539,-112.15799999999999
AB240,Enilda,,Alberta,CA,55.4169,-116.311
AB241,Enoch,,Alberta,CA,53.4997,-113.76100000000001
AB242,Ensign,,Alberta,CA,50.475,-113.432
AB243,Entrance,,Alberta,CA,53.3748,-117.684
AB244,Entwistle,,Alberta,CA,53.5944,-114.99600000000001
AB245,Ermineskin,,Alberta,CA,52.836000000000006,-113.454
AB246,Erskine,,Alberta,CA,52.3211,-112.88
AB247,Etzikom,,Alberta,CA,49.4769,-111.10700000000001
AB248,Evansburg,,Alberta,CA,53.6004,-115.01700000000001
AB249,Exshaw,,Alberta,CA,51.0635,-115.15899999999999
AB250,Fabyan,,Alberta,CA,52.8819,-110.994
AB251,Fairview,,Alberta,CA,56.0672,-118.384
AB252,Falher,,Alberta,CA,55.7372,-117.20100000000001
AB253,Fallis,,Alberta,CA,53.5853,-114.641
AB254,Faust,,Alberta,CA,55.3158,-115.62799999999999
AB255,Fawcett,,Alberta,CA,54.5394,-114.096
AB256,Federal,,Alberta,CA,52.1117,-111.572
AB257,Ferintosh,,Alberta,CA,52.7658,-112.97200000000001
AB258,Ferrier Acres,,Alberta,CA,52.3649,-115.061
AB259,Fincastle,,Alberta,CA,49.8083,-112.00200000000001
AB260,Fitzgerald,,Alberta,CA,59.8617,-111.60600000000001
AB261,Flatbush,,Alberta,CA,54.6892,-114.156
AB262,Fleet,,Alberta,CA,52.1533,-111.73
AB263,Fleming Park,,Alberta,CA,53.4432,-113.72
AB264,Flyingshot Lake,,Alberta,CA,55.1421,-118.863
AB265,Foremost,,Alberta,CA,49.4764,-111.447
AB266,Forestburg,,Alberta,CA,52.5839,-112.064
AB267,Forshee,,Alberta,CA,52.558,-114.145
AB268,Fort Assiniboine,,Alberta,CA,54.3342,-114.775
AB269,Fort Chipewyan,,Alberta,CA,58.7144,-111.15799999999999
AB270,Fort Kent,,Alberta,CA,54.3108,-110.604
AB271,Fort MacKay,,Alberta,CA,57.1869,-111.63600000000001
AB272,Fort Macleod,,Alberta,CA,49.7231,-113.404
AB273,Fort McMurray,,Alberta,CA,56.7275,-111.387
AB274,Fort Saskatchewan,,Alberta,CA,53.7002,-113.225
AB275,Fort Vermilion,,Alberta,CA,58.3893,-116.007
AB276,Fox Creek,,Alberta,CA,54.4043,-116.81
AB277,Fox Lake,,Alberta,CA,58.4705,-114.53299999999999
AB278,Frank,,Alberta,CA,49.6027,-114.406
AB279,Frog Lake,,Alberta,CA,53.8721,-110.391
AB280,Gadsby,,Alberta,CA,52.2968,-112.35600000000001
AB281,Gainford,,Alberta,CA,53.5847,-114.785
AB282,Galahad,,Alberta,CA,52.5142,-111.931
AB283,Garden Creek,,Alberta,CA,58.7047,-113.88600000000001
AB284,Garden Grove Estates,,Alberta,CA,53.4836,-113.947
AB285,Gem,,Alberta,CA,50.9506,-112.189
AB286,Ghost Lake,,Alberta,CA,51.2066,-114.764
AB287,Gibbons,,Alberta,CA,53.8297,-113.32799999999999
AB288,Gift Lake,,Alberta,CA,55.8825,-115.81299999999999
AB289,Girouxville,,Alberta,CA,55.7536,-117.339
AB290,Gleichen,,Alberta,CA,50.8661,-113.055
AB291,Glen Leslie,,Alberta,CA,55.1994,-118.48700000000001
AB292,Glendon,,Alberta,CA,54.2525,-111.16
AB293,Glenevis,,Alberta,CA,53.7897,-114.51700000000001
AB294,Glenwood,,Alberta,CA,49.3659,-113.515
AB295,Glory Hills,,Alberta,CA,53.6828,-113.971
AB296,Golden Days,,Alberta,CA,53.0514,-114.053
AB297,Goodfish Lake,,Alberta,CA,54.2975,-111.806
AB298,Gordondale,,Alberta,CA,55.84,-119.54
AB299,Grande Cache,,Alberta,CA,53.8881,-119.119
AB300,Grande Prairie,,Alberta,CA,55.1708,-118.796
AB301,Grandview,,Alberta,CA,52.9879,-114.066
AB302,Grantham,,Alberta,CA,50.0687,-112.009
AB303,Granum,,Alberta,CA,49.8711,-113.508
AB304,Grassland,,Alberta,CA,54.82,-112.68700000000001
AB305,Grassy Lake,,Alberta,CA,49.8253,-111.698
AB306,Green Acre Estates,,Alberta,CA,53.4979,-113.941
AB307,Green Court,,Alberta,CA,54.0078,-115.23899999999999
AB308,Gregoire Lake Estates,,Alberta,CA,56.4669,-111.194
AB309,Grimshaw,,Alberta,CA,56.1886,-117.60600000000001
AB310,Grouard,,Alberta,CA,55.5203,-116.161
AB311,Grouard Mission,,Alberta,CA,55.5422,-116.154
AB312,Grovedale,,Alberta,CA,55.0278,-118.859
AB313,Gull Lake,,Alberta,CA,52.4622,-113.941
AB314,Gunn,,Alberta,CA,53.7305,-114.348
AB315,Guy,,Alberta,CA,55.5489,-117.12
AB316,Gwynne,,Alberta,CA,52.9867,-113.199
AB317,Hairy Hill,,Alberta,CA,53.7633,-111.979
AB318,Half Moon Bay,,Alberta,CA,52.345,-114.17200000000001
AB319,Half Moon Estates,,Alberta,CA,53.4615,-113.084
AB320,Halkirk,,Alberta,CA,52.2825,-112.154
AB321,Hanna,,Alberta,CA,51.6458,-111.925
AB322,Hardisty,,Alberta,CA,52.675,-111.304
AB323,Hartleyville,,Alberta,CA,49.3644,-113.609
AB324,Harvie Heights,,Alberta,CA,51.13,-115.376
AB325,Hawk Hills,,Alberta,CA,57.2555,-117.413
AB326,Hay Lakes,,Alberta,CA,53.1967,-113.057
AB327,Hayfield,,Alberta,CA,55.1708,-119.615
AB328,Haynes,,Alberta,CA,52.3175,-113.39200000000001
AB329,Hays,,Alberta,CA,50.0981,-111.794
AB330,Hayter,,Alberta,CA,52.3564,-110.10799999999999
AB331,Hazell,,Alberta,CA,49.63,-114.664
AB332,Heart Lake,,Alberta,CA,54.9832,-111.56
AB333,Heinsburg,,Alberta,CA,53.7675,-110.522
AB334,Heisler,,Alberta,CA,52.6711,-112.22399999999999
AB335,Heritage Woods,,Alberta,CA,51.0555,-114.241
AB336,Herronton,,Alberta,CA,50.6247,-113.439
AB337,Hesketh,,Alberta,CA,51.4703,-112.975
AB338,Hewitt Estates,,Alberta,CA,53.8073,-113.397
AB339,High Level,,Alberta,CA,58.516000000000005,-117.13799999999999
AB340,High Point Estates,,Alberta,CA,51.0309,-113.781
AB341,High Prairie,,Alberta,CA,55.4347,-116.488
AB342,High River,,Alberta,CA,50.5797,-113.874
AB343,Hilda,,Alberta,CA,50.4797,-110.03299999999999
AB344,Hill Spring,,Alberta,CA,49.2931,-113.62200000000001
AB345,Hillcrest Mines,,Alberta,CA,49.5689,-114.37700000000001
AB346,Hilliard,,Alberta,CA,53.64,-112.48200000000001
AB347,Hines Creek,,Alberta,CA,56.2486,-118.603
AB348,Hinton,,Alberta,CA,53.4,-117.572
AB349,Hobbema,,Alberta,CA,52.8194,-113.461
AB350,Holden,,Alberta,CA,53.2333,-112.234
AB351,Hondo,,Alberta,CA,55.0716,-114.039
AB352,Horse Lake,,Alberta,CA,54.8229,-119.352
AB353,Horseshoe Bay,,Alberta,CA,54.1262,-111.36399999999999
AB354,Hu Haven,,Alberta,CA,53.7709,-113.205
AB355,Hubbles Lake,,Alberta,CA,53.5593,-114.088
AB356,Hughenden,,Alberta,CA,52.5106,-110.96700000000001
AB357,Hussar,,Alberta,CA,51.0414,-112.682
AB358,Huxley,,Alberta,CA,51.9243,-113.23
AB359,Hylo,,Alberta,CA,54.6775,-112.211
AB360,Hythe,,Alberta,CA,55.33,-119.55
AB361,Iddesleigh,,Alberta,CA,50.7356,-111.303
AB362,Imperial Mills,,Alberta,CA,55.0001,-111.73100000000001
AB363,Indian Cabins,,Alberta,CA,59.8675,-117.035
AB364,Indus,,Alberta,CA,50.9158,-113.78
AB365,Innisfail,,Alberta,CA,52.0242,-113.95299999999999
AB366,Innisfree,,Alberta,CA,53.3825,-111.531
AB367,Irma,,Alberta,CA,52.9119,-111.228
AB368,Iron Springs,,Alberta,CA,49.93,-112.68799999999999
AB369,Irricana,,Alberta,CA,51.3236,-113.60799999999999
AB370,Irvine,,Alberta,CA,49.9553,-110.277
AB371,Island Lake,,Alberta,CA,54.8415,-113.55799999999999
AB372,Islay,,Alberta,CA,53.3939,-110.539
AB373,Itaska Beach,,Alberta,CA,53.0722,-114.08
AB374,Jarrow,,Alberta,CA,52.9408,-111.395
AB375,Jarvie,,Alberta,CA,54.4547,-113.98700000000001
AB376,Jarvis Bay,,Alberta,CA,52.3352,-114.08
AB377,Jasper,,Alberta,CA,52.8711,-118.09299999999999
AB378,Jean Côté,,Alberta,CA,55.8981,-117.311
AB379,Jenner,,Alberta,CA,50.7467,-111.184
AB380,Joffre,,Alberta,CA,52.3371,-113.537
AB381,John D'Or Prairie,,Alberta,CA,58.4938,-115.14399999999999
AB382,Johnson's Addition,,Alberta,CA,49.7827,-112.177
AB383,Josephburg,,Alberta,CA,53.7133,-113.07
AB384,Joussard,,Alberta,CA,55.3952,-115.95100000000001
AB385,Judson,,Alberta,CA,49.5222,-112.346
AB386,Kapasiwin,,Alberta,CA,53.5442,-114.445
AB387,Kapawe'no,,Alberta,CA,55.5475,-116.152
AB388,Kathyrn,,Alberta,CA,51.2183,-113.708
AB389,Kavanagh,,Alberta,CA,53.1822,-113.51700000000001
AB390,Keg River,,Alberta,CA,57.746,-117.61
AB391,Kehewin,,Alberta,CA,54.1104,-110.882
AB392,Kelsey,,Alberta,CA,52.8458,-112.54899999999999
AB393,Keoma,,Alberta,CA,51.2169,-113.649
AB394,Kew,,Alberta,CA,50.7329,-114.417
AB395,Kikino,,Alberta,CA,54.4442,-112.094
AB396,Killam,,Alberta,CA,52.7897,-111.855
AB397,Kingman,,Alberta,CA,53.2133,-112.749
AB398,Kinsella,,Alberta,CA,53.0016,-111.524
AB399,Kinuso,,Alberta,CA,55.3319,-115.435
AB400,Kirkcaldy,,Alberta,CA,50.335,-113.238
AB401,Kitscoty,,Alberta,CA,53.3419,-110.333
AB402,La Crete,,Alberta,CA,58.1878,-116.417
AB403,La Glace,,Alberta,CA,55.4028,-119.154
AB404,Lac des Arcs,,Alberta,CA,51.0501,-115.15700000000001
AB405,Lac La Biche,,Alberta,CA,54.7686,-111.978
AB406,Lacombe,,Alberta,CA,52.4644,-113.734
AB407,Lake Louise,,Alberta,CA,51.4253,-116.181
AB408,Lakeview,,Alberta,CA,53.5597,-114.45700000000001
AB409,Lamont,,Alberta,CA,53.7625,-112.77799999999999
AB410,Lancaster Park,,Alberta,CA,53.6728,-113.491
AB411,Langdon,,Alberta,CA,50.9737,-113.67
AB412,Larkspur,,Alberta,CA,54.4387,-113.76799999999999
AB413,Lavoy,,Alberta,CA,53.4587,-111.863
AB414,Lawsonburg,,Alberta,CA,51.4836,-112.15899999999999
AB415,Leahurst,,Alberta,CA,52.3763,-112.64399999999999
AB416,Leavitt,,Alberta,CA,49.1709,-113.45299999999999
AB417,Leduc,,Alberta,CA,53.2667,-113.546
AB418,Leedale,,Alberta,CA,52.5819,-114.47
AB419,Legal,,Alberta,CA,53.9495,-113.595
AB420,Legend,,Alberta,CA,49.4844,-111.61
AB421,Les Trailer Park,,Alberta,CA,52.2786,-113.867
AB422,Leslieville,,Alberta,CA,52.3833,-114.605
AB423,Lethbridge,,Alberta,CA,49.6928,-112.835
AB424,Lindbergh,,Alberta,CA,53.8875,-110.67299999999999
AB425,Linden,,Alberta,CA,51.5906,-113.488
AB426,Linn Valley,,Alberta,CA,52.3214,-113.87299999999999
AB427,Little Buffalo,,Alberta,CA,56.4375,-116.10799999999999
AB428,Lloydminster,,Alberta,CA,53.278999999999996,-110.01899999999999
AB429,Lodgepole,,Alberta,CA,53.1006,-115.314
AB430,Lomond,,Alberta,CA,50.3494,-112.641
AB431,Lone Pine,,Alberta,CA,54.3058,-115.115
AB432,Long Lake,,Alberta,CA,54.4517,-112.775
AB433,Longview,,Alberta,CA,50.5308,-114.23100000000001
AB434,Loon Lake,,Alberta,CA,56.5389,-115.39399999999999
AB435,Lougheed,,Alberta,CA,52.7444,-111.54299999999999
AB436,Louis Bull,,Alberta,CA,52.8887,-113.541
AB437,Lousana,,Alberta,CA,52.1128,-113.19
AB438,Loyalist,,Alberta,CA,51.9858,-110.954
AB439,Lundbreck,,Alberta,CA,49.5845,-114.164
AB440,Lyalta,,Alberta,CA,51.1145,-113.602
AB441,Ma-Me-O Beach,,Alberta,CA,52.9735,-113.96
AB442,Magrath,,Alberta,CA,49.417,-112.865
AB443,Makepeace,,Alberta,CA,50.9394,-112.616
AB444,Mallaig,,Alberta,CA,54.2103,-111.361
AB445,Manning,,Alberta,CA,56.92,-117.62899999999999
AB446,Mannville,,Alberta,CA,53.3403,-111.178
AB447,Manyberries,,Alberta,CA,49.4006,-110.695
AB448,Markerville,,Alberta,CA,52.1236,-114.171
AB449,Marlboro,,Alberta,CA,53.5556,-116.796
AB450,Martins Trailer Court,,Alberta,CA,52.3597,-115.02799999999999
AB451,Marwayne,,Alberta,CA,53.5175,-110.33
AB452,Mayerthorpe,,Alberta,CA,53.9547,-115.13799999999999
AB453,McDermott,,Alberta,CA,49.7309,-112.948
AB454,McLaughlin,,Alberta,CA,52.9897,-110.165
AB455,McLennan,,Alberta,CA,55.7062,-116.906
AB456,McLeod Valley,,Alberta,CA,53.7206,-115.971
AB457,McNab,,Alberta,CA,49.3494,-112.29
AB458,Meander River,,Alberta,CA,59.0434,-117.714
AB459,Meanook,,Alberta,CA,54.5766,-113.319
AB460,Medicine Hat,,Alberta,CA,50.0408,-110.677
AB461,Medley,,Alberta,CA,54.4191,-110.26799999999999
AB462,Meeting Creek,,Alberta,CA,52.6819,-112.73200000000001
AB463,Meso West,,Alberta,CA,53.5915,-114.30799999999999
AB464,Metiskow,,Alberta,CA,52.4086,-110.633
AB465,Mewatha Beach,,Alberta,CA,54.6065,-112.741
AB466,Michichi,,Alberta,CA,51.5853,-112.53399999999999
AB467,Mikisew,,Alberta,CA,58.7678,-111.046
AB468,Milk River,,Alberta,CA,49.1554,-112.083
AB469,Millarville,,Alberta,CA,50.7564,-114.325
AB470,Millet,,Alberta,CA,53.0923,-113.473
AB471,Millicent,,Alberta,CA,50.7103,-111.779
AB472,Milo,,Alberta,CA,50.57,-112.882
AB473,Minburn,,Alberta,CA,53.3156,-111.36399999999999
AB474,Mirror,,Alberta,CA,52.4656,-113.11
AB475,Monarch,,Alberta,CA,49.8044,-113.10799999999999
AB476,Monitor,,Alberta,CA,51.9783,-110.569
AB477,Montana,,Alberta,CA,52.7271,-113.42399999999999
AB478,Moon River Estates,,Alberta,CA,49.7286,-113.149
AB479,Moose Portage,,Alberta,CA,55.2292,-113.883
AB480,Morinville,,Alberta,CA,53.8028,-113.64399999999999
AB481,Morley,,Alberta,CA,51.1672,-114.852
AB482,Morningside,,Alberta,CA,52.5778,-113.634
AB483,Morrin,,Alberta,CA,51.6603,-112.76700000000001
AB484,Mossleigh,,Alberta,CA,50.7203,-113.324
AB485,Mountain View,,Alberta,CA,49.1344,-113.596
AB486,Mulhurst,,Alberta,CA,53.0493,-113.98100000000001
AB487,Mundare,,Alberta,CA,53.5939,-112.34200000000001
AB488,Munson,,Alberta,CA,51.5633,-112.738
AB489,Musidora,,Alberta,CA,53.6897,-111.584
AB490,Myrnam,,Alberta,CA,53.6617,-111.23
AB491,Nacmine,,Alberta,CA,51.47,-112.78399999999999
AB492,Nakamun Park,,Alberta,CA,53.8776,-114.214
AB493,Namaka,,Alberta,CA,50.9583,-113.287
AB494,Namao,,Alberta,CA,53.7671,-113.47399999999999
AB495,Nampa,,Alberta,CA,56.0381,-117.13
AB496,Nanton,,Alberta,CA,50.346000000000004,-113.777
AB497,Neerlandia,,Alberta,CA,54.3192,-114.37700000000001
AB498,Nevis,,Alberta,CA,52.3303,-113.031
AB499,New Brigden,,Alberta,CA,51.7006,-110.49
AB500,New Dayton,,Alberta,CA,49.4256,-112.381
AB501,New Norway,,Alberta,CA,52.8689,-112.95100000000001
AB502,New Sarepta,,Alberta,CA,53.2742,-113.146
AB503,Newbrook,,Alberta,CA,54.326,-112.949
AB504,Nightingale,,Alberta,CA,51.1603,-113.333
AB505,Niton Junction,,Alberta,CA,53.6219,-115.77
AB506,Nobleford,,Alberta,CA,49.8803,-113.054
AB507,Norglenwold,,Alberta,CA,52.3245,-114.132
AB508,Norris Beach,,Alberta,CA,52.9666,-114.023
AB509,North Star,,Alberta,CA,56.8564,-117.615
AB510,Notikewin,,Alberta,CA,56.9747,-117.625
AB511,O'Chiese,,Alberta,CA,52.6839,-115.256
AB512,Obed,,Alberta,CA,53.5583,-117.215
AB513,Ohaton,,Alberta,CA,52.97,-112.661
AB514,Okotoks,,Alberta,CA,50.7261,-113.977
AB515,Olds,,Alberta,CA,51.7919,-114.10700000000001
AB516,Onoway,,Alberta,CA,53.7025,-114.19200000000001
AB517,Orton,,Alberta,CA,49.732,-113.264
AB518,Osborne Acres,,Alberta,CA,53.558,-113.8
AB519,Oyen,,Alberta,CA,51.3528,-110.48299999999999
AB520,Paddle Prairie,,Alberta,CA,57.9511,-117.47200000000001
AB521,Panorama Heights,,Alberta,CA,53.6318,-113.94200000000001
AB522,Paradise Valley,,Alberta,CA,53.0328,-110.296
AB523,Parkland,,Alberta,CA,50.2561,-113.65899999999999
AB524,Parkland Beach,,Alberta,CA,52.6072,-114.065
AB525,Patricia,,Alberta,CA,50.6994,-111.677
AB526,Peace River,,Alberta,CA,56.2389,-117.292
AB527,Peavine Metis Settlement,,Alberta,CA,55.7845,-116.29700000000001
AB528,Peerless Lake,,Alberta,CA,56.6804,-114.581
AB529,Peers,,Alberta,CA,53.6658,-115.993
AB530,Pelican Narrows,,Alberta,CA,54.2629,-110.89
AB531,Pemukan,,Alberta,CA,51.9719,-110.444
AB532,Penhold,,Alberta,CA,52.1369,-113.87299999999999
AB533,Perryvale,,Alberta,CA,54.4678,-113.387
AB534,Peterburn Estates,,Alberta,CA,53.4952,-113.96600000000001
AB535,Pibroch,,Alberta,CA,54.2544,-113.875
AB536,Pickardville,,Alberta,CA,54.0519,-113.881
AB537,Picture Butte,,Alberta,CA,49.8769,-112.78
AB538,Pincher,,Alberta,CA,49.5248,-113.947
AB539,Pincher Creek,,Alberta,CA,49.4853,-113.947
AB540,Pine Lake,,Alberta,CA,52.1103,-113.48200000000001
AB541,Pine Shadows,,Alberta,CA,53.6031,-116.305
AB542,Pipestone,,Alberta,CA,53.0536,-113.795
AB543,Plamondon,,Alberta,CA,54.8497,-112.34200000000001
AB544,Point Alison,,Alberta,CA,53.5503,-114.486
AB545,Pollockville,,Alberta,CA,51.1061,-111.59
AB546,Ponoka,,Alberta,CA,52.675,-113.58
AB547,Poplar Bay,,Alberta,CA,53.0078,-114.12100000000001
AB548,Poplar Ridge,,Alberta,CA,52.2994,-113.93700000000001
AB549,Prairie Lodge Trailer Court,,Alberta,CA,53.5145,-112.052
AB550,Priddis,,Alberta,CA,50.8861,-114.329
AB551,Provost,,Alberta,CA,52.3533,-110.265
AB552,Purple Springs,,Alberta,CA,49.8156,-111.89200000000001
AB553,Queenstown,,Alberta,CA,50.6394,-112.939
AB554,Radway,,Alberta,CA,54.06,-112.945
AB555,Rainbow Lake,,Alberta,CA,58.5044,-119.4
AB556,Rainier,,Alberta,CA,50.3683,-112.09200000000001
AB557,Ralston,,Alberta,CA,50.2458,-111.169
AB558,Ranfurly,,Alberta,CA,53.4072,-111.68
AB559,Raymond,,Alberta,CA,49.465,-112.661
AB560,Red Deer,,Alberta,CA,52.2686,-113.81
AB561,Red Earth Creek,,Alberta,CA,56.5363,-115.29799999999999
AB562,Red Willow,,Alberta,CA,52.4504,-112.573
AB563,Redcliff,,Alberta,CA,50.0775,-110.786
AB564,Redland,,Alberta,CA,51.2897,-113.008
AB565,Redwater,,Alberta,CA,53.9508,-113.10700000000001
AB566,Reno,,Alberta,CA,55.9943,-117.0
AB567,Rich Lake,,Alberta,CA,54.5078,-111.619
AB568,Rich Valley,,Alberta,CA,53.8483,-114.35
AB569,Richdale,,Alberta,CA,51.6103,-111.604
AB570,Rimbey,,Alberta,CA,52.6392,-114.23700000000001
AB571,Riverview,,Alberta,CA,53.8619,-110.64200000000001
AB572,Riverview Pines,,Alberta,CA,55.0875,-118.946
AB573,Robb,,Alberta,CA,53.2333,-116.979
AB574,Rochester,,Alberta,CA,54.3725,-113.461
AB575,Rochfort Bridge,,Alberta,CA,53.9136,-115.036
AB576,Rochon Sands,,Alberta,CA,52.45399999999999,-112.882
AB577,Rocky Lane,,Alberta,CA,58.4588,-116.259
AB578,Rocky Mountain House,,Alberta,CA,52.3793,-114.919
AB579,Rocky Rapids,,Alberta,CA,53.2797,-114.95200000000001
AB580,Rockyford,,Alberta,CA,51.2342,-113.14200000000001
AB581,Rolling Heights,,Alberta,CA,53.6383,-113.992
AB582,Rolling Hills,,Alberta,CA,50.2256,-111.774
AB583,Rolling Meadows,,Alberta,CA,53.5826,-113.854
AB584,Rolly View,,Alberta,CA,53.2528,-113.31700000000001
AB585,Rosalind,,Alberta,CA,52.7897,-112.444
AB586,Rose Lynn,,Alberta,CA,51.4178,-111.677
AB587,Rosebud,,Alberta,CA,51.2997,-112.95100000000001
AB588,Rosedale,,Alberta,CA,51.4167,-112.633
AB589,Rosemary,,Alberta,CA,50.7575,-112.09
AB590,Ross Haven,,Alberta,CA,53.7342,-114.40799999999999
AB591,Rossian,,Alberta,CA,54.9545,-112.37100000000001
AB592,Round Hill,,Alberta,CA,53.1653,-112.631
AB593,Rowley,,Alberta,CA,51.7622,-112.788
AB594,Rumsey,,Alberta,CA,51.8419,-112.84200000000001
AB595,Rycroft,,Alberta,CA,55.7558,-118.709
AB596,Ryley,,Alberta,CA,53.2908,-112.43
AB597,Saddle Lake,,Alberta,CA,53.9559,-111.70100000000001
AB598,Samson Peak,,Alberta,CA,52.6806,-117.5273
AB599,Sandy Beach,,Alberta,CA,53.8084,-114.039
AB600,Sandy Lake,,Alberta,CA,55.8144,-113.416
AB601,Sangudo,,Alberta,CA,53.8879,-114.895
AB602,Saprae Creek,,Alberta,CA,56.6592,-111.14299999999999
AB603,Saskatchewan River Crossing,,Alberta,CA,51.9758,-116.743
AB604,Sawridge,,Alberta,CA,55.3117,-114.868
AB605,Sawridge,,Alberta,CA,55.2901,-114.75
AB606,Scandia,,Alberta,CA,50.2781,-112.04700000000001
AB607,Schuler,,Alberta,CA,50.3407,-110.089
AB608,Scollard,,Alberta,CA,51.9375,-112.834
AB609,Seba Beach,,Alberta,CA,53.5593,-114.734
AB610,Sedalia,,Alberta,CA,51.675,-110.665
AB611,Sedgewick,,Alberta,CA,52.7747,-111.693
AB612,Seven Persons,,Alberta,CA,49.8761,-110.90799999999999
AB613,Sexsmith,,Alberta,CA,55.3503,-118.78200000000001
AB614,Shaughnessy,,Alberta,CA,49.8528,-112.84200000000001
AB615,Shepard,,Alberta,CA,50.953,-113.90799999999999
AB616,Sherwood Park,,Alberta,CA,53.5339,-113.29
AB617,Shouldice,,Alberta,CA,50.7167,-112.97399999999999
AB618,Sibbald,,Alberta,CA,51.3883,-110.15
AB619,Siksika,,Alberta,CA,50.7924,-112.855
AB620,Silver Beach,,Alberta,CA,53.0368,-113.994
AB621,Silver Sands,,Alberta,CA,53.6369,-114.65700000000001
AB622,Skiff,,Alberta,CA,49.5025,-111.791
AB623,Slave Lake,,Alberta,CA,55.2822,-114.77
AB624,Smith,,Alberta,CA,55.162,-114.041
AB625,Smoky Lake,,Alberta,CA,54.1167,-112.46700000000001
AB626,South Baptiste,,Alberta,CA,54.7219,-113.573
AB627,South View,,Alberta,CA,53.6468,-114.663
AB628,Spedden,,Alberta,CA,54.1386,-111.726
AB629,Spirit River,,Alberta,CA,55.7786,-118.837
AB630,Spring Coulee,,Alberta,CA,49.3331,-113.053
AB631,Spring Lake,,Alberta,CA,53.5186,-114.133
AB632,Springbrook,,Alberta,CA,52.1767,-113.87200000000001
AB633,Spruce Grove,,Alberta,CA,53.5539,-113.902
AB634,Spruce Lane Acres,,Alberta,CA,52.3503,-113.81299999999999
AB635,Spruce View,,Alberta,CA,52.0856,-114.31
AB636,Sputinow,,Alberta,CA,53.9219,-110.26799999999999
AB637,St. Albert,,Alberta,CA,53.6369,-113.62
AB638,St. Isidore,,Alberta,CA,56.20399999999999,-117.10700000000001
AB639,St. Lina,,Alberta,CA,54.2961,-111.454
AB640,St. Michael,,Alberta,CA,53.8303,-112.63600000000001
AB641,St. Paul,St-Paul-de-Métis,Alberta,CA,53.9913,-111.3269
AB642,St. Paul,,Alberta,CA,53.9928,-111.296
AB643,Stand Off,,Alberta,CA,49.4569,-113.303
AB644,Standard,,Alberta,CA,51.1097,-112.984
AB645,Stavely,,Alberta,CA,50.1611,-113.64200000000001
AB646,Steen River,,Alberta,CA,59.6275,-117.167
AB647,Stettler,,Alberta,CA,52.3239,-112.704
AB648,Stirling,,Alberta,CA,49.5032,-112.527
AB649,Stonelaw,,Alberta,CA,51.8686,-112.48100000000001
AB650,Stony Plain,,Alberta,CA,53.5264,-114.007
AB651,Strathmore,,Alberta,CA,51.0456,-113.39299999999999
AB652,Strome,,Alberta,CA,52.8108,-112.06700000000001
AB653,Sturgeon Lake,,Alberta,CA,55.1286,-117.476
AB654,Sturgeon Lake,,Alberta,CA,55.0695,-117.48899999999999
AB655,Suffield,,Alberta,CA,50.2183,-111.161
AB656,Sunbreaker Cove,,Alberta,CA,52.3875,-114.18700000000001
AB657,Sunchild,,Alberta,CA,52.6935,-115.33
AB658,Sundance Beach,,Alberta,CA,53.0809,-114.12100000000001
AB659,Sundre,,Alberta,CA,51.7983,-114.64
AB660,Sunnybrook,,Alberta,CA,53.193000000000005,-114.2
AB661,Sunnyslope,,Alberta,CA,51.648999999999994,-113.55799999999999
AB662,Sunrise Beach,,Alberta,CA,53.7838,-114.055
AB663,Sunset Beach,,Alberta,CA,54.7415,-113.541
AB664,Sunset House,,Alberta,CA,55.111999999999995,-116.899
AB665,Sunset Point,,Alberta,CA,53.6888,-114.353
AB666,Sunset View Acres,,Alberta,CA,53.4502,-113.744
AB667,Swalwell,,Alberta,CA,51.5572,-113.318
AB668,Swan City Trailer Court,,Alberta,CA,55.1694,-118.75399999999999
AB669,Swan Hills,,Alberta,CA,54.7167,-115.402
AB670,Swan River,,Alberta,CA,55.3402,-115.45100000000001
AB671,Sylvan Lake,,Alberta,CA,52.3047,-114.1145
AB672,Sylvan Lake,,Alberta,CA,52.3057,-114.096
AB673,T & E Trailer Park,,Alberta,CA,55.1766,-118.751
AB674,Taber,,Alberta,CA,49.7848,-112.15100000000001
AB675,Tallcree,,Alberta,CA,57.9119,-115.35600000000001
AB676,Tawatinaw,,Alberta,CA,54.2979,-113.477
AB677,Tees,,Alberta,CA,52.4675,-113.321
AB678,Therien,,Alberta,CA,54.2389,-111.255
AB679,Thorhild,,Alberta,CA,54.1589,-113.125
AB680,Thorsby,,Alberta,CA,53.2269,-114.04799999999999
AB681,Three Hills,,Alberta,CA,51.7031,-113.26899999999999
AB682,Throne,,Alberta,CA,52.0534,-111.288
AB683,Tilley,,Alberta,CA,50.4522,-111.65299999999999
AB684,Tofield,,Alberta,CA,53.3708,-112.666
AB685,Tomahawk,,Alberta,CA,53.3979,-114.76299999999999
AB686,Torrington,,Alberta,CA,51.7914,-113.60600000000001
AB687,Travers,,Alberta,CA,50.2481,-112.555
AB688,Triple-L-Trailer Court,,Alberta,CA,55.1687,-118.65
AB689,Trochu,,Alberta,CA,51.8286,-113.228
AB690,Trout Lake,,Alberta,CA,56.4958,-114.55799999999999
AB691,Tsuu T'ina,,Alberta,CA,50.9515,-114.166
AB692,Tulliby Lake,,Alberta,CA,53.7139,-110.177
AB693,Turin,,Alberta,CA,49.9641,-112.52799999999999
AB694,Turner Valley,,Alberta,CA,50.6753,-114.28
AB695,Tuttle,,Alberta,CA,52.2012,-113.84299999999999
AB696,Twining,,Alberta,CA,51.6328,-113.29700000000001
AB697,Two Hills,,Alberta,CA,53.7111,-111.745
AB698,Upper and Lower Viscount Estates,,Alberta,CA,53.6748,-113.561
AB699,Upper Manor Estates,,Alberta,CA,53.6874,-113.575
AB700,Val Quentin,,Alberta,CA,53.663999999999994,-114.385
AB701,Valhalla Centre,,Alberta,CA,55.4036,-119.382
AB702,Valleyview,,Alberta,CA,55.0659,-117.28200000000001
AB703,Vauxhall,,Alberta,CA,50.0683,-112.10700000000001
AB704,Vegreville,,Alberta,CA,53.4977,-112.1015
AB705,Vegreville,,Alberta,CA,53.4956,-112.052
AB706,Venice,,Alberta,CA,54.6978,-112.148
AB707,Vermilion,,Alberta,CA,53.3547,-110.853
AB708,Veteran,,Alberta,CA,52.0011,-111.119
AB709,Viking,,Alberta,CA,53.0947,-111.77600000000001
AB710,Villeneuve,,Alberta,CA,53.66,-113.811
AB711,Vilna,,Alberta,CA,54.1167,-111.921
AB712,Vimy,,Alberta,CA,54.0621,-113.647
AB713,Violet Grove,,Alberta,CA,53.1597,-115.037
AB714,Vulcan,,Alberta,CA,50.4042,-113.26100000000001
AB715,Wabamun,,Alberta,CA,53.5609,-114.47200000000001
AB716,Wabasca-Desmarais,,Alberta,CA,55.9792,-113.84299999999999
AB717,Wainwright,,Alberta,CA,52.8382,-110.853
AB718,Waiparous,,Alberta,CA,51.2828,-114.835
AB719,Walsh,,Alberta,CA,49.9472,-110.042
AB720,Wandering River,,Alberta,CA,55.1956,-112.475
AB721,Wanham,,Alberta,CA,55.7375,-118.385
AB722,Warburg,,Alberta,CA,53.1817,-114.32
AB723,Warden,,Alberta,CA,52.2592,-112.742
AB724,Wardlow,,Alberta,CA,50.9053,-111.546
AB725,Warner,,Alberta,CA,49.2828,-112.208
AB726,Warspite,,Alberta,CA,54.0911,-112.61399999999999
AB727,Warwick,,Alberta,CA,53.6272,-112.052
AB728,Waskatenau,,Alberta,CA,54.0939,-112.78399999999999
AB729,Water Valley,,Alberta,CA,51.5061,-114.611
AB730,Waterton Park,,Alberta,CA,49.0517,-113.914
AB731,Watino,,Alberta,CA,55.7126,-117.624
AB732,Wayne,,Alberta,CA,51.3815,-112.65799999999999
AB733,Webster,,Alberta,CA,55.4419,-118.68799999999999
AB734,Welling,,Alberta,CA,49.4811,-112.786
AB735,Wembley,,Alberta,CA,55.1556,-119.146
AB736,West Baptiste,,Alberta,CA,54.7622,-113.574
AB737,West Cove,,Alberta,CA,53.6983,-114.50399999999999
AB738,Westbrooke Crescents,,Alberta,CA,53.5926,-113.971
AB739,Westlake Estates,,Alberta,CA,53.5283,-114.079
AB740,Westlock,,Alberta,CA,54.1553,-113.85700000000001
AB741,Wetaskiwin,,Alberta,CA,52.9692,-113.37700000000001
AB742,Whispering Hills,,Alberta,CA,54.7584,-113.552
AB743,Whitburn,,Alberta,CA,55.8689,-119.20200000000001
AB744,White Sands,,Alberta,CA,52.4667,-112.81700000000001
AB745,Whitecourt,,Alberta,CA,54.1411,-115.684
AB746,Whitefish Lake,,Alberta,CA,55.9331,-115.369
AB747,Whitelaw,,Alberta,CA,56.1089,-118.07600000000001
AB748,Whitla,,Alberta,CA,49.8822,-111.057
AB749,Widewater,,Alberta,CA,55.3604,-115.037
AB750,Wildwood,,Alberta,CA,53.6105,-115.24700000000001
AB751,Willingdon,,Alberta,CA,53.8286,-112.118
AB752,Wimborne,,Alberta,CA,51.8664,-113.59299999999999
AB753,Winfield,,Alberta,CA,52.9653,-114.42299999999999
AB754,Winnifred,,Alberta,CA,49.9067,-111.21
AB755,Woking,,Alberta,CA,55.5925,-118.775
AB756,Woodbend Crescent,,Alberta,CA,53.4287,-113.73100000000001
AB757,Woodland,,Alberta,CA,56.4863,-116.05799999999999
AB758,Woodland Hills,,Alberta,CA,52.227,-113.831
AB759,Woodland Park,,Alberta,CA,53.4323,-113.795
AB760,Worsley,,Alberta,CA,56.5067,-119.134
AB761,Wrentham,,Alberta,CA,49.5144,-112.17299999999999
AB762,Yellowstone,,Alberta,CA,53.7296,-114.382
AB763,Youngstown,,Alberta,CA,51.5278,-111.2
AB764,Zama City,,Alberta,CA,59.1537,-118.68700000000001
