id,name,alt_name,region,country,latitude,longitude,tags
AB1,Abee,,Alberta,CA,54.238,-113.025,ardac
AB2,Acadia Valley,,Alberta,CA,51.1585,-110.209,ardac
AB3,Acme,,Alberta,CA,51.4972,-113.509,ardac
AB4,Aetna,,Alberta,CA,49.1339,-113.24,ardac
AB5,Airdrie,,Alberta,CA,51.2814,-114.004,ardac
AB6,Alberta Beach,,Alberta,CA,53.6756,-114.353,ardac
AB7,Alder Flats,,Alberta,CA,52.9331,-114.957,ardac
AB8,Aldersyde,,Alberta,CA,50.6761,-113.879,ardac
AB9,Alexander,,Alberta,CA,53.8033,-113.919,ardac
AB10,Alexis,,Alberta,CA,53.7324,-114.491,ardac
AB11,Alhambra,,Alberta,CA,52.3431,-114.672,ardac
AB12,Alix,,Alberta,CA,52.3981,-113.189,ardac
AB13,Alliance,,Alberta,CA,52.4344,-111.785,ardac
AB14,Altario,,Alberta,CA,51.9186,-110.162,ardac
AB15,Amesbury,,Alberta,CA,55.0811,-112.497,ardac
AB16,Amisk,,Alberta,CA,52.5656,-111.057,ardac
AB17,Andrew,,Alberta,CA,53.8783,-112.335,ardac
AB18,Anzac,,Alberta,CA,56.4478,-111.046,ardac
AB19,Arcadia,,Alberta,CA,55.4026,-116.131,ardac
AB20,Ardenode,,Alberta,CA,51.1444,-113.424,ardac
AB21,Ardley,,Alberta,CA,52.2611,-113.232,ardac
AB22,Ardmore,,Alberta,CA,54.3314,-110.477,ardac
AB23,Ardrossan,,Alberta,CA,53.5522,-113.144,ardac
AB24,Argentia Beach,,Alberta,CA,53.0536,-114.016,ardac
AB25,Armada,,Alberta,CA,50.4139,-112.754,ardac
AB26,Armena,,Alberta,CA,53.1225,-112.949,ardac
AB27,Arrowwood,,Alberta,CA,50.7392,-113.15,ardac
AB28,Artists View Park West,,Alberta,CA,51.0788,-114.272,ardac
AB29,Ashmont,,Alberta,CA,54.1292,-111.568,ardac
AB30,Assumption,,Alberta,CA,58.6994,-118.687,ardac
AB31,Athabasca,,Alberta,CA,54.7151,-113.284,ardac
AB32,Atikameg,,Alberta,CA,55.9169,-115.651,ardac
AB33,Atmore,,Alberta,CA,54.8192,-112.55,ardac
AB34,Balmoral,,Alberta,CA,52.2754,-113.7,ardac
AB35,Banff,,Alberta,CA,51.179,-115.569,ardac
AB36,Barnwell,,Alberta,CA,49.7606,-112.263,ardac
AB37,Barons,,Alberta,CA,49.9975,-113.081,ardac
AB38,Barrhead,,Alberta,CA,54.1217,-114.404,ardac
AB39,Bashaw,,Alberta,CA,52.5831,-112.97,ardac
AB40,Bassano,,Alberta,CA,50.7875,-112.468,ardac
AB41,Bawlf,,Alberta,CA,52.9194,-112.466,ardac
AB42,Bay Tree,,Alberta,CA,55.825,-119.906,ardac
AB43,Beaumont,,Alberta,CA,53.3525,-113.415,ardac
AB44,Beauvallon,,Alberta,CA,53.6592,-111.362,ardac
AB45,Beaver,,Alberta,CA,58.4708,-116.584,ardac
AB46,Beaver Lake,,Alberta,CA,54.753,-111.927,ardac
AB48,Beaver Mines,,Alberta,CA,49.4567,-114.197,ardac
AB49,Beaverlodge,,Alberta,CA,55.2118,-119.422,ardac
AB50,Beiseker,,Alberta,CA,51.385,-113.536,ardac
AB51,Bellevue,,Alberta,CA,49.5808,-114.366,ardac
AB52,Bellis,,Alberta,CA,54.1428,-112.15,ardac
AB53,Benalto,,Alberta,CA,52.3078,-114.278,ardac
AB54,Benchlands,,Alberta,CA,51.2834,-114.801,ardac
AB55,Bentley,,Alberta,CA,52.4664,-114.051,ardac
AB56,Bergen,,Alberta,CA,51.7081,-114.632,ardac
AB57,Berwyn,,Alberta,CA,56.1488,-117.724,ardac
AB58,Betula Beach,,Alberta,CA,53.5362,-114.677,ardac
AB59,Bezanson,,Alberta,CA,55.2286,-118.361,ardac
AB60,Big Valley,,Alberta,CA,52.0328,-112.752,ardac
AB61,Bigstone,,Alberta,CA,55.9436,-113.769,ardac
AB62,Bindloss,,Alberta,CA,50.88,-110.274,ardac
AB63,Birch Cove,,Alberta,CA,53.9538,-114.372,ardac
AB64,Bircham,,Alberta,CA,51.4589,-113.431,ardac
AB65,Birchcliff,,Alberta,CA,52.3619,-114.118,ardac
AB66,Bittern Lake,,Alberta,CA,53.0081,-113.057,ardac
AB67,Black Diamond,,Alberta,CA,50.6881,-114.234,ardac
AB68,Blackfalds,,Alberta,CA,52.3783,-113.796,ardac
AB69,Blackfoot,,Alberta,CA,53.2892,-110.173,ardac
AB70,Blackie,,Alberta,CA,50.6044,-113.623,ardac
AB71,Blairmore,,Alberta,CA,49.6081,-114.443,ardac
AB72,Blue Ridge,,Alberta,CA,54.125,-115.378,ardac
AB73,Blueberry Mountain,,Alberta,CA,55.9267,-119.15,ardac
AB74,Bluesky,,Alberta,CA,56.0735,-118.239,ardac
AB75,Bluffton,,Alberta,CA,52.7494,-114.292,ardac
AB76,Bodo,,Alberta,CA,52.1533,-110.079,ardac
AB77,Bon Accord,,Alberta,CA,53.8369,-113.412,ardac
AB78,Bonanza,,Alberta,CA,55.9128,-119.827,ardac
AB79,Bondiss,,Alberta,CA,54.5981,-112.695,ardac
AB80,Bonnyville,,Alberta,CA,54.2672,-110.739,ardac
AB81,Botha,,Alberta,CA,52.3081,-112.524,ardac
AB82,Bow Island,,Alberta,CA,49.8672,-111.379,ardac
AB83,Bowden,,Alberta,CA,51.9332,-114.032,ardac
AB84,Boyle,,Alberta,CA,54.5897,-112.807,ardac
AB85,Bragg Creek,,Alberta,CA,50.9503,-114.57,ardac
AB86,Brant,,Alberta,CA,50.5169,-113.512,ardac
AB87,Breton,,Alberta,CA,53.1101,-114.471,ardac
AB88,Breynat,,Alberta,CA,55.1414,-112.491,ardac
AB89,Bristol Oakes,,Alberta,CA,53.6824,-113.564,ardac
AB90,Brocket,,Alberta,CA,49.5467,-113.75,ardac
AB91,Brooks,,Alberta,CA,50.5672,-111.895,ardac
AB92,Brownfield,,Alberta,CA,52.3172,-111.433,ardac
AB93,Brownvale,,Alberta,CA,56.1282,-117.896,ardac
AB94,Bruce,,Alberta,CA,53.1739,-112.039,ardac
AB95,Bruderheim,,Alberta,CA,53.7997,-112.928,ardac
AB96,Brule,,Alberta,CA,53.284,-117.874,ardac
AB97,Buck Creek,,Alberta,CA,53.1039,-114.896,ardac
AB98,Buck Lake,,Alberta,CA,52.9486,-114.777,ardac
AB99,Buffalo Head Prairie,,Alberta,CA,58.0508,-116.349,ardac
AB100,Buffalo Lake Metis Settlement,,Alberta,CA,54.5791,-112.448,ardac
AB101,Buford,,Alberta,CA,53.2471,-113.927,ardac
AB102,Bulwark,,Alberta,CA,52.2417,-111.587,ardac
AB103,Burdett,,Alberta,CA,49.835,-111.523,ardac
AB104,Burmis,,Alberta,CA,49.5572,-114.288,ardac
AB105,Burnstick Lake,,Alberta,CA,51.9894,-114.892,ardac
AB106,Busby,,Alberta,CA,53.9481,-113.891,ardac
AB107,Byemoor,,Alberta,CA,51.9797,-112.287,ardac
AB108,Cadogan,,Alberta,CA,52.3192,-110.449,ardac
AB109,Cadomin,,Alberta,CA,53.0282,-117.331,ardac
AB110,Cadotte Lake,,Alberta,CA,56.4705,-116.382,ardac
AB111,Calahoo,,Alberta,CA,53.7145,-113.958,ardac
AB112,Calgary,,Alberta,CA,51.0458,-114.057,ardac
AB113,Calling Lake,,Alberta,CA,55.2103,-113.19,ardac
AB115,Calmar,,Alberta,CA,53.2664,-113.809,ardac
AB116,Cambria,,Alberta,CA,51.3939,-112.59,ardac
AB117,Campsie,,Alberta,CA,54.1278,-114.647,ardac
AB118,Camrose,,Alberta,CA,53.0181,-112.839,ardac
AB119,Canmore,,Alberta,CA,51.0928,-115.361,ardac
AB120,Canyon Creek,,Alberta,CA,55.3666,-115.097,ardac
AB121,Canyon Heights,,Alberta,CA,52.2907,-113.704,ardac
AB122,Carbon,,Alberta,CA,51.4858,-113.151,ardac
AB123,Carbondale,,Alberta,CA,53.7464,-113.527,ardac
AB124,Cardiff,,Alberta,CA,53.7728,-113.6,ardac
AB125,Cardston,,Alberta,CA,49.1962,-113.307,ardac
AB126,Carmangay,,Alberta,CA,50.1294,-113.111,ardac
AB127,Caroline,,Alberta,CA,52.0948,-114.738,ardac
AB128,Carseland,,Alberta,CA,50.8544,-113.471,ardac
AB129,Carstairs,,Alberta,CA,51.5656,-114.099,ardac
AB130,Caslan,,Alberta,CA,54.6311,-112.512,ardac
AB131,Cassils,,Alberta,CA,50.5769,-112.046,ardac
AB132,Castor,,Alberta,CA,52.2192,-111.904,ardac
AB133,Cayley,,Alberta,CA,50.4481,-113.847,ardac
AB134,Central Park,,Alberta,CA,52.3309,-113.823,ardac
AB135,Cereal,,Alberta,CA,51.4183,-110.8,ardac
AB136,Cessford,,Alberta,CA,51.0064,-111.557,ardac
AB137,Champion,,Alberta,CA,50.2397,-113.148,ardac
AB138,Chancellor,,Alberta,CA,51.0885,-112.835,ardac
AB139,Chauvin,,Alberta,CA,52.6936,-110.141,ardac
AB140,Cheadle,,Alberta,CA,51.0144,-113.541,ardac
AB141,Cherhill,,Alberta,CA,53.8192,-114.677,ardac
AB142,Cherry Grove,,Alberta,CA,54.3561,-110.075,ardac
AB143,Chestermere,,Alberta,CA,51.0373,-113.828,ardac
AB144,Chin,,Alberta,CA,49.7635,-112.445,ardac
AB145,Chinook,,Alberta,CA,51.4494,-110.925,ardac
AB146,Chipewyan Lake,,Alberta,CA,56.9403,-113.473,ardac
AB147,Chipewyan Prairie,,Alberta,CA,55.9358,-110.717,ardac
AB148,Chipman,,Alberta,CA,53.6983,-112.638,ardac
AB149,Chisholm,,Alberta,CA,54.9094,-114.169,ardac
AB150,Chokio,,Alberta,CA,49.5819,-113.66,ardac
AB151,Clairmont,,Alberta,CA,55.2614,-118.794,ardac
AB152,Clandonald,,Alberta,CA,53.5719,-110.714,ardac
AB153,Claresholm,,Alberta,CA,50.0197,-113.583,ardac
AB154,Cleardale,,Alberta,CA,56.3558,-119.478,ardac
AB155,Clearwater Estates,,Alberta,CA,53.5694,-114.081,ardac
AB156,Clive,,Alberta,CA,52.4774,-113.445,ardac
AB157,Cluny,,Alberta,CA,50.8411,-112.869,ardac
AB158,Clyde,,Alberta,CA,54.1502,-113.636,ardac
AB159,Coaldale,,Alberta,CA,49.7278,-112.619,ardac
AB160,Coalhurst,,Alberta,CA,49.7467,-112.931,ardac
AB161,Cochrane,,Alberta,CA,51.1897,-114.484,ardac
AB162,Cochrane Lake,,Alberta,CA,51.2434,-114.482,ardac
AB163,Cold Lake,,Alberta,CA,54.4664,-110.188,ardac
AB164,Coleman,,Alberta,CA,49.6353,-114.503,ardac
AB165,Colinton,,Alberta,CA,54.6206,-113.253,ardac
AB166,College Heights,,Alberta,CA,52.4892,-113.733,ardac
AB167,Collingwood Cove,,Alberta,CA,53.4469,-113.005,ardac
AB168,Compeer,,Alberta,CA,51.8594,-110.013,ardac
AB169,Condor,,Alberta,CA,52.3264,-114.555,ardac
AB170,Conklin,,Alberta,CA,55.6308,-111.09,ardac
AB171,Connemara,,Alberta,CA,50.4001,-113.829,ardac
AB172,Conrich,,Alberta,CA,51.0933,-113.863,ardac
AB173,Consort,,Alberta,CA,52.0123,-110.771,ardac
AB174,Cooking Lake,,Alberta,CA,53.4114,-113.122,ardac
AB175,Coronado,,Alberta,CA,53.8878,-113.295,ardac
AB176,Coronation,,Alberta,CA,52.0947,-111.448,ardac
AB177,Coutts,,Alberta,CA,49.0028,-111.959,ardac
AB178,Cowley,,Alberta,CA,49.568,-114.074,ardac
AB179,Craigmyle,,Alberta,CA,51.6697,-112.243,ardac
AB180,Cremona,,Alberta,CA,51.5453,-114.485,ardac
AB181,Crossfield,,Alberta,CA,51.4306,-114.031,ardac
AB182,Crystal Meadows,,Alberta,CA,53.5634,-114.168,ardac
AB183,Crystal Springs,,Alberta,CA,52.9733,-114.041,ardac
AB184,Czar,,Alberta,CA,52.4547,-110.828,ardac
AB185,Dalemead,,Alberta,CA,50.8747,-113.637,ardac
AB186,Dalroy,,Alberta,CA,51.1286,-113.669,ardac
AB187,Dapp,,Alberta,CA,54.345,-113.916,ardac
AB188,Dawn Valley,,Alberta,CA,53.6214,-114.02,ardac
AB189,Daysland,,Alberta,CA,52.8673,-112.264,ardac
AB190,De Winton,,Alberta,CA,50.8231,-114.019,ardac
AB191,Deadwood,,Alberta,CA,56.7411,-117.458,ardac
AB192,DeBolt,,Alberta,CA,55.2217,-118.02,ardac
AB193,Del Bonita,,Alberta,CA,49.0294,-112.791,ardac
AB194,Delburne,,Alberta,CA,52.1981,-113.235,ardac
AB195,Delia,,Alberta,CA,51.6306,-112.374,ardac
AB196,Dene Tha',,Alberta,CA,58.5149,-117.065,ardac
AB197,Denwood,,Alberta,CA,52.8176,-110.891,ardac
AB198,Derwent,,Alberta,CA,53.6545,-110.967,ardac
AB199,Devon,,Alberta,CA,53.3613,-113.725,ardac
AB200,Devonshire Meadows,,Alberta,CA,53.3888,-113.83,ardac
AB201,Dewberry,,Alberta,CA,53.5881,-110.525,ardac
AB202,Diamond City,,Alberta,CA,49.7956,-112.839,ardac
AB203,Dickson,,Alberta,CA,52.0581,-114.308,ardac
AB204,Didsbury,,Alberta,CA,51.6594,-114.137,ardac
AB205,Dixonville,,Alberta,CA,56.5374,-117.672,ardac
AB206,Dogpound,,Alberta,CA,51.4567,-114.397,ardac
AB207,Donalda,,Alberta,CA,52.5836,-112.574,ardac
AB208,Donnelly,,Alberta,CA,55.7289,-117.105,ardac
AB209,Dorothy,,Alberta,CA,51.2792,-112.325,ardac
AB210,Drayton Valley,,Alberta,CA,53.2215,-114.974,ardac
AB211,Driftpile,,Alberta,CA,55.3428,-115.788,ardac
AB212,Drumheller,,Alberta,CA,51.4644,-112.719,ardac
AB213,Duchess,,Alberta,CA,50.7311,-111.906,ardac
AB214,Duffield,,Alberta,CA,53.5281,-114.344,ardac
AB215,Duhamel,,Alberta,CA,52.9156,-112.963,ardac
AB216,Duncan's,,Alberta,CA,56.1208,-117.861,ardac
AB217,Dunmore,,Alberta,CA,49.9703,-110.584,ardac
AB218,Durward,,Alberta,CA,50.2956,-113.713,ardac
AB219,Duvernay,,Alberta,CA,53.7861,-111.692,ardac
AB220,Eaglesham,,Alberta,CA,55.7825,-117.883,ardac
AB221,East Coulee,,Alberta,CA,51.3436,-112.498,ardac
AB222,East Prairie Metis Settlement,,Alberta,CA,55.1891,-116.27,ardac
AB223,Eastview Acres,,Alberta,CA,49.7895,-113.016,ardac
AB224,Eckville,,Alberta,CA,52.36,-114.367,ardac
AB225,Edberg,,Alberta,CA,52.7847,-112.789,ardac
AB226,Edgerton,,Alberta,CA,52.7586,-110.458,ardac
AB227,Edmonton,,Alberta,CA,53.5358,-113.494,ardac
AB228,Edson,,Alberta,CA,53.5866,-116.436,ardac
AB229,Egremont,,Alberta,CA,54.0383,-113.126,ardac
AB230,Eldoes Trailer Park,,Alberta,CA,55.1696,-118.744,ardac
AB231,Elizabeth Metis Settlement,,Alberta,CA,54.217,-110.092,ardac
AB232,Elk Point,,Alberta,CA,53.9011,-110.901,ardac
AB233,Elkwater,,Alberta,CA,49.6608,-110.282,ardac
AB234,Ellscott,,Alberta,CA,54.5031,-112.901,ardac
AB235,Elmworth,,Alberta,CA,55.0539,-119.616,ardac
AB236,Elnora,,Alberta,CA,51.9936,-113.201,ardac
AB237,Empress,,Alberta,CA,50.9543,-110.008,ardac
AB238,Enchant,,Alberta,CA,50.17,-112.422,ardac
AB239,Endiang,,Alberta,CA,51.9539,-112.158,ardac
AB240,Enilda,,Alberta,CA,55.4169,-116.311,ardac
AB241,Enoch,,Alberta,CA,53.4997,-113.761,ardac
AB242,Ensign,,Alberta,CA,50.475,-113.432,ardac
AB243,Entrance,,Alberta,CA,53.3748,-117.684,ardac
AB244,Entwistle,,Alberta,CA,53.5944,-114.996,ardac
AB245,Ermineskin,,Alberta,CA,52.836,-113.454,ardac
AB246,Erskine,,Alberta,CA,52.3211,-112.88,ardac
AB247,Etzikom,,Alberta,CA,49.4769,-111.107,ardac
AB248,Evansburg,,Alberta,CA,53.6004,-115.017,ardac
AB249,Exshaw,,Alberta,CA,51.0635,-115.159,ardac
AB250,Fabyan,,Alberta,CA,52.8819,-110.994,ardac
AB251,Fairview,,Alberta,CA,56.0672,-118.384,ardac
AB252,Falher,,Alberta,CA,55.7372,-117.201,ardac
AB253,Fallis,,Alberta,CA,53.5853,-114.641,ardac
AB254,Faust,,Alberta,CA,55.3158,-115.628,ardac
AB255,Fawcett,,Alberta,CA,54.5394,-114.096,ardac
AB256,Federal,,Alberta,CA,52.1117,-111.572,ardac
AB257,Ferintosh,,Alberta,CA,52.7658,-112.972,ardac
AB258,Ferrier Acres,,Alberta,CA,52.3649,-115.061,ardac
AB259,Fincastle,,Alberta,CA,49.8083,-112.002,ardac
AB260,Fitzgerald,,Alberta,CA,59.8617,-111.606,ardac
AB261,Flatbush,,Alberta,CA,54.6892,-114.156,ardac
AB262,Fleet,,Alberta,CA,52.1533,-111.73,ardac
AB263,Fleming Park,,Alberta,CA,53.4432,-113.72,ardac
AB264,Flyingshot Lake,,Alberta,CA,55.1421,-118.863,ardac
AB265,Foremost,,Alberta,CA,49.4764,-111.447,ardac
AB266,Forestburg,,Alberta,CA,52.5839,-112.064,ardac
AB267,Forshee,,Alberta,CA,52.558,-114.145,ardac
AB268,Fort Assiniboine,,Alberta,CA,54.3342,-114.775,ardac
AB269,Fort Chipewyan,,Alberta,CA,58.7144,-111.158,ardac
AB270,Fort Kent,,Alberta,CA,54.3108,-110.604,ardac
AB271,Fort MacKay,,Alberta,CA,57.1869,-111.636,ardac
AB272,Fort Macleod,,Alberta,CA,49.7231,-113.404,ardac
AB273,Fort McMurray,,Alberta,CA,56.7275,-111.387,ardac
AB274,Fort Saskatchewan,,Alberta,CA,53.7002,-113.225,ardac
AB275,Fort Vermilion,,Alberta,CA,58.3893,-116.007,ardac
AB276,Fox Creek,,Alberta,CA,54.4043,-116.81,ardac
AB277,Fox Lake,,Alberta,CA,58.4705,-114.533,ardac
AB278,Frank,,Alberta,CA,49.6027,-114.406,ardac
AB279,Frog Lake,,Alberta,CA,53.8721,-110.391,ardac
AB280,Gadsby,,Alberta,CA,52.2968,-112.356,ardac
AB281,Gainford,,Alberta,CA,53.5847,-114.785,ardac
AB282,Galahad,,Alberta,CA,52.5142,-111.931,ardac
AB283,Garden Creek,,Alberta,CA,58.7047,-113.886,ardac
AB284,Garden Grove Estates,,Alberta,CA,53.4836,-113.947,ardac
AB285,Gem,,Alberta,CA,50.9506,-112.189,ardac
AB286,Ghost Lake,,Alberta,CA,51.2066,-114.764,ardac
AB287,Gibbons,,Alberta,CA,53.8297,-113.328,ardac
AB288,Gift Lake,,Alberta,CA,55.8825,-115.813,ardac
AB289,Girouxville,,Alberta,CA,55.7536,-117.339,ardac
AB290,Gleichen,,Alberta,CA,50.8661,-113.055,ardac
AB291,Glen Leslie,,Alberta,CA,55.1994,-118.487,ardac
AB292,Glendon,,Alberta,CA,54.2525,-111.16,ardac
AB293,Glenevis,,Alberta,CA,53.7897,-114.517,ardac
AB294,Glenwood,,Alberta,CA,49.3659,-113.515,ardac
AB295,Glory Hills,,Alberta,CA,53.6828,-113.971,ardac
AB296,Golden Days,,Alberta,CA,53.0514,-114.053,ardac
AB297,Goodfish Lake,,Alberta,CA,54.2975,-111.806,ardac
AB298,Gordondale,,Alberta,CA,55.84,-119.54,ardac
AB299,Grande Cache,,Alberta,CA,53.8881,-119.119,ardac
AB300,Grande Prairie,,Alberta,CA,55.1708,-118.796,ardac
AB301,Grandview,,Alberta,CA,52.9879,-114.066,ardac
AB302,Grantham,,Alberta,CA,50.0687,-112.009,ardac
AB303,Granum,,Alberta,CA,49.8711,-113.508,ardac
AB304,Grassland,,Alberta,CA,54.82,-112.687,ardac
AB305,Grassy Lake,,Alberta,CA,49.8253,-111.698,ardac
AB306,Green Acre Estates,,Alberta,CA,53.4979,-113.941,ardac
AB307,Green Court,,Alberta,CA,54.0078,-115.239,ardac
AB308,Gregoire Lake Estates,,Alberta,CA,56.4669,-111.194,ardac
AB309,Grimshaw,,Alberta,CA,56.1886,-117.606,ardac
AB310,Grouard,,Alberta,CA,55.5203,-116.161,ardac
AB311,Grouard Mission,,Alberta,CA,55.5422,-116.154,ardac
AB312,Grovedale,,Alberta,CA,55.0278,-118.859,ardac
AB313,Gull Lake,,Alberta,CA,52.4622,-113.941,ardac
AB314,Gunn,,Alberta,CA,53.7305,-114.348,ardac
AB315,Guy,,Alberta,CA,55.5489,-117.12,ardac
AB316,Gwynne,,Alberta,CA,52.9867,-113.199,ardac
AB317,Hairy Hill,,Alberta,CA,53.7633,-111.979,ardac
AB318,Half Moon Bay,,Alberta,CA,52.345,-114.172,ardac
AB319,Half Moon Estates,,Alberta,CA,53.4615,-113.084,ardac
AB320,Halkirk,,Alberta,CA,52.2825,-112.154,ardac
AB321,Hanna,,Alberta,CA,51.6458,-111.925,ardac
AB322,Hardisty,,Alberta,CA,52.675,-111.304,ardac
AB323,Hartleyville,,Alberta,CA,49.3644,-113.609,ardac
AB324,Harvie Heights,,Alberta,CA,51.13,-115.376,ardac
AB325,Hawk Hills,,Alberta,CA,57.2555,-117.413,ardac
AB326,Hay Lakes,,Alberta,CA,53.1967,-113.057,ardac
AB327,Hayfield,,Alberta,CA,55.1708,-119.615,ardac
AB328,Haynes,,Alberta,CA,52.3175,-113.392,ardac
AB329,Hays,,Alberta,CA,50.0981,-111.794,ardac
AB330,Hayter,,Alberta,CA,52.3564,-110.108,ardac
AB331,Hazell,,Alberta,CA,49.63,-114.664,ardac
AB332,Heart Lake,,Alberta,CA,54.9832,-111.56,ardac
AB333,Heinsburg,,Alberta,CA,53.7675,-110.522,ardac
AB334,Heisler,,Alberta,CA,52.6711,-112.224,ardac
AB335,Heritage Woods,,Alberta,CA,51.0555,-114.241,ardac
AB336,Herronton,,Alberta,CA,50.6247,-113.439,ardac
AB337,Hesketh,,Alberta,CA,51.4703,-112.975,ardac
AB338,Hewitt Estates,,Alberta,CA,53.8073,-113.397,ardac
AB339,High Level,,Alberta,CA,58.516,-117.138,ardac
AB340,High Point Estates,,Alberta,CA,51.0309,-113.781,ardac
AB341,High Prairie,,Alberta,CA,55.4347,-116.488,ardac
AB342,High River,,Alberta,CA,50.5797,-113.874,ardac
AB343,Hilda,,Alberta,CA,50.4797,-110.033,ardac
AB344,Hill Spring,,Alberta,CA,49.2931,-113.622,ardac
AB345,Hillcrest Mines,,Alberta,CA,49.5689,-114.377,ardac
AB346,Hilliard,,Alberta,CA,53.64,-112.482,ardac
AB347,Hines Creek,,Alberta,CA,56.2486,-118.603,ardac
AB348,Hinton,,Alberta,CA,53.4,-117.572,ardac
AB349,Hobbema,,Alberta,CA,52.8194,-113.461,ardac
AB350,Holden,,Alberta,CA,53.2333,-112.234,ardac
AB351,Hondo,,Alberta,CA,55.0716,-114.039,ardac
AB352,Horse Lake,,Alberta,CA,54.8229,-119.352,ardac
AB353,Horseshoe Bay,,Alberta,CA,54.1262,-111.364,ardac
AB354,Hu Haven,,Alberta,CA,53.7709,-113.205,ardac
AB355,Hubbles Lake,,Alberta,CA,53.5593,-114.088,ardac
AB356,Hughenden,,Alberta,CA,52.5106,-110.967,ardac
AB357,Hussar,,Alberta,CA,51.0414,-112.682,ardac
AB358,Huxley,,Alberta,CA,51.9243,-113.23,ardac
AB359,Hylo,,Alberta,CA,54.6775,-112.211,ardac
AB360,Hythe,,Alberta,CA,55.33,-119.55,ardac
AB361,Iddesleigh,,Alberta,CA,50.7356,-111.303,ardac
AB362,Imperial Mills,,Alberta,CA,55.0001,-111.731,ardac
AB363,Indian Cabins,,Alberta,CA,59.8675,-117.035,ardac
AB364,Indus,,Alberta,CA,50.9158,-113.78,ardac
AB365,Innisfail,,Alberta,CA,52.0242,-113.953,ardac
AB366,Innisfree,,Alberta,CA,53.3825,-111.531,ardac
AB367,Irma,,Alberta,CA,52.9119,-111.228,ardac
AB368,Iron Springs,,Alberta,CA,49.93,-112.688,ardac
AB369,Irricana,,Alberta,CA,51.3236,-113.608,ardac
AB370,Irvine,,Alberta,CA,49.9553,-110.277,ardac
AB371,Island Lake,,Alberta,CA,54.8415,-113.558,ardac
AB372,Islay,,Alberta,CA,53.3939,-110.539,ardac
AB373,Itaska Beach,,Alberta,CA,53.0722,-114.08,ardac
AB374,Jarrow,,Alberta,CA,52.9408,-111.395,ardac
AB375,Jarvie,,Alberta,CA,54.4547,-113.987,ardac
AB376,Jarvis Bay,,Alberta,CA,52.3352,-114.08,ardac
AB377,Jasper,,Alberta,CA,52.8711,-118.093,ardac
AB378,Jean Côté,,Alberta,CA,55.8981,-117.311,ardac
AB379,Jenner,,Alberta,CA,50.7467,-111.184,ardac
AB380,Joffre,,Alberta,CA,52.3371,-113.537,ardac
AB381,John D'Or Prairie,,Alberta,CA,58.4938,-115.144,ardac
AB382,Johnson's Addition,,Alberta,CA,49.7827,-112.177,ardac
AB383,Josephburg,,Alberta,CA,53.7133,-113.07,ardac
AB384,Joussard,,Alberta,CA,55.3952,-115.951,ardac
AB385,Judson,,Alberta,CA,49.5222,-112.346,ardac
AB386,Kapasiwin,,Alberta,CA,53.5442,-114.445,ardac
AB387,Kapawe'no,,Alberta,CA,55.5475,-116.152,ardac
AB388,Kathyrn,,Alberta,CA,51.2183,-113.708,ardac
AB389,Kavanagh,,Alberta,CA,53.1822,-113.517,ardac
AB390,Keg River,,Alberta,CA,57.746,-117.61,ardac
AB391,Kehewin,,Alberta,CA,54.1104,-110.882,ardac
AB392,Kelsey,,Alberta,CA,52.8458,-112.549,ardac
AB393,Keoma,,Alberta,CA,51.2169,-113.649,ardac
AB394,Kew,,Alberta,CA,50.7329,-114.417,ardac
AB395,Kikino,,Alberta,CA,54.4442,-112.094,ardac
AB396,Killam,,Alberta,CA,52.7897,-111.855,ardac
AB397,Kingman,,Alberta,CA,53.2133,-112.749,ardac
AB398,Kinsella,,Alberta,CA,53.0016,-111.524,ardac
AB399,Kinuso,,Alberta,CA,55.3319,-115.435,ardac
AB400,Kirkcaldy,,Alberta,CA,50.335,-113.238,ardac
AB401,Kitscoty,,Alberta,CA,53.3419,-110.333,ardac
AB402,La Crete,,Alberta,CA,58.1878,-116.417,ardac
AB403,La Glace,,Alberta,CA,55.4028,-119.154,ardac
AB404,Lac des Arcs,,Alberta,CA,51.0501,-115.157,ardac
AB405,Lac La Biche,,Alberta,CA,54.7686,-111.978,ardac
AB406,Lacombe,,Alberta,CA,52.4644,-113.734,ardac
AB407,Lake Louise,,Alberta,CA,51.4253,-116.181,ardac
AB408,Lakeview,,Alberta,CA,53.5597,-114.457,ardac
AB409,Lamont,,Alberta,CA,53.7625,-112.778,ardac
AB410,Lancaster Park,,Alberta,CA,53.6728,-113.491,ardac
AB411,Langdon,,Alberta,CA,50.9737,-113.67,ardac
AB412,Larkspur,,Alberta,CA,54.4387,-113.768,ardac
AB413,Lavoy,,Alberta,CA,53.4587,-111.863,ardac
AB414,Lawsonburg,,Alberta,CA,51.4836,-112.159,ardac
AB415,Leahurst,,Alberta,CA,52.3763,-112.644,ardac
AB416,Leavitt,,Alberta,CA,49.1709,-113.453,ardac
AB417,Leduc,,Alberta,CA,53.2667,-113.546,ardac
AB418,Leedale,,Alberta,CA,52.5819,-114.47,ardac
AB419,Legal,,Alberta,CA,53.9495,-113.595,ardac
AB420,Legend,,Alberta,CA,49.4844,-111.61,ardac
AB421,Les Trailer Park,,Alberta,CA,52.2786,-113.867,ardac
AB422,Leslieville,,Alberta,CA,52.3833,-114.605,ardac
AB423,Lethbridge,,Alberta,CA,49.6928,-112.835,ardac
AB424,Lindbergh,,Alberta,CA,53.8875,-110.673,ardac
AB425,Linden,,Alberta,CA,51.5906,-113.488,ardac
AB426,Linn Valley,,Alberta,CA,52.3214,-113.873,ardac
AB427,Little Buffalo,,Alberta,CA,56.4375,-116.108,ardac
AB428,Lloydminster,,Alberta,CA,53.279,-110.019,ardac
AB429,Lodgepole,,Alberta,CA,53.1006,-115.314,ardac
AB430,Lomond,,Alberta,CA,50.3494,-112.641,ardac
AB431,Lone Pine,,Alberta,CA,54.3058,-115.115,ardac
AB432,Long Lake,,Alberta,CA,54.4517,-112.775,ardac
AB433,Longview,,Alberta,CA,50.5308,-114.231,ardac
AB434,Loon Lake,,Alberta,CA,56.5389,-115.394,ardac
AB435,Lougheed,,Alberta,CA,52.7444,-111.543,ardac
AB436,Louis Bull,,Alberta,CA,52.8887,-113.541,ardac
AB437,Lousana,,Alberta,CA,52.1128,-113.19,ardac
AB438,Loyalist,,Alberta,CA,51.9858,-110.954,ardac
AB439,Lundbreck,,Alberta,CA,49.5845,-114.164,ardac
AB440,Lyalta,,Alberta,CA,51.1145,-113.602,ardac
AB441,Ma-Me-O Beach,,Alberta,CA,52.9735,-113.96,ardac
AB442,Magrath,,Alberta,CA,49.417,-112.865,ardac
AB443,Makepeace,,Alberta,CA,50.9394,-112.616,ardac
AB444,Mallaig,,Alberta,CA,54.2103,-111.361,ardac
AB445,Manning,,Alberta,CA,56.92,-117.629,ardac
AB446,Mannville,,Alberta,CA,53.3403,-111.178,ardac
AB447,Manyberries,,Alberta,CA,49.4006,-110.695,ardac
AB448,Markerville,,Alberta,CA,52.1236,-114.171,ardac
AB449,Marlboro,,Alberta,CA,53.5556,-116.796,ardac
AB450,Martins Trailer Court,,Alberta,CA,52.3597,-115.028,ardac
AB451,Marwayne,,Alberta,CA,53.5175,-110.33,ardac
AB452,Mayerthorpe,,Alberta,CA,53.9547,-115.138,ardac
AB453,McDermott,,Alberta,CA,49.7309,-112.948,ardac
AB454,McLaughlin,,Alberta,CA,52.9897,-110.165,ardac
AB455,McLennan,,Alberta,CA,55.7062,-116.906,ardac
AB456,McLeod Valley,,Alberta,CA,53.7206,-115.971,ardac
AB457,McNab,,Alberta,CA,49.3494,-112.29,ardac
AB458,Meander River,,Alberta,CA,59.0434,-117.714,ardac
AB459,Meanook,,Alberta,CA,54.5766,-113.319,ardac
AB460,Medicine Hat,,Alberta,CA,50.0408,-110.677,ardac
AB461,Medley,,Alberta,CA,54.4191,-110.268,ardac
AB462,Meeting Creek,,Alberta,CA,52.6819,-112.732,ardac
AB463,Meso West,,Alberta,CA,53.5915,-114.308,ardac
AB464,Metiskow,,Alberta,CA,52.4086,-110.633,ardac
AB465,Mewatha Beach,,Alberta,CA,54.6065,-112.741,ardac
AB466,Michichi,,Alberta,CA,51.5853,-112.534,ardac
AB467,Mikisew,,Alberta,CA,58.7678,-111.046,ardac
AB468,Milk River,,Alberta,CA,49.1554,-112.083,ardac
AB469,Millarville,,Alberta,CA,50.7564,-114.325,ardac
AB470,Millet,,Alberta,CA,53.0923,-113.473,ardac
AB471,Millicent,,Alberta,CA,50.7103,-111.779,ardac
AB472,Milo,,Alberta,CA,50.57,-112.882,ardac
AB473,Minburn,,Alberta,CA,53.3156,-111.364,ardac
AB474,Mirror,,Alberta,CA,52.4656,-113.11,ardac
AB475,Monarch,,Alberta,CA,49.8044,-113.108,ardac
AB476,Monitor,,Alberta,CA,51.9783,-110.569,ardac
AB477,Montana,,Alberta,CA,52.7271,-113.424,ardac
AB478,Moon River Estates,,Alberta,CA,49.7286,-113.149,ardac
AB479,Moose Portage,,Alberta,CA,55.2292,-113.883,ardac
AB480,Morinville,,Alberta,CA,53.8028,-113.644,ardac
AB481,Morley,,Alberta,CA,51.1672,-114.852,ardac
AB482,Morningside,,Alberta,CA,52.5778,-113.634,ardac
AB483,Morrin,,Alberta,CA,51.6603,-112.767,ardac
AB484,Mossleigh,,Alberta,CA,50.7203,-113.324,ardac
AB485,Mountain View,,Alberta,CA,49.1344,-113.596,ardac
AB486,Mulhurst,,Alberta,CA,53.0493,-113.981,ardac
AB487,Mundare,,Alberta,CA,53.5939,-112.342,ardac
AB488,Munson,,Alberta,CA,51.5633,-112.738,ardac
AB489,Musidora,,Alberta,CA,53.6897,-111.584,ardac
AB490,Myrnam,,Alberta,CA,53.6617,-111.23,ardac
AB491,Nacmine,,Alberta,CA,51.47,-112.784,ardac
AB492,Nakamun Park,,Alberta,CA,53.8776,-114.214,ardac
AB493,Namaka,,Alberta,CA,50.9583,-113.287,ardac
AB494,Namao,,Alberta,CA,53.7671,-113.474,ardac
AB495,Nampa,,Alberta,CA,56.0381,-117.13,ardac
AB496,Nanton,,Alberta,CA,50.346,-113.777,ardac
AB497,Neerlandia,,Alberta,CA,54.3192,-114.377,ardac
AB498,Nevis,,Alberta,CA,52.3303,-113.031,ardac
AB499,New Brigden,,Alberta,CA,51.7006,-110.49,ardac
AB500,New Dayton,,Alberta,CA,49.4256,-112.381,ardac
AB501,New Norway,,Alberta,CA,52.8689,-112.951,ardac
AB502,New Sarepta,,Alberta,CA,53.2742,-113.146,ardac
AB503,Newbrook,,Alberta,CA,54.326,-112.949,ardac
AB504,Nightingale,,Alberta,CA,51.1603,-113.333,ardac
AB505,Niton Junction,,Alberta,CA,53.6219,-115.77,ardac
AB506,Nobleford,,Alberta,CA,49.8803,-113.054,ardac
AB507,Norglenwold,,Alberta,CA,52.3245,-114.132,ardac
AB508,Norris Beach,,Alberta,CA,52.9666,-114.023,ardac
AB509,North Star,,Alberta,CA,56.8564,-117.615,ardac
AB510,Notikewin,,Alberta,CA,56.9747,-117.625,ardac
AB511,O'Chiese,,Alberta,CA,52.6839,-115.256,ardac
AB512,Obed,,Alberta,CA,53.5583,-117.215,ardac
AB513,Ohaton,,Alberta,CA,52.97,-112.661,ardac
AB514,Okotoks,,Alberta,CA,50.7261,-113.977,ardac
AB515,Olds,,Alberta,CA,51.7919,-114.107,ardac
AB516,Onoway,,Alberta,CA,53.7025,-114.192,ardac
AB517,Orton,,Alberta,CA,49.732,-113.264,ardac
AB518,Osborne Acres,,Alberta,CA,53.558,-113.8,ardac
AB519,Oyen,,Alberta,CA,51.3528,-110.483,ardac
AB520,Paddle Prairie,,Alberta,CA,57.9511,-117.472,ardac
AB521,Panorama Heights,,Alberta,CA,53.6318,-113.942,ardac
AB522,Paradise Valley,,Alberta,CA,53.0328,-110.296,ardac
AB523,Parkland,,Alberta,CA,50.2561,-113.659,ardac
AB524,Parkland Beach,,Alberta,CA,52.6072,-114.065,ardac
AB525,Patricia,,Alberta,CA,50.6994,-111.677,ardac
AB526,Peace River,,Alberta,CA,56.2389,-117.292,ardac
AB527,Peavine Metis Settlement,,Alberta,CA,55.7845,-116.297,ardac
AB528,Peerless Lake,,Alberta,CA,56.6804,-114.581,ardac
AB529,Peers,,Alberta,CA,53.6658,-115.993,ardac
AB530,Pelican Narrows,,Alberta,CA,54.2629,-110.89,ardac
AB531,Pemukan,,Alberta,CA,51.9719,-110.444,ardac
AB532,Penhold,,Alberta,CA,52.1369,-113.873,ardac
AB533,Perryvale,,Alberta,CA,54.4678,-113.387,ardac
AB534,Peterburn Estates,,Alberta,CA,53.4952,-113.966,ardac
AB535,Pibroch,,Alberta,CA,54.2544,-113.875,ardac
AB536,Pickardville,,Alberta,CA,54.0519,-113.881,ardac
AB537,Picture Butte,,Alberta,CA,49.8769,-112.78,ardac
AB538,Pincher,,Alberta,CA,49.5248,-113.947,ardac
AB539,Pincher Creek,,Alberta,CA,49.4853,-113.947,ardac
AB540,Pine Lake,,Alberta,CA,52.1103,-113.482,ardac
AB541,Pine Shadows,,Alberta,CA,53.6031,-116.305,ardac
AB542,Pipestone,,Alberta,CA,53.0536,-113.795,ardac
AB543,Plamondon,,Alberta,CA,54.8497,-112.342,ardac
AB544,Point Alison,,Alberta,CA,53.5503,-114.486,ardac
AB545,Pollockville,,Alberta,CA,51.1061,-111.59,ardac
AB546,Ponoka,,Alberta,CA,52.675,-113.58,ardac
AB547,Poplar Bay,,Alberta,CA,53.0078,-114.121,ardac
AB548,Poplar Ridge,,Alberta,CA,52.2994,-113.937,ardac
AB549,Prairie Lodge Trailer Court,,Alberta,CA,53.5145,-112.052,ardac
AB550,Priddis,,Alberta,CA,50.8861,-114.329,ardac
AB551,Provost,,Alberta,CA,52.3533,-110.265,ardac
AB552,Purple Springs,,Alberta,CA,49.8156,-111.892,ardac
AB553,Queenstown,,Alberta,CA,50.6394,-112.939,ardac
AB554,Radway,,Alberta,CA,54.06,-112.945,ardac
AB555,Rainbow Lake,,Alberta,CA,58.5044,-119.4,ardac
AB556,Rainier,,Alberta,CA,50.3683,-112.092,ardac
AB557,Ralston,,Alberta,CA,50.2458,-111.169,ardac
AB558,Ranfurly,,Alberta,CA,53.4072,-111.68,ardac
AB559,Raymond,,Alberta,CA,49.465,-112.661,ardac
AB560,Red Deer,,Alberta,CA,52.2686,-113.81,ardac
AB561,Red Earth Creek,,Alberta,CA,56.5363,-115.298,ardac
AB562,Red Willow,,Alberta,CA,52.4504,-112.573,ardac
AB563,Redcliff,,Alberta,CA,50.0775,-110.786,ardac
AB564,Redland,,Alberta,CA,51.2897,-113.008,ardac
AB565,Redwater,,Alberta,CA,53.9508,-113.107,ardac
AB566,Reno,,Alberta,CA,55.9943,-117.0,ardac
AB567,Rich Lake,,Alberta,CA,54.5078,-111.619,ardac
AB568,Rich Valley,,Alberta,CA,53.8483,-114.35,ardac
AB569,Richdale,,Alberta,CA,51.6103,-111.604,ardac
AB570,Rimbey,,Alberta,CA,52.6392,-114.237,ardac
AB571,Riverview,,Alberta,CA,53.8619,-110.642,ardac
AB572,Riverview Pines,,Alberta,CA,55.0875,-118.946,ardac
AB573,Robb,,Alberta,CA,53.2333,-116.979,ardac
AB574,Rochester,,Alberta,CA,54.3725,-113.461,ardac
AB575,Rochfort Bridge,,Alberta,CA,53.9136,-115.036,ardac
AB576,Rochon Sands,,Alberta,CA,52.454,-112.882,ardac
AB577,Rocky Lane,,Alberta,CA,58.4588,-116.259,ardac
AB578,Rocky Mountain House,,Alberta,CA,52.3793,-114.919,ardac
AB579,Rocky Rapids,,Alberta,CA,53.2797,-114.952,ardac
AB580,Rockyford,,Alberta,CA,51.2342,-113.142,ardac
AB581,Rolling Heights,,Alberta,CA,53.6383,-113.992,ardac
AB582,Rolling Hills,,Alberta,CA,50.2256,-111.774,ardac
AB583,Rolling Meadows,,Alberta,CA,53.5826,-113.854,ardac
AB584,Rolly View,,Alberta,CA,53.2528,-113.317,ardac
AB585,Rosalind,,Alberta,CA,52.7897,-112.444,ardac
AB586,Rose Lynn,,Alberta,CA,51.4178,-111.677,ardac
AB587,Rosebud,,Alberta,CA,51.2997,-112.951,ardac
AB588,Rosedale,,Alberta,CA,51.4167,-112.633,ardac
AB589,Rosemary,,Alberta,CA,50.7575,-112.09,ardac
AB590,Ross Haven,,Alberta,CA,53.7342,-114.408,ardac
AB591,Rossian,,Alberta,CA,54.9545,-112.371,ardac
AB592,Round Hill,,Alberta,CA,53.1653,-112.631,ardac
AB593,Rowley,,Alberta,CA,51.7622,-112.788,ardac
AB594,Rumsey,,Alberta,CA,51.8419,-112.842,ardac
AB595,Rycroft,,Alberta,CA,55.7558,-118.709,ardac
AB596,Ryley,,Alberta,CA,53.2908,-112.43,ardac
AB597,Saddle Lake,,Alberta,CA,53.9559,-111.701,ardac
AB598,Samson Peak,,Alberta,CA,52.6806,-117.5273,ardac
AB599,Sandy Beach,,Alberta,CA,53.8084,-114.039,ardac
AB600,Sandy Lake,,Alberta,CA,55.8144,-113.416,ardac
AB601,Sangudo,,Alberta,CA,53.8879,-114.895,ardac
AB602,Saprae Creek,,Alberta,CA,56.6592,-111.143,ardac
AB603,Saskatchewan River Crossing,,Alberta,CA,51.9758,-116.743,ardac
AB605,Sawridge,,Alberta,CA,55.2901,-114.75,ardac
AB606,Scandia,,Alberta,CA,50.2781,-112.047,ardac
AB607,Schuler,,Alberta,CA,50.3407,-110.089,ardac
AB608,Scollard,,Alberta,CA,51.9375,-112.834,ardac
AB609,Seba Beach,,Alberta,CA,53.5593,-114.734,ardac
AB610,Sedalia,,Alberta,CA,51.675,-110.665,ardac
AB611,Sedgewick,,Alberta,CA,52.7747,-111.693,ardac
AB612,Seven Persons,,Alberta,CA,49.8761,-110.908,ardac
AB613,Sexsmith,,Alberta,CA,55.3503,-118.782,ardac
AB614,Shaughnessy,,Alberta,CA,49.8528,-112.842,ardac
AB615,Shepard,,Alberta,CA,50.953,-113.908,ardac
AB616,Sherwood Park,,Alberta,CA,53.5339,-113.29,ardac
AB617,Shouldice,,Alberta,CA,50.7167,-112.974,ardac
AB618,Sibbald,,Alberta,CA,51.3883,-110.15,ardac
AB619,Siksika,,Alberta,CA,50.7924,-112.855,ardac
AB620,Silver Beach,,Alberta,CA,53.0368,-113.994,ardac
AB621,Silver Sands,,Alberta,CA,53.6369,-114.657,ardac
AB622,Skiff,,Alberta,CA,49.5025,-111.791,ardac
AB623,Slave Lake,,Alberta,CA,55.2822,-114.77,ardac
AB624,Smith,,Alberta,CA,55.162,-114.041,ardac
AB625,Smoky Lake,,Alberta,CA,54.1167,-112.467,ardac
AB626,South Baptiste,,Alberta,CA,54.7219,-113.573,ardac
AB627,South View,,Alberta,CA,53.6468,-114.663,ardac
AB628,Spedden,,Alberta,CA,54.1386,-111.726,ardac
AB629,Spirit River,,Alberta,CA,55.7786,-118.837,ardac
AB630,Spring Coulee,,Alberta,CA,49.3331,-113.053,ardac
AB631,Spring Lake,,Alberta,CA,53.5186,-114.133,ardac
AB632,Springbrook,,Alberta,CA,52.1767,-113.872,ardac
AB633,Spruce Grove,,Alberta,CA,53.5539,-113.902,ardac
AB634,Spruce Lane Acres,,Alberta,CA,52.3503,-113.813,ardac
AB635,Spruce View,,Alberta,CA,52.0856,-114.31,ardac
AB636,Sputinow,,Alberta,CA,53.9219,-110.268,ardac
AB637,St. Albert,,Alberta,CA,53.6369,-113.62,ardac
AB638,St. Isidore,,Alberta,CA,56.204,-117.107,ardac
AB639,St. Lina,,Alberta,CA,54.2961,-111.454,ardac
AB640,St. Michael,,Alberta,CA,53.8303,-112.636,ardac
AB641,St. Paul,St-Paul-de-Métis,Alberta,CA,53.9913,-111.3269,ardac
AB643,Stand Off,,Alberta,CA,49.4569,-113.303,ardac
AB644,Standard,,Alberta,CA,51.1097,-112.984,ardac
AB645,Stavely,,Alberta,CA,50.1611,-113.642,ardac
AB646,Steen River,,Alberta,CA,59.6275,-117.167,ardac
AB647,Stettler,,Alberta,CA,52.3239,-112.704,ardac
AB648,Stirling,,Alberta,CA,49.5032,-112.527,ardac
AB649,Stonelaw,,Alberta,CA,51.8686,-112.481,ardac
AB650,Stony Plain,,Alberta,CA,53.5264,-114.007,ardac
AB651,Strathmore,,Alberta,CA,51.0456,-113.393,ardac
AB652,Strome,,Alberta,CA,52.8108,-112.067,ardac
AB654,Sturgeon Lake,,Alberta,CA,55.0695,-117.489,ardac
AB655,Suffield,,Alberta,CA,50.2183,-111.161,ardac
AB656,Sunbreaker Cove,,Alberta,CA,52.3875,-114.187,ardac
AB657,Sunchild,,Alberta,CA,52.6935,-115.33,ardac
AB658,Sundance Beach,,Alberta,CA,53.0809,-114.121,ardac
AB659,Sundre,,Alberta,CA,51.7983,-114.64,ardac
AB660,Sunnybrook,,Alberta,CA,53.193,-114.2,ardac
AB661,Sunnyslope,,Alberta,CA,51.649,-113.558,ardac
AB662,Sunrise Beach,,Alberta,CA,53.7838,-114.055,ardac
AB663,Sunset Beach,,Alberta,CA,54.7415,-113.541,ardac
AB664,Sunset House,,Alberta,CA,55.112,-116.899,ardac
AB665,Sunset Point,,Alberta,CA,53.6888,-114.353,ardac
AB666,Sunset View Acres,,Alberta,CA,53.4502,-113.744,ardac
AB667,Swalwell,,Alberta,CA,51.5572,-113.318,ardac
AB668,Swan City Trailer Court,,Alberta,CA,55.1694,-118.754,ardac
AB669,Swan Hills,,Alberta,CA,54.7167,-115.402,ardac
AB670,Swan River,,Alberta,CA,55.3402,-115.451,ardac
AB672,Sylvan Lake,,Alberta,CA,52.3057,-114.096,ardac
AB673,T & E Trailer Park,,Alberta,CA,55.1766,-118.751,ardac
AB674,Taber,,Alberta,CA,49.7848,-112.151,ardac
AB675,Tallcree,,Alberta,CA,57.9119,-115.356,ardac
AB676,Tawatinaw,,Alberta,CA,54.2979,-113.477,ardac
AB677,Tees,,Alberta,CA,52.4675,-113.321,ardac
AB678,Therien,,Alberta,CA,54.2389,-111.255,ardac
AB679,Thorhild,,Alberta,CA,54.1589,-113.125,ardac
AB680,Thorsby,,Alberta,CA,53.2269,-114.048,ardac
AB681,Three Hills,,Alberta,CA,51.7031,-113.269,ardac
AB682,Throne,,Alberta,CA,52.0534,-111.288,ardac
AB683,Tilley,,Alberta,CA,50.4522,-111.653,ardac
AB684,Tofield,,Alberta,CA,53.3708,-112.666,ardac
AB685,Tomahawk,,Alberta,CA,53.3979,-114.763,ardac
AB686,Torrington,,Alberta,CA,51.7914,-113.606,ardac
AB687,Travers,,Alberta,CA,50.2481,-112.555,ardac
AB688,Triple-L-Trailer Court,,Alberta,CA,55.1687,-118.65,ardac
AB689,Trochu,,Alberta,CA,51.8286,-113.228,ardac
AB690,Trout Lake,,Alberta,CA,56.4958,-114.558,ardac
AB691,Tsuu T'ina,,Alberta,CA,50.9515,-114.166,ardac
AB692,Tulliby Lake,,Alberta,CA,53.7139,-110.177,ardac
AB693,Turin,,Alberta,CA,49.9641,-112.528,ardac
AB694,Turner Valley,,Alberta,CA,50.6753,-114.28,ardac
AB695,Tuttle,,Alberta,CA,52.2012,-113.843,ardac
AB696,Twining,,Alberta,CA,51.6328,-113.297,ardac
AB697,Two Hills,,Alberta,CA,53.7111,-111.745,ardac
AB698,Upper and Lower Viscount Estates,,Alberta,CA,53.6748,-113.561,ardac
AB699,Upper Manor Estates,,Alberta,CA,53.6874,-113.575,ardac
AB700,Val Quentin,,Alberta,CA,53.664,-114.385,ardac
AB701,Valhalla Centre,,Alberta,CA,55.4036,-119.382,ardac
AB702,Valleyview,,Alberta,CA,55.0659,-117.282,ardac
AB703,Vauxhall,,Alberta,CA,50.0683,-112.107,ardac
AB705,Vegreville,,Alberta,CA,53.4956,-112.052,ardac
AB706,Venice,,Alberta,CA,54.6978,-112.148,ardac
AB707,Vermilion,,Alberta,CA,53.3547,-110.853,ardac
AB708,Veteran,,Alberta,CA,52.0011,-111.119,ardac
AB709,Viking,,Alberta,CA,53.0947,-111.776,ardac
AB710,Villeneuve,,Alberta,CA,53.66,-113.811,ardac
AB711,Vilna,,Alberta,CA,54.1167,-111.921,ardac
AB712,Vimy,,Alberta,CA,54.0621,-113.647,ardac
AB713,Violet Grove,,Alberta,CA,53.1597,-115.037,ardac
AB714,Vulcan,,Alberta,CA,50.4042,-113.261,ardac
AB715,Wabamun,,Alberta,CA,53.5609,-114.472,ardac
AB716,Wabasca-Desmarais,,Alberta,CA,55.9792,-113.843,ardac
AB717,Wainwright,,Alberta,CA,52.8382,-110.853,ardac
AB718,Waiparous,,Alberta,CA,51.2828,-114.835,ardac
AB719,Walsh,,Alberta,CA,49.9472,-110.042,ardac
AB720,Wandering River,,Alberta,CA,55.1956,-112.475,ardac
AB721,Wanham,,Alberta,CA,55.7375,-118.385,ardac
AB722,Warburg,,Alberta,CA,53.1817,-114.32,ardac
AB723,Warden,,Alberta,CA,52.2592,-112.742,ardac
AB724,Wardlow,,Alberta,CA,50.9053,-111.546,ardac
AB725,Warner,,Alberta,CA,49.2828,-112.208,ardac
AB726,Warspite,,Alberta,CA,54.0911,-112.614,ardac
AB727,Warwick,,Alberta,CA,53.6272,-112.052,ardac
AB728,Waskatenau,,Alberta,CA,54.0939,-112.784,ardac
AB729,Water Valley,,Alberta,CA,51.5061,-114.611,ardac
AB730,Waterton Park,,Alberta,CA,49.0517,-113.914,ardac
AB731,Watino,,Alberta,CA,55.7126,-117.624,ardac
AB732,Wayne,,Alberta,CA,51.3815,-112.658,ardac
AB733,Webster,,Alberta,CA,55.4419,-118.688,ardac
AB734,Welling,,Alberta,CA,49.4811,-112.786,ardac
AB735,Wembley,,Alberta,CA,55.1556,-119.146,ardac
AB736,West Baptiste,,Alberta,CA,54.7622,-113.574,ardac
AB737,West Cove,,Alberta,CA,53.6983,-114.504,ardac
AB738,Westbrooke Crescents,,Alberta,CA,53.5926,-113.971,ardac
AB739,Westlake Estates,,Alberta,CA,53.5283,-114.079,ardac
AB740,Westlock,,Alberta,CA,54.1553,-113.857,ardac
AB741,Wetaskiwin,,Alberta,CA,52.9692,-113.377,ardac
AB742,Whispering Hills,,Alberta,CA,54.7584,-113.552,ardac
AB743,Whitburn,,Alberta,CA,55.8689,-119.202,ardac
AB744,White Sands,,Alberta,CA,52.4667,-112.817,ardac
AB745,Whitecourt,,Alberta,CA,54.1411,-115.684,ardac
AB746,Whitefish Lake,,Alberta,CA,55.9331,-115.369,ardac
AB747,Whitelaw,,Alberta,CA,56.1089,-118.076,ardac
AB748,Whitla,,Alberta,CA,49.8822,-111.057,ardac
AB749,Widewater,,Alberta,CA,55.3604,-115.037,ardac
AB750,Wildwood,,Alberta,CA,53.6105,-115.247,ardac
AB751,Willingdon,,Alberta,CA,53.8286,-112.118,ardac
AB752,Wimborne,,Alberta,CA,51.8664,-113.593,ardac
AB753,Winfield,,Alberta,CA,52.9653,-114.423,ardac
AB754,Winnifred,,Alberta,CA,49.9067,-111.21,ardac
AB755,Woking,,Alberta,CA,55.5925,-118.775,ardac
AB756,Woodbend Crescent,,Alberta,CA,53.4287,-113.731,ardac
AB757,Woodland,,Alberta,CA,56.4863,-116.058,ardac
AB758,Woodland Hills,,Alberta,CA,52.227,-113.831,ardac
AB759,Woodland Park,,Alberta,CA,53.4323,-113.795,ardac
AB760,Worsley,,Alberta,CA,56.5067,-119.134,ardac
AB761,Wrentham,,Alberta,CA,49.5144,-112.173,ardac
AB762,Yellowstone,,Alberta,CA,53.7296,-114.382,ardac
AB763,Youngstown,,Alberta,CA,51.5278,-111.2,ardac
AB764,Zama City,,Alberta,CA,59.1537,-118.687,ardac
