id,name,alt_name,region,country,latitude,longitude,tags,km_distance_to_ocean,is_coastal
NL1,Abrahams Cove,,Newfoundland and Labrador,CA,48.5255556,-58.9161111,ardac,1.9,True
NL2,Adams Cove,,Newfoundland and Labrador,CA,47.8622222,-53.0927778,ardac,1.9,True
NL3,Adeytown,,Newfoundland and Labrador,CA,48.0741666,-53.9319444,ardac,2.3,True
NL4,Adlatovusek,,Newfoundland and Labrador,CA,55.25,-60.499167,ardac,0.7,True
NL5,Admiral's Cove,,Newfoundland and Labrador,CA,47.0966667,-52.9075,ardac,1.0,True
NL6,Admirals Beach,,Newfoundland and Labrador,CA,47.0171497,-53.5989861,ardac,2.1,True
NL7,Aguathuna,,Newfoundland and Labrador,CA,48.5613889,-58.7697223,ardac,0.5,True
NL8,Aillik,,Newfoundland and Labrador,CA,55.2127512,-59.2071047,ardac,0.5,True
NL9,Alderburn,,Newfoundland and Labrador,CA,49.1111112,-55.25,ardac,1.1,True
NL10,Alexander Bay,,Newfoundland and Labrador,CA,48.6794445,-54.1161111,ardac,9.7,True
NL11,Allan's Island,,Newfoundland and Labrador,CA,46.8533333,-55.8027778,ardac,2.4,True
NL12,Amherst Cove,,Newfoundland and Labrador,CA,48.5752778,-53.2075,ardac,1.1,True
NL13,Anchor Point,,Newfoundland and Labrador,CA,51.2389361,-56.7885527,ardac,0.5,True
NL14,Anderson's Cove,,Newfoundland and Labrador,CA,47.6052778,-55.1127778,ardac,1.4,True
NL15,Angels Cove,,Newfoundland and Labrador,CA,47.0027778,-54.1361111,ardac,1.1,True
NL16,Appleton,,Newfoundland and Labrador,CA,48.9817361,-54.8572361,ardac,28.6,True
NL17,Aquaforte,,Newfoundland and Labrador,CA,47.0080555,-52.9563889,ardac,4.9,True
NL18,Argentia,,Newfoundland and Labrador,CA,47.2980555,-53.9855556,ardac,1.1,True
NL19,Arnold's Cove,,Newfoundland and Labrador,CA,47.7689194,-53.9917694,ardac,0.7,True
NL20,Arnolds Cove Station,,Newfoundland and Labrador,CA,47.7838889,-53.9683333,ardac,2.2,True
NL21,Ashuanipi,,Newfoundland and Labrador,CA,52.7666667,-66.0827778,ardac,272.8,False
NL22,Aspen,,Newfoundland and Labrador,CA,48.1591667,-53.7533333,ardac,1.5,True
NL23,Aspey Brook,,Newfoundland and Labrador,CA,48.1619444,-53.8438889,ardac,1.1,True
NL24,Astray,,Newfoundland and Labrador,CA,54.600098,-66.699272,ardac,341.0,False
NL25,Avondale,,Newfoundland and Labrador,CA,47.3991028,-53.2264333,ardac,4.6,True
NL26,Baccalieu Island,,Newfoundland and Labrador,CA,48.1505555,-52.7963889,ardac,5.1,True
NL27,Back Cove,,Newfoundland and Labrador,CA,49.8497222,-56.5625,ardac,0.4,True
NL28,Back Harbour,,Newfoundland and Labrador,CA,49.6586111,-54.7855556,ardac,6.4,True
NL29,Back Shore,,Newfoundland and Labrador,CA,46.6175,-53.5872222,ardac,1.0,True
NL30,Bacon Cove,,Newfoundland and Labrador,CA,47.4805556,-53.1713889,ardac,1.3,True
NL31,Badger,,Newfoundland and Labrador,CA,48.9788806,-56.0416916,ardac,48.8,True
NL32,Badger's Quay,,Newfoundland and Labrador,CA,49.1238889,-53.5944445,ardac,1.2,True
NL33,Baie Verte,,Newfoundland and Labrador,CA,49.9087083,-56.1946584,ardac,1.8,True
NL34,Baine Harbour,,Newfoundland and Labrador,CA,47.3659444,-54.8972055,ardac,1.3,True
NL35,Baker Cove,,Newfoundland and Labrador,CA,47.5716667,-54.2088889,ardac,1.5,True
NL36,Bakers Brook,,Newfoundland and Labrador,CA,49.6536111,-57.955,ardac,1.1,True
NL37,Bally Haly,,Newfoundland and Labrador,CA,47.59,-52.6961112,ardac,2.4,True
NL38,Ballyhack,,Newfoundland and Labrador,CA,47.4394444,-53.1986111,ardac,0.4,True
NL39,Bar Haven,,Newfoundland and Labrador,CA,47.7105556,-54.2208333,ardac,3.1,True
NL40,Barachois,,Newfoundland and Labrador,CA,46.8616667,-53.5836111,ardac,2.3,True
NL41,Barachoix,,Newfoundland and Labrador,CA,47.6563889,-55.6941667,ardac,0.5,True
NL42,Barasway de Plate,,Newfoundland and Labrador,CA,47.4858333,-55.0697222,ardac,0.8,True
NL43,Bareneed,,Newfoundland and Labrador,CA,47.5763889,-53.2411111,ardac,1.0,True
NL44,Barge Bay,,Newfoundland and Labrador,CA,51.8071901,-56.2107976,ardac,1.1,True
NL45,Barr'd Harbour,,Newfoundland and Labrador,CA,50.8122223,-57.055,ardac,0.6,True
NL46,Barr'd Islands,,Newfoundland and Labrador,CA,49.7216667,-54.1877778,ardac,0.5,True
NL47,Barton,,Newfoundland and Labrador,CA,48.2216667,-53.8988889,ardac,1.7,True
NL48,Batteau,,Newfoundland and Labrador,CA,53.4093877,-55.7794516,ardac,0.6,True
NL49,Battery,,Newfoundland and Labrador,CA,47.0330556,-52.8830556,ardac,1.7,True
NL50,Battle Harbour,,Newfoundland and Labrador,CA,52.2667143,-55.5870035,ardac,5.5,True
NL51,Bauline,,Newfoundland and Labrador,CA,47.7008305,-52.8195695,ardac,4.8,True
NL52,Bauline South,,Newfoundland and Labrador,CA,47.17971,-52.8454697,ardac,0.4,True
NL53,Bay Bulls,,Newfoundland and Labrador,CA,47.3261583,-52.793875,ardac,1.8,True
NL54,Bay L'Argent,,Newfoundland and Labrador,CA,47.542664,-54.886061,ardac,0.9,True
NL55,Bay Roberts,,Newfoundland and Labrador,CA,47.5827278,-53.2932639,ardac,3.1,True
NL56,Bay View,,Newfoundland and Labrador,CA,47.083333,-55.215833,ardac,2.1,True
NL57,Bay de Loup,,Newfoundland and Labrador,CA,47.6616667,-57.5183334,ardac,1.5,True
NL58,Bay de Verde,,Newfoundland and Labrador,CA,48.1011611,-52.8895167,ardac,1.2,True
NL59,Bay de l'Eau,,Newfoundland and Labrador,CA,47.6288889,-54.9205555,ardac,2.3,True
NL60,Bay du Nord,,Newfoundland and Labrador,CA,47.7111111,-55.4130555,ardac,0.3,True
NL61,Bayside,,Newfoundland and Labrador,CA,49.5333333,-56.8636111,ardac,1.7,True
NL62,Baytona,,Newfoundland and Labrador,CA,49.3305861,-54.7841194,ardac,0.6,True
NL63,Bayview,,Newfoundland and Labrador,CA,49.6138889,-54.7436111,ardac,3.3,True
NL64,Beachside,,Newfoundland and Labrador,CA,49.6428889,-55.8991139,ardac,1.2,True
NL65,Beachy Cove,,Newfoundland and Labrador,CA,47.5969445,-53.2525,ardac,0.5,True
NL66,Bear Cove,,Newfoundland and Labrador,CA,49.6005555,-57.9272222,ardac,0.5,True
NL67,Bear Cove,,Newfoundland and Labrador,CA,49.8441667,-56.5661111,ardac,0.4,True
NL68,Beaumont,,Newfoundland and Labrador,CA,49.6127778,-55.6794445,ardac,2.0,True
NL69,Beaumont North,,Newfoundland and Labrador,CA,49.6208334,-55.6897222,ardac,0.9,True
NL70,Beaver,,Newfoundland and Labrador,CA,48.8119444,-58.1611111,ardac,19.8,True
NL71,Beaver Cove,,Newfoundland and Labrador,CA,49.4125,-54.3894444,ardac,1.6,True
NL72,Beaverton,,Newfoundland and Labrador,CA,49.5125,-54.5802777,ardac,1.5,True
NL73,Beckfords,,Newfoundland and Labrador,CA,46.8955555,-53.9116667,ardac,0.4,True
NL74,Belfry,,Newfoundland and Labrador,CA,53.708636,-57.008789,ardac,0.2,True
NL75,Bell Island,,Newfoundland and Labrador,CA,47.6316667,-52.9613889,ardac,1.9,True
NL76,Bell Island Front,,Newfoundland and Labrador,CA,47.6277778,-52.9333333,ardac,1.4,True
NL77,Bellburns,,Newfoundland and Labrador,CA,50.3279667,-57.5284278,ardac,0.3,True
NL78,Belle Isle,,Newfoundland and Labrador,CA,52.0133333,-55.2813889,ardac,1.1,True
NL79,Belleoram,,Newfoundland and Labrador,CA,47.524733,-55.416094,ardac,1.0,True
NL80,Bellmans Cove,,Newfoundland and Labrador,CA,48.555,-58.7583333,ardac,0.9,True
NL81,Benoit's Cove,,Newfoundland and Labrador,CA,49.0102778,-58.1369445,ardac,3.2,True
NL82,Benoits Siding,,Newfoundland and Labrador,CA,47.826959,-59.194173,ardac,10.1,True
NL83,Best's Harbour,,Newfoundland and Labrador,CA,47.575,-54.21,ardac,1.9,True
NL84,Bide Arm,,Newfoundland and Labrador,CA,50.817706,-56.104936,ardac,2.2,True
NL85,Big Brook,,Newfoundland and Labrador,CA,51.519722,-56.148611,ardac,3.1,True
NL86,Big Pond,,Newfoundland and Labrador,CA,47.4111112,-52.7675,ardac,5.3,True
NL87,Birch Hills,,Newfoundland and Labrador,CA,47.5616666,-53.29,ardac,2.3,True
NL88,Birchy Bay,,Newfoundland and Labrador,CA,49.3215389,-54.7361083,ardac,0.5,True
NL89,Birchy Cove,,Newfoundland and Labrador,CA,49.6825,-56.0280555,ardac,1.3,True
NL90,Birchy Head,,Newfoundland and Labrador,CA,49.4511111,-57.9044445,ardac,1.0,True
NL91,Birchy Nap,,Newfoundland and Labrador,CA,47.6536111,-52.7466667,ardac,2.9,True
NL92,Bird Cove,,Newfoundland and Labrador,CA,51.0460695,-56.9334055,ardac,1.0,True
NL93,Biscayan Cove,,Newfoundland and Labrador,CA,47.8022222,-52.7897223,ardac,1.3,True
NL94,Bishop's Cove,,Newfoundland and Labrador,CA,47.6367556,-53.2327389,ardac,0.4,True
NL95,Bishop's Falls,,Newfoundland and Labrador,CA,49.0209528,-55.4898944,ardac,8.3,True
NL96,Bishop's Harbour,,Newfoundland and Labrador,CA,48.6886111,-53.6538889,ardac,0.5,True
NL97,Bishops Beach,,Newfoundland and Labrador,CA,47.6111111,-53.2244445,ardac,0.5,True
NL98,Bishops Falls South,,Newfoundland and Labrador,CA,49.005,-55.4927777,ardac,9.3,True
NL99,Black Duck Brook,,Newfoundland and Labrador,CA,48.7,-58.899167,ardac,0.9,True
NL100,Black Duck Cove,,Newfoundland and Labrador,CA,47.0530555,-55.1802778,ardac,1.0,True
NL101,Black Duck Cove,,Newfoundland and Labrador,CA,49.5963889,-54.7069445,ardac,3.1,True
NL102,Black Duck Cove,,Newfoundland and Labrador,CA,48.22,-53.5033334,ardac,2.5,True
NL103,Black Duck Pond,,Newfoundland and Labrador,CA,47.5727778,-53.2644444,ardac,1.3,True
NL104,Black Duck Siding,,Newfoundland and Labrador,CA,48.5808333,-58.3847223,ardac,6.3,True
NL105,Black Island,,Newfoundland and Labrador,CA,49.534358,-54.970966,ardac,6.7,True
NL106,Black Island,,Newfoundland and Labrador,CA,49.5866666,-54.7116667,ardac,2.5,True
NL107,Black River,,Newfoundland and Labrador,CA,47.8780556,-54.1663889,ardac,0.4,True
NL108,Black Tickle,,Newfoundland and Labrador,CA,53.4616374,-55.7650328,ardac,0.9,True
NL109,Blackhead,,Newfoundland and Labrador,CA,47.525,-52.6569444,ardac,1.1,True
NL110,Blackhead,,Newfoundland and Labrador,CA,47.8472222,-53.0933333,ardac,1.5,True
NL111,Blanchet,,Newfoundland and Labrador,CA,47.4,-55.599167,ardac,0.1,True
NL112,Bloomfield,,Newfoundland and Labrador,CA,48.3766667,-53.905,ardac,2.2,True
NL113,Blow Me Down,,Newfoundland and Labrador,CA,47.5936111,-53.1897222,ardac,0.5,True
NL114,Blue Beach,,Newfoundland and Labrador,CA,48.7702777,-58.7833333,ardac,1.3,True
NL115,Blue Cove,,Newfoundland and Labrador,CA,51.0961111,-56.87,ardac,2.0,True
NL116,Bluff Head Cove,,Newfoundland and Labrador,CA,49.6280556,-54.7566667,ardac,4.0,True
NL117,Blundons Siding,,Newfoundland and Labrador,CA,48.3497222,-53.9011112,ardac,3.4,True
NL118,Boat Harbour West,,Newfoundland and Labrador,CA,47.43,-54.8425,ardac,1.3,True
NL119,Bobby Cove,,Newfoundland and Labrador,CA,49.8252778,-55.7544444,ardac,2.9,True
NL120,Bonalds Island,,Newfoundland and Labrador,CA,47.59341,-57.288238,ardac,0.6,True
NL121,Bonavista,,Newfoundland and Labrador,CA,48.6317917,-53.1041333,ardac,1.0,True
NL122,Bonne Bay,,Newfoundland and Labrador,CA,49.4994445,-57.9163889,ardac,1.2,True
NL123,Boswarlos,,Newfoundland and Labrador,CA,48.5702778,-58.8222222,ardac,0.7,True
NL124,Botwood,,Newfoundland and Labrador,CA,49.1356472,-55.3731528,ardac,2.7,True
NL125,Boxey,,Newfoundland and Labrador,CA,47.453055,-55.561389,ardac,1.0,True
NL126,Bradleys Cove,,Newfoundland and Labrador,CA,47.8738888,-53.0666667,ardac,0.6,True
NL127,Bragg's Island,,Newfoundland and Labrador,CA,48.933333,-53.665833,ardac,9.4,True
NL128,Brake's Cove,,Newfoundland and Labrador,CA,49.1258333,-58.0966667,ardac,1.4,True
NL129,Branch,,Newfoundland and Labrador,CA,46.8822222,-53.9644445,ardac,2.0,True
NL130,Bread and Cheese,,Newfoundland and Labrador,CA,47.3102778,-52.7919445,ardac,0.5,True
NL131,Brent's Cove,,Newfoundland and Labrador,CA,49.9369444,-55.7069444,ardac,0.5,True
NL132,Briens,,Newfoundland and Labrador,CA,47.4016667,-53.1211111,ardac,1.8,True
NL133,Brighton,,Newfoundland and Labrador,CA,49.5400695,-55.6432555,ardac,1.0,True
NL134,Brigus,,Newfoundland and Labrador,CA,47.5355556,-53.2102778,ardac,1.5,True
NL135,Brigus,,Newfoundland and Labrador,CA,47.5329806,-53.2150917,ardac,1.7,True
NL136,Brigus Gullies,,Newfoundland and Labrador,CA,47.5266667,-53.2391667,ardac,2.4,True
NL137,Bristol's Hope,,Newfoundland and Labrador,CA,47.7211111,-53.1963889,ardac,0.4,True
NL138,Britannia,,Newfoundland and Labrador,CA,48.1438889,-53.7219445,ardac,1.6,True
NL139,British Harbour,,Newfoundland and Labrador,CA,48.2622223,-53.5044445,ardac,1.9,True
NL140,Broad Cove,,Newfoundland and Labrador,CA,47.5516667,-53.5452777,ardac,0.9,True
NL141,Broad Cove,,Newfoundland and Labrador,CA,47.8369444,-53.0930555,ardac,0.4,True
NL142,Broad Cove,,Newfoundland and Labrador,CA,47.5758333,-54.2208333,ardac,1.9,True
NL143,Brookfield,,Newfoundland and Labrador,CA,49.1388889,-53.5852778,ardac,1.3,True
NL144,Brooklyn,,Newfoundland and Labrador,CA,48.3841666,-53.8694444,ardac,1.0,True
NL145,Brookside,,Newfoundland and Labrador,CA,47.4297222,-54.8138889,ardac,0.9,True
NL146,Browns Cove,,Newfoundland and Labrador,CA,49.6333333,-56.8172222,ardac,1.1,True
NL147,Brownsdale,,Newfoundland and Labrador,CA,48.035,-53.1211111,ardac,1.2,True
NL148,Bryant's Cove,,Newfoundland and Labrador,CA,47.6760917,-53.1930222,ardac,1.6,True
NL149,Buchans,,Newfoundland and Labrador,CA,48.8238,-56.8490694,ardac,77.7,True
NL150,Buchans,,Newfoundland and Labrador,CA,48.8230556,-56.8627778,ardac,76.8,True
NL151,Buckles Point,,Newfoundland and Labrador,CA,51.4822222,-56.9538889,ardac,1.0,True
NL152,Bulley's Cove,,Newfoundland and Labrador,CA,49.3497222,-55.3563889,ardac,0.8,True
NL153,Bulls Cove,,Newfoundland and Labrador,CA,47.05,-55.1605556,ardac,1.4,True
NL154,Burgeo,,Newfoundland and Labrador,CA,47.6199167,-57.6216334,ardac,2.1,True
NL155,Burgoynes Cove,,Newfoundland and Labrador,CA,48.1677777,-53.7119444,ardac,1.7,True
NL156,Burin,,Newfoundland and Labrador,CA,47.082841,-55.175272,ardac,1.0,True
NL157,Burin Bay,,Newfoundland and Labrador,CA,47.0216666,-55.1761111,ardac,0.2,True
NL158,Burin Bay Arm,,Newfoundland and Labrador,CA,47.0875,-55.1936111,ardac,1.5,True
NL159,Burlington,,Newfoundland and Labrador,CA,49.7501528,-56.0174223,ardac,1.1,True
NL160,Burns Cove,,Newfoundland and Labrador,CA,47.3922222,-54.8619445,ardac,1.4,True
NL161,Burnside,,Newfoundland and Labrador,CA,48.716667,-53.799167,ardac,3.6,True
NL162,Burnt Arm,,Newfoundland and Labrador,CA,49.1855555,-55.2772223,ardac,0.4,True
NL163,Burnt Cove,,Newfoundland and Labrador,CA,47.1991667,-52.85,ardac,1.5,True
NL164,Burnt Island,,Newfoundland and Labrador,CA,47.3833334,-54.7011111,ardac,0.4,True
NL165,Burnt Islands,,Newfoundland and Labrador,CA,47.6141944,-58.8701306,ardac,4.2,True
NL166,Burnt Point,,Newfoundland and Labrador,CA,47.9586111,-53.0397222,ardac,1.2,True
NL167,Burnt Stump,,Newfoundland and Labrador,CA,47.3980556,-53.1558333,ardac,2.9,True
NL168,Burnt Village,,Newfoundland and Labrador,CA,51.1641666,-55.9858333,ardac,0.6,True
NL169,Burtons Cove,,Newfoundland and Labrador,CA,49.5513889,-56.8686112,ardac,0.9,True
NL170,Butchers,,Newfoundland and Labrador,CA,47.8794445,-53.3730555,ardac,0.8,True
NL171,Butlerville,,Newfoundland and Labrador,CA,47.5738889,-53.3275,ardac,5.4,True
NL172,Butter Cove,,Newfoundland and Labrador,CA,48.0266666,-53.6491667,ardac,1.2,True
NL173,Butts,,Newfoundland and Labrador,CA,48.8222222,-54.2833333,ardac,7.6,True
NL174,Cahill Point,,Newfoundland and Labrador,CA,47.5636111,-52.69,ardac,1.0,True
NL175,Cains Island,,Newfoundland and Labrador,CA,47.6019445,-58.6997222,ardac,0.3,True
NL176,Calmer,,Newfoundland and Labrador,CA,46.8925,-55.9075,ardac,0.6,True
NL177,Camp Bay,,Newfoundland and Labrador,CA,52.1695996,-55.6512159,ardac,3.3,True
NL178,Camp Boggy,,Newfoundland and Labrador,CA,47.9805555,-55.8008333,ardac,2.9,True
NL179,Campbellton,,Newfoundland and Labrador,CA,49.2705194,-54.9319306,ardac,2.0,True
NL180,Canada Harbour,,Newfoundland and Labrador,CA,50.6802778,-56.1383333,ardac,0.8,True
NL181,Cape Anguille,,Newfoundland and Labrador,CA,47.9033333,-59.4094444,ardac,0.8,True
NL182,Cape Broyle,,Newfoundland and Labrador,CA,47.0965195,-52.9414917,ardac,1.0,True
NL183,Cape Charles,,Newfoundland and Labrador,CA,52.2185888,-55.6404425,ardac,0.6,True
NL184,Cape Cove,,Newfoundland and Labrador,CA,49.6516667,-54.0388889,ardac,0.3,True
NL185,Cape Dog,,Newfoundland and Labrador,CA,47.0908334,-53.6977777,ardac,0.7,True
NL186,Cape Freels North,,Newfoundland and Labrador,CA,49.260278,-53.503333,ardac,2.0,True
NL187,Cape Freels South,,Newfoundland and Labrador,CA,49.2522223,-53.4794444,ardac,1.3,True
NL188,Cape Island,,Newfoundland and Labrador,CA,49.2194445,-53.4780555,ardac,1.0,True
NL189,Cape Norman,,Newfoundland and Labrador,CA,51.6191667,-55.8991667,ardac,1.0,True
NL190,Cape Onion,,Newfoundland and Labrador,CA,51.6025,-55.6319445,ardac,0.8,True
NL191,Cape Race,,Newfoundland and Labrador,CA,46.6597222,-53.0736111,ardac,0.8,True
NL192,Cape St. George,,Newfoundland and Labrador,CA,48.4957027,-59.1849305,ardac,4.1,True
NL193,Cape St. George,,Newfoundland and Labrador,CA,48.466667,-59.249167,ardac,1.2,True
NL194,Cape St. Mary's,,Newfoundland and Labrador,CA,46.8227777,-54.1955556,ardac,0.8,True
NL195,Cape la Hune,,Newfoundland and Labrador,CA,47.555,-56.8727778,ardac,1.1,True
NL196,Caplin Cove,,Newfoundland and Labrador,CA,48.0397222,-52.9844444,ardac,2.0,True
NL197,Caplin Cove,,Newfoundland and Labrador,CA,48.0136112,-53.7222222,ardac,1.5,True
NL198,Caplin Gulch,,Newfoundland and Labrador,CA,51.5944444,-55.5136111,ardac,1.0,True
NL199,Cappahayden,,Newfoundland and Labrador,CA,46.8613889,-52.9469445,ardac,1.8,True
NL200,Capstan Island,,Newfoundland and Labrador,CA,51.57,-56.7330556,ardac,0.6,True
NL201,Carbonear,,Newfoundland and Labrador,CA,47.7315028,-53.2326611,ardac,2.0,True
NL202,Card's Harbour,,Newfoundland and Labrador,CA,49.5072222,-55.6338889,ardac,3.6,True
NL203,Carmanville,,Newfoundland and Labrador,CA,49.3673055,-54.2905694,ardac,4.0,True
NL204,Carmanville South,,Newfoundland and Labrador,CA,49.3961111,-54.2766667,ardac,1.8,True
NL205,Carrolls Cove,,Newfoundland and Labrador,CA,52.1615603,-55.7081791,ardac,0.4,True
NL206,Carter's Cove,,Newfoundland and Labrador,CA,49.5361111,-54.7866667,ardac,2.3,True
NL207,Cartwright,,Newfoundland and Labrador,CA,53.693779,-56.970056,ardac,3.2,True
NL208,Cartyville,,Newfoundland and Labrador,CA,48.2377778,-58.8025,ardac,2.0,True
NL209,Catalina,,Newfoundland and Labrador,CA,48.5166667,-53.0780555,ardac,3.1,True
NL210,Cavanagh,,Newfoundland and Labrador,CA,54.033418,-66.432611,ardac,357.2,False
NL211,Centreville,,Newfoundland and Labrador,CA,49.0166666,-53.8938889,ardac,2.8,True
NL212,Centreville-Wareham-Trinity,,Newfoundland and Labrador,CA,49.0000278,-53.9206694,ardac,2.8,True
NL213,Chamberlains,,Newfoundland and Labrador,CA,47.5263889,-52.9333333,ardac,2.9,True
NL214,Champney's,,Newfoundland and Labrador,CA,48.3908333,-53.2869445,ardac,0.7,True
NL215,Champney's Arm,,Newfoundland and Labrador,CA,48.3916667,-53.3075,ardac,1.1,True
NL216,Champney's West,,Newfoundland and Labrador,CA,48.3847223,-53.3011111,ardac,1.0,True
NL217,Chance Cove,,Newfoundland and Labrador,CA,47.6666472,-53.830925,ardac,2.1,True
NL218,Change Islands,,Newfoundland and Labrador,CA,49.6689444,-54.4037223,ardac,6.9,True
NL219,Channel-Port aux Basques,,Newfoundland and Labrador,CA,47.5955806,-59.1352917,ardac,4.0,True
NL220,Chapel Arm,,Newfoundland and Labrador,CA,47.5049111,-53.6661916,ardac,2.5,True
NL221,Chapel's Cove,,Newfoundland and Labrador,CA,47.4349098,-53.1404899,ardac,1.0,True
NL222,Charles Brook,,Newfoundland and Labrador,CA,49.3383333,-55.2525,ardac,1.8,True
NL223,Charleston,,Newfoundland and Labrador,CA,48.3922222,-53.6536111,ardac,3.5,True
NL224,Charlottetown,,Newfoundland and Labrador,CA,52.7657222,-56.1453,ardac,2.4,True
NL225,Chateau,,Newfoundland and Labrador,CA,51.979972,-55.8967163,ardac,0.7,True
NL226,Chimney Cove,,Newfoundland and Labrador,CA,49.3727777,-58.2272222,ardac,0.2,True
NL227,Chimney Tickle,,Newfoundland and Labrador,CA,52.1646341,-55.6944676,ardac,0.7,True
NL228,Churchill Falls,,Newfoundland and Labrador,CA,53.531781,-64.008444,ardac,201.4,False
NL229,Churchill Park,,Newfoundland and Labrador,CA,47.5755555,-52.7219444,ardac,3.4,True
NL230,Churchills,,Newfoundland and Labrador,CA,47.9822222,-53.9569444,ardac,5.7,True
NL231,Clarenville,,Newfoundland and Labrador,CA,48.1881389,-54.0557138,ardac,8.4,True
NL232,Clarenville South,,Newfoundland and Labrador,CA,48.1563889,-53.9722222,ardac,2.9,True
NL233,Clarke's Beach,,Newfoundland and Labrador,CA,47.5320167,-53.303675,ardac,4.5,True
NL234,Clarke's Head,,Newfoundland and Labrador,CA,49.3,-54.499167,ardac,2.6,True
NL235,Clattice Harbour,,Newfoundland and Labrador,CA,47.4877777,-54.4658333,ardac,0.9,True
NL236,Clattice South West,,Newfoundland and Labrador,CA,47.4777778,-54.4627778,ardac,1.5,True
NL237,Clifton,,Newfoundland and Labrador,CA,48.1794444,-53.7244444,ardac,1.9,True
NL238,Clowns Cove,,Newfoundland and Labrador,CA,47.7580556,-53.1838889,ardac,1.3,True
NL239,Coachman's Cove,,Newfoundland and Labrador,CA,50.0681694,-56.1237305,ardac,3.0,True
NL240,Coal Brook,,Newfoundland and Labrador,CA,47.9333333,-58.9905556,ardac,19.3,True
NL241,Cobb,,Newfoundland and Labrador,CA,47.8388889,-53.9744444,ardac,3.1,True
NL242,Codner,,Newfoundland and Labrador,CA,47.5058334,-52.9936111,ardac,2.9,True
NL243,Codroy,,Newfoundland and Labrador,CA,47.8811111,-59.3916667,ardac,0.5,True
NL244,Codroy Pond,,Newfoundland and Labrador,CA,48.070278,-58.8625,ardac,11.3,True
NL245,Coffee Cove,,Newfoundland and Labrador,CA,49.5861111,-55.9511111,ardac,2.1,True
NL246,Coffin Cove,,Newfoundland and Labrador,CA,47.5138889,-54.0827778,ardac,0.9,True
NL247,Cold Brook,,Newfoundland and Labrador,CA,48.6016667,-58.5319444,ardac,7.8,True
NL248,Coley's Point,,Newfoundland and Labrador,CA,47.5805555,-53.2655555,ardac,1.0,True
NL249,Coley's Point South,,Newfoundland and Labrador,CA,47.5791666,-53.2669444,ardac,1.1,True
NL250,Colinet,,Newfoundland and Labrador,CA,47.2195306,-53.5480611,ardac,1.9,True
NL251,Collier's Riverhead,,Newfoundland and Labrador,CA,47.4577778,-53.2072223,ardac,1.5,True
NL252,Colliers,,Newfoundland and Labrador,CA,47.4503222,-53.2482889,ardac,4.1,True
NL253,Collins Cove,,Newfoundland and Labrador,CA,47.0302778,-55.1752778,ardac,0.5,True
NL254,Come By Chance,,Newfoundland and Labrador,CA,47.8415167,-53.9847806,ardac,2.8,True
NL255,Comfort Bight,,Newfoundland and Labrador,CA,53.1519473,-55.7745496,ardac,1.6,True
NL256,Comfort Cove-Newstead,,Newfoundland and Labrador,CA,49.3581556,-54.8758195,ardac,1.0,True
NL257,Conception Bay South,,Newfoundland and Labrador,CA,47.4907778,-52.9951111,ardac,3.3,True
NL258,Conception Harbour,,Newfoundland and Labrador,CA,47.438575,-53.2239,ardac,2.2,True
NL259,Conche,,Newfoundland and Labrador,CA,50.8955084,-55.8866667,ardac,0.4,True
NL260,Coney Arm,,Newfoundland and Labrador,CA,49.9622223,-56.7838889,ardac,1.4,True
NL261,Conne River,,Newfoundland and Labrador,CA,47.8625,-55.755278,ardac,1.6,True
NL262,Cook's Harbour,,Newfoundland and Labrador,CA,51.6078722,-55.863925,ardac,0.6,True
NL263,Cooke,,Newfoundland and Labrador,CA,48.9094444,-58.0586111,ardac,7.8,True
NL264,Coomb's Cove,,Newfoundland and Labrador,CA,47.458611,-55.621944,ardac,0.9,True
NL265,Cooper's Cove,,Newfoundland and Labrador,CA,47.5836111,-54.2025,ardac,1.9,True
NL266,Cooperage,,Newfoundland and Labrador,CA,47.6691666,-53.2480555,ardac,4.2,True
NL267,Cootes Pond,,Newfoundland and Labrador,CA,46.9541667,-53.5202778,ardac,0.8,True
NL268,Coppett,,Newfoundland and Labrador,CA,47.6022222,-57.2508333,ardac,0.5,True
NL269,Corbin,,Newfoundland and Labrador,CA,47.5886111,-55.4188889,ardac,0.7,True
NL270,Corbin,,Newfoundland and Labrador,CA,46.9605555,-55.24,ardac,0.6,True
NL271,Cormack,,Newfoundland and Labrador,CA,49.31595,-57.3833639,ardac,28.1,True
NL272,Corner Brook,,Newfoundland and Labrador,CA,48.941111,-57.970278,ardac,4.3,True
NL273,Cornfield,,Newfoundland and Labrador,CA,47.04,-52.8911111,ardac,1.9,True
NL274,Cottlesville,,Newfoundland and Labrador,CA,49.495225,-54.8545583,ardac,1.0,True
NL275,Cottlesville,,Newfoundland and Labrador,CA,49.5147223,-54.8752778,ardac,1.6,True
NL276,Country Road,,Newfoundland and Labrador,CA,47.5752778,-53.2936111,ardac,3.2,True
NL277,Country Road Industrial Park,,Newfoundland and Labrador,CA,48.9263889,-57.9852778,ardac,6.2,True
NL278,Cow Head,,Newfoundland and Labrador,CA,49.919725,-57.7694834,ardac,1.1,True
NL279,Cox's Cove,,Newfoundland and Labrador,CA,49.1119861,-58.0805139,ardac,2.3,True
NL280,Crawley Island,,Newfoundland and Labrador,CA,47.4230555,-53.8575,ardac,1.1,True
NL281,Creston,,Newfoundland and Labrador,CA,47.1444444,-55.1922222,ardac,5.1,True
NL282,Creston North,,Newfoundland and Labrador,CA,47.1533333,-55.1986111,ardac,5.1,True
NL283,Crockers Cove,,Newfoundland and Labrador,CA,47.7425,-53.2002778,ardac,0.4,True
NL284,Croque,,Newfoundland and Labrador,CA,51.058333,-55.827778,ardac,1.4,True
NL285,Cross Roads,,Newfoundland and Labrador,CA,47.4480556,-53.5494445,ardac,10.2,True
NL286,Crossroads,,Newfoundland and Labrador,CA,47.8675,-53.3633334,ardac,0.6,True
NL287,Crow Head,,Newfoundland and Labrador,CA,49.67985,-54.7998834,ardac,8.8,True
NL288,Cruisers,,Newfoundland and Labrador,CA,48.9797222,-55.5711111,ardac,15.7,True
NL289,Cul de Sac West,,Newfoundland and Labrador,CA,47.5497222,-56.8416667,ardac,0.8,True
NL290,Culls Harbour,,Newfoundland and Labrador,CA,48.6797223,-53.9488889,ardac,0.4,True
NL291,Cupids,,Newfoundland and Labrador,CA,47.5478056,-53.2244889,ardac,0.3,True
NL292,Cupids Crossing,,Newfoundland and Labrador,CA,47.5283333,-53.2508333,ardac,2.4,True
NL293,Current Island,,Newfoundland and Labrador,CA,51.1769444,-56.82,ardac,1.9,True
NL294,Curzon Village,,Newfoundland and Labrador,CA,49.5105555,-57.9202778,ardac,0.6,True
NL295,Cuslett,,Newfoundland and Labrador,CA,46.9605555,-54.1583333,ardac,0.6,True
NL296,Cut Throat,,Newfoundland and Labrador,CA,57.4661778,-61.6166305,ardac,2.6,True
NL297,Daniel's Cove,,Newfoundland and Labrador,CA,48.1286111,-52.9736111,ardac,2.8,True
NL298,Daniel's Harbour,,Newfoundland and Labrador,CA,50.2326473,-57.5818083,ardac,1.3,True
NL299,Daniel's Point,,Newfoundland and Labrador,CA,46.7525,-53.3775,ardac,2.0,True
NL300,Darbys Harbour,,Newfoundland and Labrador,CA,47.4694444,-54.5413889,ardac,0.3,True
NL301,Dark Cove,,Newfoundland and Labrador,CA,48.6605555,-53.7083333,ardac,0.3,True
NL302,Davey Hanns Landing,,Newfoundland and Labrador,CA,48.6291666,-53.9380556,ardac,0.5,True
NL303,Davidsville,,Newfoundland and Labrador,CA,49.3583334,-54.4325,ardac,1.4,True
NL304,Davis Cove,,Newfoundland and Labrador,CA,47.6358333,-54.3441667,ardac,1.9,True
NL305,Davis House,,Newfoundland and Labrador,CA,51.4686111,-56.8705556,ardac,1.1,True
NL306,Davis Inlet,,Newfoundland and Labrador,CA,55.8886419,-60.9076539,ardac,1.2,True
NL307,Davis Island,,Newfoundland and Labrador,CA,47.2611111,-54.9361111,ardac,3.8,True
NL308,Dawson's Cove,,Newfoundland and Labrador,CA,47.5347223,-55.9325,ardac,1.4,True
NL309,De Grau,,Newfoundland and Labrador,CA,48.4833333,-59.1936111,ardac,3.4,True
NL310,Dead Islands,,Newfoundland and Labrador,CA,52.7992839,-55.8329921,ardac,3.1,True
NL311,Deadmans Cove,,Newfoundland and Labrador,CA,51.2533333,-56.7833333,ardac,0.5,True
NL312,Deep Bay,,Newfoundland and Labrador,CA,49.671111,-54.293056,ardac,0.6,True
NL313,Deep Cove,,Newfoundland and Labrador,CA,47.4138889,-54.4997222,ardac,0.4,True
NL314,Deer Harbour,,Newfoundland and Labrador,CA,48.1375,-53.5688889,ardac,2.5,True
NL315,Deer Island,,Newfoundland and Labrador,CA,47.62,-57.3647223,ardac,1.4,True
NL316,Deer Island,,Newfoundland and Labrador,CA,48.933333,-53.715833,ardac,7.0,True
NL317,Deer Lake,,Newfoundland and Labrador,CA,49.194994,-57.3897,ardac,33.6,True
NL318,Delbys Cove,,Newfoundland and Labrador,CA,48.2355556,-53.5372222,ardac,0.5,True
NL319,Dennis Hill,,Newfoundland and Labrador,CA,47.6041667,-59.1755556,ardac,3.1,True
NL320,Devils Kitchen,,Newfoundland and Labrador,CA,47.06,-52.9366667,ardac,3.1,True
NL321,Dildo,,Newfoundland and Labrador,CA,47.5713889,-53.5505556,ardac,0.2,True
NL322,Dock Cove,,Newfoundland and Labrador,CA,48.8591666,-53.645,ardac,12.4,True
NL323,Doctors Harbour,,Newfoundland and Labrador,CA,47.6619445,-55.3175,ardac,0.5,True
NL324,Doctors Harbour,,Newfoundland and Labrador,CA,47.6238889,-57.7761111,ardac,1.1,True
NL325,Dog Cove,,Newfoundland and Labrador,CA,47.6105555,-57.1363889,ardac,0.6,True
NL326,Dogwood,,Newfoundland and Labrador,CA,48.9508333,-57.8369444,ardac,4.2,True
NL327,Domino,,Newfoundland and Labrador,CA,53.4664558,-55.7757403,ardac,1.2,True
NL328,Donovans,,Newfoundland and Labrador,CA,47.5258333,-52.835,ardac,6.7,True
NL329,Doting Cove,,Newfoundland and Labrador,CA,49.4427778,-53.9358334,ardac,1.3,True
NL330,Dove Brook,,Newfoundland and Labrador,CA,53.6394992,-57.4280217,ardac,1.9,True
NL331,Dover,,Newfoundland and Labrador,CA,48.8869639,-53.9537778,ardac,0.7,True
NL332,Down Below,,Newfoundland and Labrador,CA,48.641302,-53.729638,ardac,1.0,True
NL333,Doyles,,Newfoundland and Labrador,CA,47.8302778,-59.19,ardac,10.6,True
NL334,Doyles,,Newfoundland and Labrador,CA,47.4594445,-52.7613889,ardac,5.4,True
NL335,Drook,,Newfoundland and Labrador,CA,46.6730556,-53.2469444,ardac,1.2,True
NL336,Drylake,,Newfoundland and Labrador,CA,52.6333333,-65.9827778,ardac,258.1,False
NL337,Duffs,,Newfoundland and Labrador,CA,47.4416667,-53.0977778,ardac,1.7,True
NL338,Dumpling Harbour,,Newfoundland and Labrador,CA,53.841704,-56.9687779,ardac,3.2,True
NL339,Dunfield,,Newfoundland and Labrador,CA,48.35,-53.3763889,ardac,1.9,True
NL340,Duntara,,Newfoundland and Labrador,CA,48.585975,-53.3810333,ardac,3.3,True
NL341,Dunville,,Newfoundland and Labrador,CA,47.27,-53.8975,ardac,4.8,True
NL342,Duricle,,Newfoundland and Labrador,CA,47.1122222,-55.0933334,ardac,1.9,True
NL343,Durrell,,Newfoundland and Labrador,CA,49.6597222,-54.7344444,ardac,7.3,True
NL344,Eagle River,,Newfoundland and Labrador,CA,53.5731642,-57.4322441,ardac,3.0,True
NL345,East Bay,,Newfoundland and Labrador,CA,47.7641666,-58.2533333,ardac,1.4,True
NL346,East Landing,,Newfoundland and Labrador,CA,46.6602778,-53.0730556,ardac,0.8,True
NL347,East Meadows,,Newfoundland and Labrador,CA,47.5983334,-52.71,ardac,3.7,True
NL348,East St Modeste,,Newfoundland and Labrador,CA,51.6347222,-56.6813889,ardac,0.6,True
NL349,Eastern Corner,,Newfoundland and Labrador,CA,47.6972222,-53.4783333,ardac,0.3,True
NL350,Eastern Cove,,Newfoundland and Labrador,CA,49.533333,-54.215833,ardac,5.2,True
NL351,Eastern Tickle,,Newfoundland and Labrador,CA,49.725016,-54.259615,ardac,0.8,True
NL352,Eastport,,Newfoundland and Labrador,CA,48.6646722,-53.7676278,ardac,2.4,True
NL353,Eddies Cove,,Newfoundland and Labrador,CA,51.415,-56.4608333,ardac,1.3,True
NL354,Elliott's Cove,,Newfoundland and Labrador,CA,48.1405556,-53.9041667,ardac,1.1,True
NL355,Elliston,,Newfoundland and Labrador,CA,48.6291611,-53.0480361,ardac,2.5,True
NL356,Embar,,Newfoundland and Labrador,CA,52.3,-65.6827778,ardac,220.2,False
NL357,Embree,,Newfoundland and Labrador,CA,49.3012472,-55.0437028,ardac,1.1,True
NL358,Emerald Vale,,Newfoundland and Labrador,CA,47.5069445,-53.2997223,ardac,6.3,True
NL359,Emeril,,Newfoundland and Labrador,CA,53.0834057,-66.215989,ardac,308.0,False
NL360,Emily Harbour,,Newfoundland and Labrador,CA,54.5388804,-57.184823,ardac,4.4,True
NL361,Englee,,Newfoundland and Labrador,CA,50.7657028,-56.0709528,ardac,1.4,True
NL362,English Harbour,,Newfoundland and Labrador,CA,48.3722222,-53.2616667,ardac,1.3,True
NL363,English Harbour East,,Newfoundland and Labrador,CA,47.64608,-54.892783,ardac,3.0,True
NL364,English Harbour West,,Newfoundland and Labrador,CA,47.463056,-55.493889,ardac,2.1,True
NL365,English Point,,Newfoundland and Labrador,CA,51.4880555,-56.9291666,ardac,1.4,True
NL366,Epworth,,Newfoundland and Labrador,CA,47.0286111,-55.2025,ardac,0.8,True
NL367,Esker,,Newfoundland and Labrador,CA,53.883416,-66.415949,ardac,355.7,False
NL368,Evergreen Village,,Newfoundland and Labrador,CA,47.5394445,-52.8419444,ardac,5.2,True
NL369,Exploits,,Newfoundland and Labrador,CA,49.5233333,-55.0675,ardac,4.6,True
NL370,Faden,,Newfoundland and Labrador,CA,54.183333,-66.499167,ardac,359.0,False
NL371,Fair Haven,,Newfoundland and Labrador,CA,47.5347223,-53.8988889,ardac,0.4,True
NL372,Fair Island,,Newfoundland and Labrador,CA,48.983333,-53.715833,ardac,2.9,True
NL373,Fairbank,,Newfoundland and Labrador,CA,49.5530555,-54.7427778,ardac,0.6,True
NL374,Fairbanks East,,Newfoundland and Labrador,CA,49.5538889,-54.7441667,ardac,0.4,True
NL375,Felix Cove,,Newfoundland and Labrador,CA,48.5336111,-58.7830555,ardac,3.5,True
NL376,Femme,,Newfoundland and Labrador,CA,47.6013889,-54.9844445,ardac,1.6,True
NL377,Fermeuse,,Newfoundland and Labrador,CA,46.9802778,-52.9516667,ardac,4.3,True
NL378,Fermeuse,,Newfoundland and Labrador,CA,46.9727667,-52.977475,ardac,6.1,True
NL379,Ferndale,,Newfoundland and Labrador,CA,47.2633333,-53.9469444,ardac,2.2,True
NL380,Ferolle Point,,Newfoundland and Labrador,CA,51.016667,-57.099167,ardac,0.8,True
NL381,Ferryland,,Newfoundland and Labrador,CA,47.0302389,-52.9056278,ardac,2.9,True
NL382,Fischells,,Newfoundland and Labrador,CA,48.3169444,-58.7097222,ardac,1.6,True
NL383,Fischot Islands,,Newfoundland and Labrador,CA,51.1822223,-55.6866667,ardac,2.3,True
NL384,Fishing Ships Harbour,,Newfoundland and Labrador,CA,52.6064097,-55.7715556,ardac,1.0,True
NL385,Flat Bay West,,Newfoundland and Labrador,CA,48.3988889,-58.6005556,ardac,0.6,True
NL386,Flat Island,,Newfoundland and Labrador,CA,47.2719445,-54.9225,ardac,3.7,True
NL387,Flat Islands,,Newfoundland and Labrador,CA,48.8,-53.6325,ardac,11.2,True
NL388,Flat Rock,,Newfoundland and Labrador,CA,47.0138889,-52.9838889,ardac,7.1,True
NL389,Flatrock,,Newfoundland and Labrador,CA,47.7572222,-53.1869444,ardac,1.3,True
NL390,Flatrock,,Newfoundland and Labrador,CA,47.7049611,-52.7316555,ardac,2.4,True
NL391,Fleur de Lys,,Newfoundland and Labrador,CA,50.132925,-56.1570194,ardac,1.6,True
NL392,Fleury Bight,,Newfoundland and Labrador,CA,49.523871,-55.295023,ardac,1.4,True
NL393,Flower's Cove,,Newfoundland and Labrador,CA,51.29535,-56.7202694,ardac,1.6,True
NL394,Fogo,,Newfoundland and Labrador,CA,49.714205,-54.278792,ardac,0.3,True
NL395,Fogo Island,,Newfoundland and Labrador,CA,49.658333,-54.1825,ardac,2.3,True
NL396,Ford,,Newfoundland and Labrador,CA,56.4663889,-61.1925,ardac,0.6,True
NL397,Forest Field,,Newfoundland and Labrador,CA,47.1602778,-53.4522222,ardac,4.5,True
NL398,Fort Townshend,,Newfoundland and Labrador,CA,47.5675,-52.7113889,ardac,2.2,True
NL399,Fort William,,Newfoundland and Labrador,CA,47.5711111,-52.6969445,ardac,1.9,True
NL400,Forteau,,Newfoundland and Labrador,CA,51.4915611,-56.9478916,ardac,1.9,True
NL401,Fortune,,Newfoundland and Labrador,CA,47.0406833,-55.8614917,ardac,2.9,True
NL402,Fortune Harbour,,Newfoundland and Labrador,CA,49.5094444,-55.2377778,ardac,1.0,True
NL403,Forward's Cove,,Newfoundland and Labrador,CA,47.266667,-55.899167,ardac,0.3,True
NL404,Four Harbour,,Newfoundland and Labrador,CA,51.1822223,-55.7316667,ardac,0.6,True
NL405,Fox Cove,,Newfoundland and Labrador,CA,47.0944444,-55.1038889,ardac,1.4,True
NL406,Fox Cove-Mortier,,Newfoundland and Labrador,CA,47.1023611,-55.1103778,ardac,2.4,True
NL407,Fox Harbour,,Newfoundland and Labrador,CA,47.3215,-53.8827166,ardac,2.3,True
NL408,Fox Island Harbour,,Newfoundland and Labrador,CA,47.5913889,-57.2855556,ardac,0.4,True
NL409,Fox Island River,,Newfoundland and Labrador,CA,48.6922222,-58.6783334,ardac,0.7,True
NL410,Fox Marsh,,Newfoundland and Labrador,CA,47.3944444,-53.4091667,ardac,16.9,True
NL411,Fox Roost,,Newfoundland and Labrador,CA,47.5711111,-59.0413889,ardac,0.8,True
NL412,Foxtrap,,Newfoundland and Labrador,CA,47.5086111,-52.9822222,ardac,2.2,True
NL413,Francis Harbour,,Newfoundland and Labrador,CA,52.5639634,-55.7216296,ardac,6.3,True
NL414,Frederickton,,Newfoundland and Labrador,CA,49.4261111,-54.3586111,ardac,0.8,True
NL415,Frenchman's Cove,,Newfoundland and Labrador,CA,47.161108,-55.41835,ardac,3.4,True
NL416,Frenchman's Cove,,Newfoundland and Labrador,CA,49.0558333,-58.1802777,ardac,1.2,True
NL417,Frenchmans Island,,Newfoundland and Labrador,CA,53.224757,-55.7361157,ardac,2.1,True
NL418,Frenchs Cove,,Newfoundland and Labrador,CA,47.6133334,-53.22,ardac,0.3,True
NL419,Freshwater,,Newfoundland and Labrador,CA,47.755029,-53.183343,ardac,1.0,True
NL420,Freshwater,,Newfoundland and Labrador,CA,46.8466667,-52.9469445,ardac,1.0,True
NL421,Freshwater,,Newfoundland and Labrador,CA,47.2591667,-53.9838889,ardac,0.6,True
NL422,Freshwater,,Newfoundland and Labrador,CA,47.0372222,-52.8861111,ardac,1.6,True
NL423,Freshwater,,Newfoundland and Labrador,CA,47.6011111,-53.0083334,ardac,0.9,True
NL424,Frog Marsh,,Newfoundland and Labrador,CA,47.5344445,-53.1930556,ardac,1.5,True
NL425,Furby's Cove,,Newfoundland and Labrador,CA,47.6011111,-55.8361111,ardac,0.6,True
NL426,Gadds Harbour,,Newfoundland and Labrador,CA,49.5069444,-57.8702777,ardac,0.1,True
NL427,Gaff Topsail,,Newfoundland and Labrador,CA,49.1427778,-56.6519445,ardac,47.4,True
NL428,Galeville,,Newfoundland and Labrador,CA,49.5519444,-56.8472222,ardac,0.8,True
NL429,Gallants,,Newfoundland and Labrador,CA,48.7054861,-58.2388527,ardac,19.7,True
NL430,Gallardin Point,,Newfoundland and Labrador,CA,47.26,-53.9733333,ardac,1.0,True
NL431,Gallows Cove,,Newfoundland and Labrador,CA,47.4436111,-53.1572222,ardac,0.4,True
NL432,Gambo,,Newfoundland and Labrador,CA,48.7970805,-54.2125111,ardac,2.1,True
NL433,Gambo Pond,,Newfoundland and Labrador,CA,48.7361111,-54.225,ardac,4.0,True
NL434,Gambo South,,Newfoundland and Labrador,CA,48.7675,-54.2247222,ardac,2.0,True
NL435,Gander,,Newfoundland and Labrador,CA,48.957189,-54.588561,ardac,34.4,True
NL436,Gander Bay,,Newfoundland and Labrador,CA,49.2961112,-54.4816667,ardac,1.4,True
NL437,Gander Bay South,,Newfoundland and Labrador,CA,49.2797222,-54.4861111,ardac,0.2,True
NL438,Gargamelle,,Newfoundland and Labrador,CA,50.6997222,-57.3533333,ardac,1.0,True
NL439,Garnish,,Newfoundland and Labrador,CA,47.215406,-55.332653,ardac,3.1,True
NL440,Garretts Cove,,Newfoundland and Labrador,CA,47.8541667,-53.7352778,ardac,1.3,True
NL441,Gaskiers,,Newfoundland and Labrador,CA,46.8744445,-53.6111111,ardac,0.6,True
NL442,Gaskiers-Point La Haye,,Newfoundland and Labrador,CA,46.8841666,-53.605,ardac,1.3,True
NL443,Gasters,,Newfoundland and Labrador,CA,47.4302778,-53.1463889,ardac,1.4,True
NL444,Gaultois,,Newfoundland and Labrador,CA,47.611875,-55.9137583,ardac,0.9,True
NL445,George's Brook,,Newfoundland and Labrador,CA,48.238333,-53.9599998,ardac,2.1,True
NL446,Georges Cove,,Newfoundland and Labrador,CA,52.5795616,-55.7536366,ardac,3.7,True
NL447,Georges Cove,,Newfoundland and Labrador,CA,49.5594445,-56.835,ardac,0.4,True
NL448,Georges Lake,,Newfoundland and Labrador,CA,48.7369444,-58.1838889,ardac,24.1,True
NL449,Georgestown,,Newfoundland and Labrador,CA,47.5688889,-52.7191667,ardac,2.7,True
NL450,Georgetown,,Newfoundland and Labrador,CA,48.9525,-58.015,ardac,3.4,True
NL451,Gillams,,Newfoundland and Labrador,CA,49.0194944,-58.0683389,ardac,1.4,True
NL452,Gillard's Cove,,Newfoundland and Labrador,CA,49.6180555,-54.755,ardac,3.1,True
NL453,Gillesport,,Newfoundland and Labrador,CA,49.6686111,-54.7447222,ardac,8.4,True
NL454,Gilling,,Newfoundland and Labrador,CA,54.750108,-66.782601,ardac,336.4,False
NL455,Gin Cove,,Newfoundland and Labrador,CA,48.1972222,-53.8158333,ardac,0.9,True
NL456,Glenburnie,,Newfoundland and Labrador,CA,49.4347222,-57.895,ardac,0.5,True
NL457,Glenburnie-Birchy Head-Shoal Brook,,Newfoundland and Labrador,CA,49.4507556,-57.9098889,ardac,0.9,True
NL458,Glendale,,Newfoundland and Labrador,CA,47.5169444,-52.8122222,ardac,8.6,True
NL459,Glendon Cove,,Newfoundland and Labrador,CA,47.7022222,-54.2372222,ardac,3.2,True
NL460,Glenridge Crescent,,Newfoundland and Labrador,CA,47.5791666,-52.7111111,ardac,3.2,True
NL461,Glenview,,Newfoundland and Labrador,CA,47.8780556,-53.9705556,ardac,4.2,True
NL462,Glenvilla Court,,Newfoundland and Labrador,CA,47.61,-52.7136111,ardac,4.4,True
NL463,Glenwood,,Newfoundland and Labrador,CA,48.9809139,-54.8820444,ardac,27.2,True
NL464,Glovertown,,Newfoundland and Labrador,CA,48.6911305,-54.0352778,ardac,5.5,True
NL465,Glovertown South,,Newfoundland and Labrador,CA,48.6716667,-54.0044444,ardac,3.9,True
NL466,Goblin,,Newfoundland and Labrador,CA,47.719644,-56.095772,ardac,0.1,True
NL467,Goddenville,,Newfoundland and Labrador,CA,47.5991667,-53.3455556,ardac,6.5,True
NL468,Gold Cove,,Newfoundland and Labrador,CA,49.5705555,-56.8475,ardac,1.7,True
NL469,Goobies Siding,,Newfoundland and Labrador,CA,47.9422222,-53.9636111,ardac,9.6,True
NL470,Goobies Station,,Newfoundland and Labrador,CA,47.9202777,-53.9488889,ardac,6.9,True
NL471,Goose Arm,,Newfoundland and Labrador,CA,49.137591,-57.92124,ardac,1.1,True
NL472,Goose Cove,,Newfoundland and Labrador,CA,51.3063889,-55.6336111,ardac,1.0,True
NL473,Goose Cove,,Newfoundland and Labrador,CA,48.3638889,-53.3844444,ardac,2.2,True
NL474,Goose Cove,,Newfoundland and Labrador,CA,47.8602778,-54.1027778,ardac,0.8,True
NL475,Goose Cove East,,Newfoundland and Labrador,CA,51.3075,-55.6272222,ardac,0.8,True
NL476,Gooseberry Cove,,Newfoundland and Labrador,CA,47.0694444,-54.0913889,ardac,1.3,True
NL477,Gooseberry Cove,,Newfoundland and Labrador,CA,48.0327778,-53.6419445,ardac,1.4,True
NL478,Gooseberry Island,,Newfoundland and Labrador,CA,48.883333,-53.615833,ardac,15.3,True
NL479,Goulds,,Newfoundland and Labrador,CA,47.4786111,-52.7666667,ardac,6.0,True
NL480,Grady Harbour,,Newfoundland and Labrador,CA,53.8024268,-56.4250483,ardac,3.8,True
NL481,Granby Island,,Newfoundland and Labrador,CA,49.7363889,-56.7236111,ardac,4.2,True
NL482,Grand Bank,,Newfoundland and Labrador,CA,47.088906,-55.755111,ardac,2.2,True
NL483,Grand Bay East,,Newfoundland and Labrador,CA,47.5861111,-59.1675,ardac,2.0,True
NL484,Grand Bay West,,Newfoundland and Labrador,CA,47.5852778,-59.18,ardac,1.1,True
NL485,Grand Bruit,,Newfoundland and Labrador,CA,47.671667,-58.226667,ardac,1.6,True
NL486,Grand Falls,,Newfoundland and Labrador,CA,48.9330556,-55.6513889,ardac,23.4,True
NL487,Grand Falls-Windsor,,Newfoundland and Labrador,CA,48.9640028,-55.6644417,ardac,22.6,True
NL488,Grand Jardin,,Newfoundland and Labrador,CA,48.4738889,-59.2186111,ardac,1.3,True
NL489,Grand John,,Newfoundland and Labrador,CA,47.4908334,-55.0561111,ardac,0.7,True
NL490,Grand Le Pierre,,Newfoundland and Labrador,CA,47.7732861,-54.8056084,ardac,10.1,True
NL491,Grandois,,Newfoundland and Labrador,CA,51.1025,-55.7486111,ardac,0.9,True
NL492,Grants,,Newfoundland and Labrador,CA,48.7305556,-54.1769444,ardac,4.4,True
NL493,Graven Bank,,Newfoundland and Labrador,CA,46.9605555,-53.5319445,ardac,0.8,True
NL494,Great Barasway,,Newfoundland and Labrador,CA,47.1275,-54.0627778,ardac,6.1,True
NL495,Great Bona,,Newfoundland and Labrador,CA,47.3905555,-54.5291667,ardac,0.8,True
NL496,Great Brule,,Newfoundland and Labrador,CA,47.6588889,-54.1341667,ardac,0.6,True
NL497,Great Harbour,,Newfoundland and Labrador,CA,47.5119444,-55.8441666,ardac,0.7,True
NL498,Great Harbour Deep,,Newfoundland and Labrador,CA,50.373333,-56.519444,ardac,2.4,True
NL499,Great Jervais,,Newfoundland and Labrador,CA,47.4694444,-55.1522222,ardac,0.9,True
NL500,Great Jervis Harbour,,Newfoundland and Labrador,CA,47.660006,-56.161704,ardac,1.2,True
NL501,Great Paradise,,Newfoundland and Labrador,CA,47.3513889,-54.5925,ardac,1.0,True
NL502,Great Salmonier,,Newfoundland and Labrador,CA,47.0686111,-55.2166667,ardac,1.3,True
NL503,Greeleytown,,Newfoundland and Labrador,CA,47.5041667,-52.9852778,ardac,2.7,True
NL504,Green Cove,,Newfoundland and Labrador,CA,49.6361112,-54.5927778,ardac,0.6,True
NL505,Green Island Cove,,Newfoundland and Labrador,CA,51.383375,-56.582365,ardac,6.8,True
NL506,Green Point,,Newfoundland and Labrador,CA,49.6822222,-57.9552778,ardac,0.6,True
NL507,Greenland,,Newfoundland and Labrador,CA,47.5655556,-53.1872222,ardac,0.6,True
NL508,Greenspond,,Newfoundland and Labrador,CA,49.07315,-53.5768027,ardac,0.8,True
NL509,Grenfell Heights,,Newfoundland and Labrador,CA,48.9477778,-55.6247222,ardac,20.9,True
NL510,Grey Islands Harbour,,Newfoundland and Labrador,CA,50.7022222,-55.5961111,ardac,0.9,True
NL511,Gripes Nest,,Newfoundland and Labrador,CA,46.9036111,-52.9188889,ardac,1.2,True
NL512,Griquet,,Newfoundland and Labrador,CA,51.5291667,-55.4586111,ardac,1.7,True
NL513,Groais Island,,Newfoundland and Labrador,CA,50.7256841,-55.587951,ardac,1.2,True
NL514,Grole,,Newfoundland and Labrador,CA,47.5219445,-56.1194444,ardac,1.1,True
NL515,Gulch,,Newfoundland and Labrador,CA,46.9075,-53.5977778,ardac,0.2,True
NL516,Gull Island,,Newfoundland and Labrador,CA,47.9538889,-53.0433333,ardac,0.8,True
NL517,Gullbridge,,Newfoundland and Labrador,CA,49.1997222,-56.155,ardac,25.5,True
NL518,Gullies,,Newfoundland and Labrador,CA,47.6477778,-53.2863889,ardac,3.6,True
NL519,Gulls Marsh,,Newfoundland and Labrador,CA,49.7833333,-57.8838889,ardac,0.9,True
NL520,Gunners Cove,,Newfoundland and Labrador,CA,51.5155555,-55.4586111,ardac,1.4,True
NL521,Gunridge,,Newfoundland and Labrador,CA,47.3111111,-52.7805556,ardac,0.4,True
NL522,Gussetts Cove,,Newfoundland and Labrador,CA,47.8511111,-53.0886111,ardac,1.4,True
NL523,Halfway House,,Newfoundland and Labrador,CA,47.8041667,-53.2938889,ardac,8.6,True
NL524,Halfway Point,,Newfoundland and Labrador,CA,48.9927778,-58.1,ardac,0.5,True
NL525,Halfway Tucks,,Newfoundland and Labrador,CA,46.7038889,-53.5980556,ardac,3.1,True
NL526,Halls Town,,Newfoundland and Labrador,CA,47.5375,-53.3230555,ardac,5.3,True
NL527,Hampden,,Newfoundland and Labrador,CA,49.5396389,-56.8816277,ardac,2.0,True
NL528,Hannah Cove,,Newfoundland and Labrador,CA,49.6202777,-56.83,ardac,1.1,True
NL529,Hant's Harbour,,Newfoundland and Labrador,CA,47.990422,-53.276714,ardac,2.0,True
NL530,Happy Adventure,,Newfoundland and Labrador,CA,48.6351722,-53.7818861,ardac,1.4,True
NL531,Happy Valley - Goose Bay,,Newfoundland and Labrador,CA,53.341739,-60.448803,ardac,2.7,True
NL532,Harbour Breton,,Newfoundland and Labrador,CA,47.477522,-55.824044,ardac,1.2,True
NL533,Harbour Buffett,,Newfoundland and Labrador,CA,47.5275,-54.0866667,ardac,0.4,True
NL534,Harbour Deep,,Newfoundland and Labrador,CA,50.369988,-56.51732,ardac,2.6,True
NL535,Harbour Grace,,Newfoundland and Labrador,CA,47.6796861,-53.2535888,ardac,5.4,True
NL536,Harbour Grace South,,Newfoundland and Labrador,CA,47.6786111,-53.2158333,ardac,2.8,True
NL537,Harbour Island,,Newfoundland and Labrador,CA,47.5516667,-54.2602778,ardac,1.1,True
NL538,Harbour Le Cou,,Newfoundland and Labrador,CA,47.6227778,-58.6869444,ardac,2.7,True
NL539,Harbour Main,,Newfoundland and Labrador,CA,47.4338889,-53.1611111,ardac,0.5,True
NL540,Harbour Main-Chapel's Cove-Lakeview,,Newfoundland and Labrador,CA,47.4118667,-53.1740194,ardac,2.3,True
NL541,Harbour Mille,,Newfoundland and Labrador,CA,47.581389,-54.879722,ardac,0.2,True
NL542,Harbour Round,,Newfoundland and Labrador,CA,49.9216667,-55.7380555,ardac,1.3,True
NL543,Harcourt,,Newfoundland and Labrador,CA,48.1977777,-53.8583334,ardac,0.3,True
NL544,Hardy's Cove,,Newfoundland and Labrador,CA,47.6675,-55.6663889,ardac,1.6,True
NL545,Hare Bay,,Newfoundland and Labrador,CA,48.8591528,-54.0318361,ardac,2.6,True
NL546,Hare Harbour,,Newfoundland and Labrador,CA,53.750866,-56.7315184,ardac,1.1,True
NL547,Hare Harbour,,Newfoundland and Labrador,CA,47.5830556,-55.1430556,ardac,0.9,True
NL548,Harlands Landing,,Newfoundland and Labrador,CA,53.483333,-64.499167,ardac,233.9,False
NL549,Harnum Point,,Newfoundland and Labrador,CA,47.5666667,-53.5647222,ardac,1.4,True
NL550,Harricott,,Newfoundland and Labrador,CA,47.1738889,-53.5408333,ardac,1.0,True
NL551,Harris Point,,Newfoundland and Labrador,CA,49.2808334,-54.4869444,ardac,0.3,True
NL552,Harrison,,Newfoundland and Labrador,CA,48.9755556,-57.7838889,ardac,7.4,True
NL553,Harrys Brook,,Newfoundland and Labrador,CA,48.666667,-58.265833,ardac,15.1,True
NL554,Hatchet Cove,,Newfoundland and Labrador,CA,48.0286111,-53.7997222,ardac,1.0,True
NL555,Hatchet Harbour,,Newfoundland and Labrador,CA,49.6338889,-54.6227778,ardac,0.6,True
NL556,Hawke Harbour,,Newfoundland and Labrador,CA,53.0422686,-55.8097361,ardac,1.2,True
NL557,Hawke's Bay,,Newfoundland and Labrador,CA,50.6168083,-57.1846972,ardac,1.6,True
NL558,Haystack,,Newfoundland and Labrador,CA,47.6375,-54.0777778,ardac,0.9,True
NL559,Hayward Cove,,Newfoundland and Labrador,CA,49.562804,-54.891531,ardac,0.6,True
NL560,Haywards Cove,,Newfoundland and Labrador,CA,48.8683333,-53.6477778,ardac,12.7,True
NL561,Head Harbour,,Newfoundland and Labrador,CA,49.4961111,-55.6925,ardac,1.8,True
NL562,Head of Bay D'Espoir,,Newfoundland and Labrador,CA,47.9294444,-55.7527778,ardac,1.2,True
NL563,Heart's Content,,Newfoundland and Labrador,CA,47.8498556,-53.3549306,ardac,2.2,True
NL564,Heart's Delight,,Newfoundland and Labrador,CA,47.7747222,-53.4625,ardac,0.5,True
NL565,Heart's Delight-Islington,,Newfoundland and Labrador,CA,47.7720722,-53.4437166,ardac,1.8,True
NL566,Heart's Desire,,Newfoundland and Labrador,CA,47.8156361,-53.4267777,ardac,1.3,True
NL567,Heatherton,,Newfoundland and Labrador,CA,48.2805556,-58.7577778,ardac,1.9,True
NL568,Hebron,,Newfoundland and Labrador,CA,58.1993175,-62.6258544,ardac,0.4,True
NL569,Henley Harbour,,Newfoundland and Labrador,CA,51.9955852,-55.8517801,ardac,1.6,True
NL570,Hermitage,,Newfoundland and Labrador,CA,47.55,-55.9325,ardac,2.0,True
NL571,Hermitage-Sandyville,,Newfoundland and Labrador,CA,47.546214,-55.924428,ardac,1.7,True
NL572,Hibbs Cove,,Newfoundland and Labrador,CA,47.6011111,-53.1847222,ardac,0.9,True
NL573,Hickman's Harbour,,Newfoundland and Labrador,CA,48.1086111,-53.7422222,ardac,1.9,True
NL574,High Beach,,Newfoundland and Labrador,CA,46.8888889,-55.8902778,ardac,1.3,True
NL575,Highlands,,Newfoundland and Labrador,CA,48.1716667,-58.9302778,ardac,3.5,True
NL576,Hillgrade,,Newfoundland and Labrador,CA,49.5719444,-54.7052778,ardac,1.0,True
NL577,Hillview,,Newfoundland and Labrador,CA,48.033889,-53.917222,ardac,0.5,True
NL578,Hodderville,,Newfoundland and Labrador,CA,48.5280556,-53.3013889,ardac,2.4,True
NL579,Hogan's Pond,,Newfoundland and Labrador,CA,47.5844445,-52.8638889,ardac,1.0,True
NL580,Holiday Hill,,Newfoundland and Labrador,CA,47.4625,-53.5366667,ardac,8.7,True
NL581,Holton,,Newfoundland and Labrador,CA,54.574113,-57.2755588,ardac,0.6,True
NL582,Holyrood,,Newfoundland and Labrador,CA,47.3458861,-53.1520305,ardac,8.1,True
NL583,Hoop Cove,,Newfoundland and Labrador,CA,47.6255555,-55.1061111,ardac,0.5,True
NL584,Hooping Harbour,,Newfoundland and Labrador,CA,50.6163889,-56.2655556,ardac,4.9,True
NL585,Hopedale,,Newfoundland and Labrador,CA,55.460711,-60.233242,ardac,1.4,True
NL586,Hopewell,,Newfoundland and Labrador,CA,47.4783333,-53.0522223,ardac,1.3,True
NL587,Horse Islands,,Newfoundland and Labrador,CA,50.2022222,-55.7327778,ardac,0.5,True
NL588,Howards,,Newfoundland and Labrador,CA,48.8,-58.149167,ardac,20.8,True
NL589,Howley,,Newfoundland and Labrador,CA,49.1572028,-57.0995333,ardac,46.9,True
NL590,Hoylestown,,Newfoundland and Labrador,CA,47.5758333,-52.6888889,ardac,1.9,True
NL591,Hughes Brook,,Newfoundland and Labrador,CA,48.9996805,-57.87935,ardac,2.8,True
NL592,Humber Arm South,,Newfoundland and Labrador,CA,49.01565,-58.1677167,ardac,3.9,True
NL593,Humber Canal,,Newfoundland and Labrador,CA,49.1883334,-57.3658334,ardac,35.3,True
NL594,Humber Village,,Newfoundland and Labrador,CA,48.9891666,-57.7638888,ardac,9.0,True
NL595,Hydroville,,Newfoundland and Labrador,CA,49.4699328,-56.1903556,ardac,5.9,True
NL596,Iggiak,,Newfoundland and Labrador,CA,56.2694445,-61.6855555,ardac,1.5,True
NL597,Iglosoataliksoak,,Newfoundland and Labrador,CA,55.266667,-60.365833,ardac,1.1,True
NL598,Iglosuatiliratsuk,,Newfoundland and Labrador,CA,56.8058453,-61.6805575,ardac,0.5,True
NL599,Independent,,Newfoundland and Labrador,CA,53.856985,-56.880481,ardac,5.5,True
NL600,Indian Bay,,Newfoundland and Labrador,CA,49.0641139,-53.96235,ardac,9.6,True
NL601,Indian Burying Place,,Newfoundland and Labrador,CA,49.8283333,-55.74,ardac,1.9,True
NL602,Indian Cove (settlement),,Newfoundland and Labrador,CA,52.2605199,-55.64954,ardac,2.8,True
NL603,Indian Harbour,,Newfoundland and Labrador,CA,47.643889,-58.423889,ardac,0.8,True
NL604,Indian Harbour,,Newfoundland and Labrador,CA,53.7977926,-56.9952078,ardac,1.3,True
NL605,Indian Harbour,,Newfoundland and Labrador,CA,47.4877777,-54.1955556,ardac,2.4,True
NL606,Indian Harbour,,Newfoundland and Labrador,CA,54.4464596,-57.2161651,ardac,0.8,True
NL607,Indian Islands,,Newfoundland and Labrador,CA,49.533333,-54.2325,ardac,4.6,True
NL608,Indian Pond,,Newfoundland and Labrador,CA,47.4597222,-53.0866667,ardac,1.3,True
NL609,Indian Tickle,,Newfoundland and Labrador,CA,53.5553959,-56.0020012,ardac,1.6,True
NL610,Innismara,,Newfoundland and Labrador,CA,49.1037805,-58.2139444,ardac,3.3,True
NL611,Iona,,Newfoundland and Labrador,CA,47.4244444,-53.9730555,ardac,4.9,True
NL612,Ireland's Bight,,Newfoundland and Labrador,CA,51.333333,-55.765555,ardac,3.5,True
NL613,Ireland's Eye,,Newfoundland and Labrador,CA,48.2172222,-53.4955555,ardac,2.6,True
NL614,Irishtown,,Newfoundland and Labrador,CA,48.9838889,-57.9361111,ardac,2.1,True
NL615,Irishtown,,Newfoundland and Labrador,CA,47.3216667,-52.8158333,ardac,2.0,True
NL616,Irishtown-Summerside,,Newfoundland and Labrador,CA,48.987769,-57.954761,ardac,3.5,True
NL617,Irvine,,Newfoundland and Labrador,CA,47.5302778,-52.8794444,ardac,3.8,True
NL618,Island Cove,,Newfoundland and Labrador,CA,48.0030556,-53.7761111,ardac,0.4,True
NL619,Island Harbour,,Newfoundland and Labrador,CA,49.616111,-54.311944,ardac,1.0,True
NL620,Island Harbour,,Newfoundland and Labrador,CA,53.7529055,-56.7844794,ardac,2.0,True
NL621,Isle Valen,,Newfoundland and Labrador,CA,47.4775,-54.3877778,ardac,2.8,True
NL622,Isle aux Morts,,Newfoundland and Labrador,CA,47.5974223,-58.965975,ardac,1.3,True
NL623,Islington,,Newfoundland and Labrador,CA,47.7594444,-53.4786111,ardac,0.6,True
NL624,Ittilliarsuk,,Newfoundland and Labrador,CA,55.250086,-60.065717,ardac,0.6,True
NL625,Ivanhoe,,Newfoundland and Labrador,CA,48.2022222,-53.5147222,ardac,0.5,True
NL626,Jack Ladder,,Newfoundland and Labrador,CA,49.3255555,-57.5327778,ardac,19.3,True
NL627,Jackson's Arm,,Newfoundland and Labrador,CA,49.8652223,-56.8048306,ardac,2.7,True
NL628,Jackson's Cove,,Newfoundland and Labrador,CA,49.6852778,-55.9936111,ardac,2.5,True
NL629,Jacques Fontaine,,Newfoundland and Labrador,CA,47.5230556,-54.9288889,ardac,1.5,True
NL630,Jamestown,,Newfoundland and Labrador,CA,48.4427778,-53.7991667,ardac,0.2,True
NL631,Jean de Gaunt Island,,Newfoundland and Labrador,CA,47.5261111,-54.2722223,ardac,3.7,True
NL632,Jeffrey's,,Newfoundland and Labrador,CA,48.2252778,-58.8430555,ardac,0.3,True
NL633,Jenkins Cove,,Newfoundland and Labrador,CA,49.6688889,-54.7563889,ardac,8.0,True
NL634,Jerrys Nose,,Newfoundland and Labrador,CA,48.5163889,-58.9405556,ardac,0.2,True
NL635,Jersey Harbour,,Newfoundland and Labrador,CA,47.4858333,-55.7611111,ardac,0.1,True
NL636,Jerseyside,,Newfoundland and Labrador,CA,47.2547222,-53.9613889,ardac,0.7,True
NL637,Jim Myles Garden,,Newfoundland and Labrador,CA,47.6769445,-54.7127778,ardac,0.5,True
NL638,Jim's Cove,,Newfoundland and Labrador,CA,49.5133334,-55.6175,ardac,4.2,True
NL639,Job's Cove,,Newfoundland and Labrador,CA,47.9780555,-53.0136111,ardac,1.3,True
NL640,Job's Room,,Newfoundland and Labrador,CA,51.4658333,-56.9486111,ardac,0.8,True
NL641,Joe Batt's Arm,,Newfoundland and Labrador,CA,49.7269444,-54.1725,ardac,0.7,True
NL642,Joe Batt's Arm-Barr'd Islands-Shoal Bay,,Newfoundland and Labrador,CA,49.722625,-54.149056,ardac,0.7,True
NL643,John's Beach,,Newfoundland and Labrador,CA,49.0230556,-58.1441667,ardac,2.7,True
NL644,John's Pond,,Newfoundland and Labrador,CA,47.1472222,-53.6177778,ardac,1.3,True
NL645,Jordan Town,,Newfoundland and Labrador,CA,47.589597,-53.203572,ardac,0.5,True
NL646,Journois,,Newfoundland and Labrador,CA,48.3561111,-58.6811111,ardac,0.4,True
NL647,Joyce,,Newfoundland and Labrador,CA,48.3797222,-58.5922222,ardac,2.8,True
NL648,Jumpers Brook,,Newfoundland and Labrador,CA,49.0263889,-55.4005556,ardac,2.7,True
NL649,Junction Brook,,Newfoundland and Labrador,CA,49.2147222,-57.3991667,ardac,33.0,True
NL650,Juniper Stump,,Newfoundland and Labrador,CA,47.5019444,-53.3033333,ardac,6.9,True
NL651,Kaipokok,,Newfoundland and Labrador,CA,55.066667,-59.5825,ardac,2.1,True
NL652,Kamarsuk,,Newfoundland and Labrador,CA,56.2780555,-61.5930555,ardac,1.0,True
NL653,Kauk Bight,,Newfoundland and Labrador,CA,56.5,-61.715833,ardac,0.2,True
NL654,Keels,,Newfoundland and Labrador,CA,48.6019445,-53.4074445,ardac,2.4,True
NL655,Kelligrews,,Newfoundland and Labrador,CA,47.5061111,-53.0058334,ardac,3.4,True
NL656,Kenney's Cove,,Newfoundland and Labrador,CA,51.066666,-55.798889,ardac,0.2,True
NL657,Kerleys Harbour,,Newfoundland and Labrador,CA,48.2811111,-53.4697223,ardac,1.0,True
NL658,Kettle Cove,,Newfoundland and Labrador,CA,49.5966667,-54.7183333,ardac,3.7,True
NL659,Kilbride,,Newfoundland and Labrador,CA,47.5280555,-52.7411111,ardac,4.8,True
NL660,King's Cove,,Newfoundland and Labrador,CA,48.5589834,-53.3732611,ardac,4.2,True
NL661,King's Point,,Newfoundland and Labrador,CA,49.5807861,-56.208,ardac,2.6,True
NL662,Kingman's,,Newfoundland and Labrador,CA,46.9652778,-52.9408333,ardac,3.3,True
NL663,Kings Cove,,Newfoundland and Labrador,CA,52.575182,-55.7417099,ardac,4.6,True
NL664,Kings Cove,,Newfoundland and Labrador,CA,49.7105555,-55.9,ardac,0.6,True
NL665,Kingston,,Newfoundland and Labrador,CA,47.8252778,-53.1155556,ardac,2.1,True
NL666,Kingwell,,Newfoundland and Labrador,CA,47.5494444,-54.1055556,ardac,1.1,True
NL667,Kippens,,Newfoundland and Labrador,CA,48.5585444,-58.6339833,ardac,3.0,True
NL668,Kirby's Cove,,Newfoundland and Labrador,CA,47.025,-55.1694445,ardac,0.5,True
NL669,Kitchuses,,Newfoundland and Labrador,CA,47.4569444,-53.1838889,ardac,0.6,True
NL670,Kitty's Brook,,Newfoundland and Labrador,CA,49.1863889,-56.9019445,ardac,40.3,True
NL671,Knights Cove,,Newfoundland and Labrador,CA,48.5405556,-53.3222222,ardac,1.3,True
NL672,Knob Lake Junction,,Newfoundland and Labrador,CA,54.750108,-66.782601,ardac,336.4,False
NL673,Koanclikulluk,,Newfoundland and Labrador,CA,55.3,-60.399167,ardac,0.7,True
NL674,L'Anse au Loup,,Newfoundland and Labrador,CA,51.525847,-56.8349304,ardac,1.7,True
NL675,L'Anse-Amour,,Newfoundland and Labrador,CA,51.4677778,-56.8713889,ardac,1.2,True
NL676,L'Anse-au-Clair,,Newfoundland and Labrador,CA,51.4637361,-57.0670944,ardac,4.0,True
NL677,L'Anse-au-Diable,,Newfoundland and Labrador,CA,51.5602778,-56.7561111,ardac,0.4,True
NL678,L'Anse-au-Loup,,Newfoundland and Labrador,CA,47.0838889,-55.6730555,ardac,1.6,True
NL679,L'Anse--l'Eau,,Newfoundland and Labrador,CA,47.01,-55.2038889,ardac,1.3,True
NL680,La Manche,,Newfoundland and Labrador,CA,47.6913889,-53.9391667,ardac,1.3,True
NL681,La Manche,,Newfoundland and Labrador,CA,47.1677778,-52.8638889,ardac,1.2,True
NL682,La Manche Siding,,Newfoundland and Labrador,CA,47.7025,-53.9027778,ardac,4.0,True
NL683,LaScie,,Newfoundland and Labrador,CA,49.949236,-55.610031,ardac,2.6,True
NL684,Labrador City,,Newfoundland and Labrador,CA,52.9605694,-66.9365973,ardac,298.1,False
NL685,Ladle Cove,,Newfoundland and Labrador,CA,49.4688889,-54.055,ardac,0.4,True
NL686,Lady Cove,,Newfoundland and Labrador,CA,48.0938889,-53.8438889,ardac,1.5,True
NL687,Lake Bond,,Newfoundland and Labrador,CA,49.016667,-56.165833,ardac,45.9,True
NL688,Lake Siding,,Newfoundland and Labrador,CA,49.1583334,-57.4491667,ardac,29.4,True
NL689,Lakeview,,Newfoundland and Labrador,CA,47.4202778,-53.1397222,ardac,0.9,True
NL690,Lally Cove,,Newfoundland and Labrador,CA,47.6552778,-55.3691667,ardac,0.5,True
NL691,Lamaline,,Newfoundland and Labrador,CA,46.906572,-55.768875,ardac,4.4,True
NL692,Lancaster,,Newfoundland and Labrador,CA,48.66,-53.0669445,ardac,2.2,True
NL693,Lance Cove,,Newfoundland and Labrador,CA,47.4666667,-53.0619444,ardac,1.3,True
NL694,Lance Cove,,Newfoundland and Labrador,CA,48.6641667,-53.0863889,ardac,1.7,True
NL695,Langdon's Cove,,Newfoundland and Labrador,CA,49.6927778,-55.9772222,ardac,1.3,True
NL696,Lark Harbour,,Newfoundland and Labrador,CA,49.1055056,-58.3923611,ardac,1.6,True
NL697,Lawn,,Newfoundland and Labrador,CA,46.93885,-55.539314,ardac,0.5,True
NL698,Lawrence Pond,,Newfoundland and Labrador,CA,47.4652778,-53.0436111,ardac,2.2,True
NL699,Lead Cove,,Newfoundland and Labrador,CA,48.045,-53.0919444,ardac,0.7,True
NL700,Lead Mines,,Newfoundland and Labrador,CA,47.6877777,-53.9383333,ardac,1.0,True
NL701,Leading Tickles,,Newfoundland and Labrador,CA,49.481925,-55.4271583,ardac,1.8,True
NL702,Leading Tickles East,,Newfoundland and Labrador,CA,49.5,-55.415833,ardac,0.9,True
NL703,Leading Tickles South,,Newfoundland and Labrador,CA,49.4961111,-55.4513889,ardac,0.5,True
NL704,Lears Cove,,Newfoundland and Labrador,CA,46.8502778,-54.1855556,ardac,1.8,True
NL705,Lethbridge,,Newfoundland and Labrador,CA,48.3694445,-53.8611111,ardac,0.4,True
NL706,Lewin's Cove,,Newfoundland and Labrador,CA,47.0873,-55.2189528,ardac,2.6,True
NL707,Lewisporte,,Newfoundland and Labrador,CA,49.2418083,-55.0460194,ardac,1.0,True
NL708,Little Barasway,,Newfoundland and Labrador,CA,47.1780555,-54.0416667,ardac,0.2,True
NL709,Little Bay,,Newfoundland and Labrador,CA,47.1630555,-55.1044444,ardac,1.1,True
NL710,Little Bay,,Newfoundland and Labrador,CA,49.5992389,-55.9518361,ardac,1.5,True
NL711,Little Bay,,Newfoundland and Labrador,CA,47.61664,-56.03251,ardac,0.7,True
NL712,Little Bay East,,Newfoundland and Labrador,CA,47.555833,-54.863889,ardac,0.9,True
NL713,Little Bay Islands,,Newfoundland and Labrador,CA,49.6443361,-55.7974221,ardac,5.1,True
NL714,Little Bay West,,Newfoundland and Labrador,CA,47.5022222,-55.7191667,ardac,0.7,True
NL715,Little Bona,,Newfoundland and Labrador,CA,47.3683334,-54.5663889,ardac,1.4,True
NL716,Little Brehat,,Newfoundland and Labrador,CA,51.4513889,-55.4802778,ardac,1.4,True
NL717,Little Brule,,Newfoundland and Labrador,CA,47.6675,-54.1302778,ardac,0.4,True
NL718,Little Burnt Bay,,Newfoundland and Labrador,CA,49.3397167,-55.0820056,ardac,0.8,True
NL719,Little Catalina,,Newfoundland and Labrador,CA,48.549469,-53.056886,ardac,2.6,True
NL720,Little Harbour,,Newfoundland and Labrador,CA,49.1147183,-57.5127225,ardac,25.8,True
NL721,Little Harbour,,Newfoundland and Labrador,CA,49.6277778,-54.7111111,ardac,4.1,True
NL722,Little Harbour,,Newfoundland and Labrador,CA,49.590743,-54.842247,ardac,0.7,True
NL723,Little Harbour Deep,,Newfoundland and Labrador,CA,50.2494444,-56.5541667,ardac,3.4,True
NL724,Little Harbour East,,Newfoundland and Labrador,CA,47.5961111,-54.86,ardac,1.1,True
NL725,Little Harbour West,,Newfoundland and Labrador,CA,47.383333,-54.799167,ardac,1.2,True
NL726,Little Heart's Ease,,Newfoundland and Labrador,CA,48.0086111,-53.6994444,ardac,1.7,True
NL727,Little Island Cove,,Newfoundland and Labrador,CA,47.4277778,-53.5505556,ardac,12.5,True
NL728,Little Paradise,,Newfoundland and Labrador,CA,47.3602778,-54.5783333,ardac,0.1,True
NL729,Little Port,,Newfoundland and Labrador,CA,49.106944,-58.418611,ardac,1.0,True
NL730,Little Pumbly Cove,,Newfoundland and Labrador,CA,49.7233333,-56.6961111,ardac,4.2,True
NL731,Little Quirpon,,Newfoundland and Labrador,CA,51.5772222,-55.4427778,ardac,1.5,True
NL732,Little Salmonier,,Newfoundland and Labrador,CA,47.0691666,-55.1761111,ardac,0.4,True
NL733,Little Seldom,,Newfoundland and Labrador,CA,49.5991667,-54.2033333,ardac,0.5,True
NL734,Livingston,,Newfoundland and Labrador,CA,53.933417,-66.449282,ardac,357.9,False
NL735,Lobster Cove,,Newfoundland and Labrador,CA,49.6125,-57.9525,ardac,0.6,True
NL736,Lobster Harbour,,Newfoundland and Labrador,CA,49.6038889,-54.6836111,ardac,1.9,True
NL737,Loch Leven,,Newfoundland and Labrador,CA,48.1683334,-58.8638889,ardac,4.9,True
NL738,Lock's Cove,,Newfoundland and Labrador,CA,51.3377778,-55.9555555,ardac,1.2,True
NL739,Locks Cove,,Newfoundland and Labrador,CA,47.6416666,-56.5091666,ardac,2.2,True
NL740,Locks Harbour,,Newfoundland and Labrador,CA,49.450607,-55.510384,ardac,0.8,True
NL741,Lockston,,Newfoundland and Labrador,CA,48.3963889,-53.3755555,ardac,1.8,True
NL742,Lodges,,Newfoundland and Labrador,CA,47.5575,-53.6286111,ardac,0.3,True
NL743,Logy Bay,,Newfoundland and Labrador,CA,47.63,-52.6783333,ardac,3.0,True
NL744,Logy Bay-Middle Cove-Outer Cove,,Newfoundland and Labrador,CA,47.6366889,-52.6870083,ardac,2.7,True
NL745,Lomond,,Newfoundland and Labrador,CA,49.4605555,-57.7613889,ardac,0.6,True
NL746,Lonesome Cove,,Newfoundland and Labrador,CA,51.400043,-56.549031,ardac,4.1,True
NL747,Long Beach,,Newfoundland and Labrador,CA,48.4375,-53.5766667,ardac,1.8,True
NL748,Long Beach,,Newfoundland and Labrador,CA,46.6425,-53.1352778,ardac,1.6,True
NL749,Long Beach,,Newfoundland and Labrador,CA,47.9486111,-53.0544445,ardac,1.4,True
NL750,Long Beach,,Newfoundland and Labrador,CA,47.9963889,-53.8163889,ardac,1.4,True
NL751,Long Cove,,Newfoundland and Labrador,CA,47.0591667,-55.1719445,ardac,0.1,True
NL752,Long Cove,,Newfoundland and Labrador,CA,47.5688889,-53.6716667,ardac,0.9,True
NL753,Long Grade,,Newfoundland and Labrador,CA,47.6116667,-59.2011111,ardac,3.8,True
NL754,Long Harbour,,Newfoundland and Labrador,CA,47.4333333,-53.8152778,ardac,0.6,True
NL755,Long Harbour Station,,Newfoundland and Labrador,CA,47.4655556,-53.7319445,ardac,7.0,True
NL756,Long Harbour-Mount Arlington Heights,,Newfoundland and Labrador,CA,47.4430945,-53.782475,ardac,2.4,True
NL757,Long Point,,Newfoundland and Labrador,CA,48.7661111,-58.7894445,ardac,0.7,True
NL758,Long Pond,,Newfoundland and Labrador,CA,47.5158333,-52.9705555,ardac,1.2,True
NL759,Loran,,Newfoundland and Labrador,CA,52.2480093,-55.6107508,ardac,3.1,True
NL760,Lord's Cove,,Newfoundland and Labrador,CA,46.8984417,-55.6587028,ardac,3.5,True
NL761,Loreburn,,Newfoundland and Labrador,CA,48.0466667,-53.7144444,ardac,1.0,True
NL762,Loretto,,Newfoundland and Labrador,CA,48.502453,-59.150035,ardac,5.5,True
NL763,Lories,,Newfoundland and Labrador,CA,46.9011112,-55.9394444,ardac,0.9,True
NL764,Lourdes,,Newfoundland and Labrador,CA,48.647823,-59.001605,ardac,3.6,True
NL765,Low Point,,Newfoundland and Labrador,CA,48.0597222,-52.9580555,ardac,1.1,True
NL766,Lower Coast,,Newfoundland and Labrador,CA,46.7236111,-53.3802778,ardac,0.7,True
NL767,Lower Cove,,Newfoundland and Labrador,CA,48.5236112,-59.0038889,ardac,2.2,True
NL768,Lower Island Cove,,Newfoundland and Labrador,CA,48.0025,-52.98,ardac,1.0,True
NL769,Lucyville,,Newfoundland and Labrador,CA,54.7713889,-58.4352778,ardac,0.7,True
NL770,Luke's Arm,,Newfoundland and Labrador,CA,49.5097222,-54.8569444,ardac,0.7,True
NL771,Lumsden,,Newfoundland and Labrador,CA,49.2867583,-53.5925417,ardac,2.5,True
NL772,Lumsden South,,Newfoundland and Labrador,CA,49.3,-53.582222,ardac,0.9,True
NL773,Lushes Bight,,Newfoundland and Labrador,CA,49.5930556,-55.7138889,ardac,0.9,True
NL774,Lushes Bight - Beaumont - Beaumont North,,Newfoundland and Labrador,CA,49.612445,-55.699182,ardac,1.1,True
NL775,Maberly,,Newfoundland and Labrador,CA,48.6197222,-53.015,ardac,1.1,True
NL776,Maccles,,Newfoundland and Labrador,CA,48.644136,-54.130291,ardac,13.4,True
NL777,Maddox Cove,,Newfoundland and Labrador,CA,47.4736111,-52.7013889,ardac,1.3,True
NL778,Mahers,,Newfoundland and Labrador,CA,47.3972223,-53.3616667,ardac,13.4,True
NL779,Maidstone,,Newfoundland and Labrador,CA,48.2005556,-58.875,ardac,2.2,True
NL780,Main Brook,,Newfoundland and Labrador,CA,51.1652528,-55.9875694,ardac,0.6,True
NL781,Main Point,,Newfoundland and Labrador,CA,49.3372222,-54.4297222,ardac,1.8,True
NL782,Makkovik,,Newfoundland and Labrador,CA,55.047394,-59.202842,ardac,2.1,True
NL783,Mall Bay,,Newfoundland and Labrador,CA,46.9766666,-53.5872222,ardac,1.0,True
NL784,Man of War Cove,,Newfoundland and Labrador,CA,48.5286111,-58.8111111,ardac,2.0,True
NL785,Manuels,,Newfoundland and Labrador,CA,47.5230556,-52.9536111,ardac,1.4,True
NL786,Manuels Cove,,Newfoundland and Labrador,CA,49.6122222,-54.7347222,ardac,3.8,True
NL787,Maple Valley Industrial Park,,Newfoundland and Labrador,CA,48.95,-57.9169444,ardac,1.4,True
NL788,Marble Mountain Ski Area,,Newfoundland and Labrador,CA,48.945,-57.8286111,ardac,5.1,True
NL789,Marches Point,,Newfoundland and Labrador,CA,48.4972222,-59.135,ardac,4.6,True
NL790,Margaree,,Newfoundland and Labrador,CA,47.5733333,-59.0561111,ardac,1.8,True
NL791,Marquise,,Newfoundland and Labrador,CA,47.2844444,-53.9966667,ardac,0.4,True
NL792,Mary March,,Newfoundland and Labrador,CA,49.0,-56.549167,ardac,56.6,True
NL793,Mary's Harbour,,Newfoundland and Labrador,CA,52.3152777,-55.8336001,ardac,0.6,True
NL794,Marystown,,Newfoundland and Labrador,CA,47.154975,-55.1644334,ardac,2.7,True
NL795,Marystown South,,Newfoundland and Labrador,CA,47.1564,-55.1617,ardac,2.5,True
NL796,Masons Cove,,Newfoundland and Labrador,CA,49.3122223,-55.0361111,ardac,1.4,True
NL797,Massey Drive,,Newfoundland and Labrador,CA,48.9363861,-57.8927417,ardac,3.5,True
NL798,McAndrew,,Newfoundland and Labrador,CA,47.2844444,-53.9791667,ardac,1.6,True
NL799,McIver's,,Newfoundland and Labrador,CA,49.0608417,-58.1094667,ardac,1.9,True
NL800,McKay's,,Newfoundland and Labrador,CA,48.2311111,-58.8202778,ardac,1.6,True
NL801,Meadows,,Newfoundland and Labrador,CA,48.996536,-58.045158,ardac,0.1,True
NL802,Melrose,,Newfoundland and Labrador,CA,48.4805556,-53.0727778,ardac,1.9,True
NL803,Menihek,,Newfoundland and Labrador,CA,54.4744445,-66.6161111,ardac,344.8,False
NL804,Merasheen,,Newfoundland and Labrador,CA,47.4138889,-54.3455555,ardac,1.0,True
NL805,Mercer's Cove,,Newfoundland and Labrador,CA,47.2608334,-55.8697222,ardac,0.8,True
NL806,Mercer's Cove,,Newfoundland and Labrador,CA,47.6036111,-53.2344444,ardac,0.7,True
NL807,Michael's Harbour,,Newfoundland and Labrador,CA,49.2902778,-54.9841667,ardac,0.9,True
NL808,Middle Amherst Cove,,Newfoundland and Labrador,CA,48.5644444,-53.2205555,ardac,0.5,True
NL809,Middle Arm,,Newfoundland and Labrador,CA,49.7030277,-56.1148445,ardac,3.3,True
NL810,Middle Arm,,Newfoundland and Labrador,CA,49.8569445,-56.4397222,ardac,1.6,True
NL811,Middle Arm,,Newfoundland and Labrador,CA,47.4358333,-53.2008333,ardac,0.4,True
NL812,Middle Brook,,Newfoundland and Labrador,CA,48.8022223,-54.2086111,ardac,1.8,True
NL813,Middle Cove,,Newfoundland and Labrador,CA,47.6477778,-52.6958334,ardac,1.4,True
NL814,Middle Gut,,Newfoundland and Labrador,CA,46.7852778,-53.6247223,ardac,1.4,True
NL815,Middle House,,Newfoundland and Labrador,CA,54.1925596,-58.5913496,ardac,2.2,True
NL816,Miles Cove,,Newfoundland and Labrador,CA,49.5401528,-55.7958777,ardac,2.8,True
NL817,Miller's Passage,,Newfoundland and Labrador,CA,47.5180555,-55.6563889,ardac,1.0,True
NL818,Millertown,,Newfoundland and Labrador,CA,48.8119444,-56.5430555,ardac,74.9,True
NL819,Millertown Junction,,Newfoundland and Labrador,CA,49.0086111,-56.3419444,ardac,49.2,True
NL820,Mills Siding,,Newfoundland and Labrador,CA,48.1952778,-53.9663889,ardac,1.8,True
NL821,Milltown,,Newfoundland and Labrador,CA,47.9075,-55.760278,ardac,0.6,True
NL822,Milltown-Head of Bay d'Espoir,,Newfoundland and Labrador,CA,47.925892,-55.744281,ardac,0.4,True
NL823,Millville,,Newfoundland and Labrador,CA,47.8513889,-59.3430556,ardac,1.8,True
NL824,Milton,,Newfoundland and Labrador,CA,48.2161111,-53.9630556,ardac,2.1,True
NL825,Ming's Bight,,Newfoundland and Labrador,CA,49.9747833,-56.0409167,ardac,0.7,True
NL826,Mistaken Cove,,Newfoundland and Labrador,CA,51.3155555,-56.7161111,ardac,0.5,True
NL827,Mitchells Brook,,Newfoundland and Labrador,CA,47.13,-53.5111111,ardac,0.7,True
NL828,Molliers,,Newfoundland and Labrador,CA,47.1038889,-55.6511111,ardac,0.3,True
NL829,Monchy,,Newfoundland and Labrador,CA,48.9711111,-54.7913889,ardac,33.3,True
NL830,Monkstown,,Newfoundland and Labrador,CA,47.5766666,-54.4327778,ardac,1.9,True
NL831,Monroe,,Newfoundland and Labrador,CA,48.2002778,-53.7988889,ardac,0.4,True
NL832,Moore's Cove,,Newfoundland and Labrador,CA,49.5011111,-55.3077778,ardac,3.1,True
NL833,Moores Harbour,,Newfoundland and Labrador,CA,57.5343291,-61.7606947,ardac,0.9,True
NL834,Mooring Cove,,Newfoundland and Labrador,CA,47.1888889,-55.14,ardac,1.4,True
NL835,Morleys Siding,,Newfoundland and Labrador,CA,48.3172222,-53.9075,ardac,6.8,True
NL836,Morrisville,,Newfoundland and Labrador,CA,47.882844,-55.767158,ardac,1.6,True
NL837,Mortier,,Newfoundland and Labrador,CA,47.0886111,-55.1241667,ardac,1.8,True
NL838,Mose Ambrose,,Newfoundland and Labrador,CA,47.4658333,-55.5141667,ardac,0.5,True
NL839,Mosquito,,Newfoundland and Labrador,CA,46.9861111,-53.6877778,ardac,3.4,True
NL840,Mount Arlington Heights,,Newfoundland and Labrador,CA,47.4280556,-53.8547222,ardac,1.3,True
NL841,Mount Carmel,,Newfoundland and Labrador,CA,47.1530556,-53.4752778,ardac,2.6,True
NL842,Mount Carmel-Mitchells Brook-St. Catherine's,,Newfoundland and Labrador,CA,47.186478,-53.422992,ardac,7.6,True
NL843,Mount Cashel,,Newfoundland and Labrador,CA,47.5888889,-52.7111111,ardac,3.5,True
NL844,Mount Moriah,,Newfoundland and Labrador,CA,48.9583917,-58.0708694,ardac,2.3,True
NL845,Mount Pearl,,Newfoundland and Labrador,CA,47.5195306,-52.8118056,ardac,8.4,True
NL846,Mouse Island,,Newfoundland and Labrador,CA,47.5666667,-59.1597222,ardac,0.4,True
NL847,Mud Lake,,Newfoundland and Labrador,CA,53.3055556,-60.1669444,ardac,0.2,True
NL848,Muddy Bay,,Newfoundland and Labrador,CA,53.6530555,-57.0555556,ardac,0.5,True
NL849,Muddy Hole,,Newfoundland and Labrador,CA,47.618914,-56.352269,ardac,1.3,True
NL850,Murphys Cove,,Newfoundland and Labrador,CA,47.445,-54.4761111,ardac,0.3,True
NL851,Musgrave Harbour,,Newfoundland and Labrador,CA,49.4167028,-53.9644222,ardac,3.7,True
NL852,Musgravetown,,Newfoundland and Labrador,CA,48.4140306,-53.8921305,ardac,1.2,True
NL853,Nain,,Newfoundland and Labrador,CA,56.536319,-61.718942,ardac,2.6,True
NL854,Neddy Harbour,,Newfoundland and Labrador,CA,49.5275,-57.8688889,ardac,0.2,True
NL855,New Bonaventure,,Newfoundland and Labrador,CA,48.2841667,-53.4430556,ardac,0.3,True
NL856,New Bridge,,Newfoundland and Labrador,CA,47.1361111,-53.4763889,ardac,1.7,True
NL857,New Burnt Cove,,Newfoundland and Labrador,CA,48.1725,-53.7197222,ardac,2.1,True
NL858,New Chelsea,,Newfoundland and Labrador,CA,48.0244444,-53.2183333,ardac,0.8,True
NL859,New Country Siding,,Newfoundland and Labrador,CA,48.3472222,-53.7372222,ardac,8.0,True
NL860,New Ferolle,,Newfoundland and Labrador,CA,51.0183333,-57.0588889,ardac,0.4,True
NL861,New Harbour,,Newfoundland and Labrador,CA,47.6036111,-54.9680556,ardac,0.4,True
NL862,New Harbour,,Newfoundland and Labrador,CA,47.5994445,-56.6533334,ardac,0.3,True
NL863,New Melbourne,,Newfoundland and Labrador,CA,48.0452778,-53.1552778,ardac,1.9,True
NL864,New Perlican,,Newfoundland and Labrador,CA,47.9069389,-53.3271,ardac,2.0,True
NL865,New-Wes-Valley,,Newfoundland and Labrador,CA,49.1531389,-53.6266722,ardac,2.4,True
NL866,Newport,,Newfoundland and Labrador,CA,49.0441666,-53.6425,ardac,2.5,True
NL867,Newton,,Newfoundland and Labrador,CA,47.6597223,-52.7169445,ardac,0.7,True
NL868,Newtown,,Newfoundland and Labrador,CA,49.2052778,-53.5219444,ardac,1.3,True
NL869,Newtown,,Newfoundland and Labrador,CA,47.3641666,-53.1794445,ardac,7.0,True
NL870,Nicholsville,,Newfoundland and Labrador,CA,49.190556,-57.454167,ardac,28.9,True
NL871,Nickey's Nose Cove,,Newfoundland and Labrador,CA,49.6921356,-55.970928,ardac,1.1,True
NL872,Nippers Harbour,,Newfoundland and Labrador,CA,49.7933334,-55.8702778,ardac,4.6,True
NL873,Noels Pond,,Newfoundland and Labrador,CA,48.5636111,-58.5141667,ardac,5.3,True
NL874,Norman's Cove,,Newfoundland and Labrador,CA,47.56,-53.6658333,ardac,1.2,True
NL875,Norman's Cove-Long Cove,,Newfoundland and Labrador,CA,47.5459305,-53.6899055,ardac,2.6,True
NL876,Normans Bay,,Newfoundland and Labrador,CA,52.937622,-55.909179,ardac,1.5,True
NL877,Norris Arm,,Newfoundland and Labrador,CA,49.0773444,-55.2379028,ardac,1.5,True
NL878,Norris Point,,Newfoundland and Labrador,CA,49.5186111,-57.8725,ardac,1.0,True
NL879,Norris Point,,Newfoundland and Labrador,CA,49.5194444,-57.8725,ardac,0.9,True
NL880,North Bay,,Newfoundland and Labrador,CA,47.8041667,-58.3258333,ardac,6.1,True
NL881,North Boat Harbour,,Newfoundland and Labrador,CA,51.5902778,-55.9877778,ardac,1.9,True
NL882,North Cove,,Newfoundland and Labrador,CA,53.783333,-56.482222,ardac,0.7,True
NL883,North East Croque,,Newfoundland and Labrador,CA,51.055836,-55.802803,ardac,0.5,True
NL884,North Harbour,,Newfoundland and Labrador,CA,47.1502778,-53.665,ardac,1.2,True
NL885,North Harbour South,,Newfoundland and Labrador,CA,47.1502778,-53.6511111,ardac,0.4,True
NL886,North Pond Heights,,Newfoundland and Labrador,CA,47.6527778,-52.7327778,ardac,2.1,True
NL887,North River,,Newfoundland and Labrador,CA,47.54345,-53.3130305,ardac,4.4,True
NL888,North River,,Newfoundland and Labrador,CA,53.8190197,-57.1036152,ardac,0.5,True
NL889,North Samson Island,,Newfoundland and Labrador,CA,49.5,-54.949167,ardac,5.3,True
NL890,North Shore,,Newfoundland and Labrador,CA,48.6897222,-54.0244444,ardac,5.5,True
NL891,North Side,,Newfoundland and Labrador,CA,46.9611111,-52.9319445,ardac,2.6,True
NL892,North Valley,,Newfoundland and Labrador,CA,47.5488889,-53.3030556,ardac,3.5,True
NL893,North West Arm,,Newfoundland and Labrador,CA,47.5855556,-53.2822222,ardac,2.3,True
NL894,North West Arm,,Newfoundland and Labrador,CA,49.1338889,-53.6241667,ardac,1.0,True
NL895,North West Brook - Ivany's Cove,,Newfoundland and Labrador,CA,48.03,-53.957222,ardac,2.5,True
NL896,North West River,,Newfoundland and Labrador,CA,53.53545,-60.1440055,ardac,0.0,True
NL897,Northeast Arm Harbour Deep,,Newfoundland and Labrador,CA,50.4008333,-56.4911111,ardac,1.3,True
NL898,Northeast Crouse,,Newfoundland and Labrador,CA,50.9277778,-55.8516667,ardac,1.1,True
NL899,Northeast Harbour Buffett,,Newfoundland and Labrador,CA,47.5363889,-54.0713889,ardac,0.6,True
NL900,Northern,,Newfoundland and Labrador,CA,49.1836111,-57.3388889,ardac,37.3,True
NL901,Northern Arm,,Newfoundland and Labrador,CA,49.1861222,-55.3862583,ardac,2.2,True
NL902,Northern Bay,,Newfoundland and Labrador,CA,47.9444444,-53.0655555,ardac,1.6,True
NL903,Northern Bight,,Newfoundland and Labrador,CA,48.0152778,-54.0008333,ardac,6.1,True
NL904,Northside,,Newfoundland and Labrador,CA,47.6061111,-53.9333334,ardac,0.8,True
NL905,Notre Dame Junction,,Newfoundland and Labrador,CA,49.1263889,-55.0847222,ardac,7.3,True
NL906,Nuggetville,,Newfoundland and Labrador,CA,47.3372222,-53.5572222,ardac,14.9,True
NL907,Nutak,,Newfoundland and Labrador,CA,57.4817577,-61.8308122,ardac,1.3,True
NL908,O'Brien,,Newfoundland and Labrador,CA,49.0497223,-54.9933333,ardac,16.2,True
NL909,O'Regan's,,Newfoundland and Labrador,CA,47.8594445,-59.2297222,ardac,9.0,True
NL910,Ocean Pond,,Newfoundland and Labrador,CA,47.4233333,-53.4236111,ardac,16.3,True
NL911,Ochre Pit Cove,,Newfoundland and Labrador,CA,47.9094445,-53.0702778,ardac,0.8,True
NL912,Oderin,,Newfoundland and Labrador,CA,47.2930556,-54.7994445,ardac,1.6,True
NL913,Okak,,Newfoundland and Labrador,CA,57.5643338,-61.9830346,ardac,1.3,True
NL914,Old Bonaventure,,Newfoundland and Labrador,CA,48.2875,-53.4291667,ardac,1.2,True
NL915,Old Mill,,Newfoundland and Labrador,CA,47.76228,-57.2920099,ardac,13.7,True
NL916,Old Perlican,,Newfoundland and Labrador,CA,48.0871306,-52.9944472,ardac,2.2,True
NL917,Open Hall,,Newfoundland and Labrador,CA,48.5483333,-53.4819444,ardac,1.7,True
NL918,Opocopa,,Newfoundland and Labrador,CA,53.0417435,-66.6118348,ardac,305.3,False
NL919,Oreway,,Newfoundland and Labrador,CA,52.5666667,-65.8827778,ardac,250.8,False
NL920,Osmond,,Newfoundland and Labrador,CA,47.6238889,-59.2611111,ardac,1.8,True
NL921,Otter's Point,,Newfoundland and Labrador,CA,47.6830639,-58.0171014,ardac,0.5,True
NL922,Otterbury,,Newfoundland and Labrador,CA,47.6786111,-53.2502777,ardac,5.2,True
NL923,Otterbury,,Newfoundland and Labrador,CA,47.5788889,-52.8961111,ardac,0.9,True
NL924,Otterbury,,Newfoundland and Labrador,CA,47.5558333,-53.2730556,ardac,1.1,True
NL925,Our Harbour,,Newfoundland and Labrador,CA,47.6102777,-57.6094444,ardac,1.7,True
NL926,Outer Cove,,Newfoundland and Labrador,CA,47.6466667,-52.6805556,ardac,1.8,True
NL927,Packs Harbour,,Newfoundland and Labrador,CA,53.8563597,-56.9843693,ardac,5.0,True
NL928,Pacquet,,Newfoundland and Labrador,CA,49.992475,-55.8973083,ardac,3.4,True
NL929,Paddock's Bight,,Newfoundland and Labrador,CA,49.5661111,-55.78,ardac,3.8,True
NL930,Paradise,,Newfoundland and Labrador,CA,55.514159,-60.079965,ardac,8.0,True
NL931,Paradise,,Newfoundland and Labrador,CA,47.5346416,-52.8839778,ardac,3.2,True
NL932,Paradise,,Newfoundland and Labrador,CA,49.665801,-54.782202,ardac,7.3,True
NL933,Paradise Point,,Newfoundland and Labrador,CA,53.4377778,-57.2991666,ardac,0.3,True
NL934,Paradise River,,Newfoundland and Labrador,CA,53.4405556,-57.2730556,ardac,0.5,True
NL935,Pardy Island,,Newfoundland and Labrador,CA,47.0402778,-55.1444444,ardac,0.3,True
NL936,Parkers Cove,,Newfoundland and Labrador,CA,47.3984917,-54.8605778,ardac,1.4,True
NL937,Parkview,,Newfoundland and Labrador,CA,49.5244444,-54.7563889,ardac,1.4,True
NL938,Parson's Pond,,Newfoundland and Labrador,CA,50.0369278,-57.6969917,ardac,0.7,True
NL939,Parsons Harbour,,Newfoundland and Labrador,CA,47.5997222,-56.6533334,ardac,0.3,True
NL940,Parsons Point,,Newfoundland and Labrador,CA,49.0422222,-53.8738889,ardac,2.7,True
NL941,Pasadena,,Newfoundland and Labrador,CA,49.0119334,-57.5684833,ardac,23.5,True
NL942,Pass Island,,Newfoundland and Labrador,CA,47.4897223,-56.1952778,ardac,2.5,True
NL943,Pateyville,,Newfoundland and Labrador,CA,51.3566667,-55.5722223,ardac,0.5,True
NL944,Path End,,Newfoundland and Labrador,CA,46.8955555,-53.5505556,ardac,1.2,True
NL945,Path End,,Newfoundland and Labrador,CA,47.8561111,-53.9422222,ardac,1.1,True
NL946,Path End,,Newfoundland and Labrador,CA,46.8441667,-52.9477778,ardac,1.1,True
NL947,Path End,,Newfoundland and Labrador,CA,47.0472222,-55.1708334,ardac,1.3,True
NL948,Patrick's Cove,,Newfoundland and Labrador,CA,47.0361111,-54.1130555,ardac,0.8,True
NL949,Patricks Harbour,,Newfoundland and Labrador,CA,47.680211,-56.008557,ardac,3.0,True
NL950,Pays Cove,,Newfoundland and Labrador,CA,47.666666,-54.8325,ardac,2.5,True
NL951,Peaches Cove,,Newfoundland and Labrador,CA,47.6755556,-54.0811111,ardac,0.7,True
NL952,Peachytown,,Newfoundland and Labrador,CA,47.5013889,-52.9963889,ardac,3.4,True
NL953,Penetanguishene,,Newfoundland and Labrador,CA,47.6052778,-52.7516667,ardac,6.9,True
NL954,Penguin Arm,,Newfoundland and Labrador,CA,49.165659,-57.987817,ardac,1.4,True
NL955,Pentons Heights,,Newfoundland and Labrador,CA,49.717778,-54.134722,ardac,1.7,True
NL956,Perry's Cove,,Newfoundland and Labrador,CA,47.8,-53.149167,ardac,1.1,True
NL957,Peter's River,,Newfoundland and Labrador,CA,46.7625,-53.6066666,ardac,0.4,True
NL958,Peterview,,Newfoundland and Labrador,CA,49.1074583,-55.3388167,ardac,1.7,True
NL959,Petit Jardin,,Newfoundland and Labrador,CA,48.4708333,-59.2316666,ardac,0.4,True
NL960,Petites,,Newfoundland and Labrador,CA,47.618889,-58.633889,ardac,0.8,True
NL961,Petries,,Newfoundland and Labrador,CA,48.9594445,-58.0094444,ardac,2.6,True
NL962,Petty Harbour,,Newfoundland and Labrador,CA,47.4680555,-52.7086111,ardac,1.4,True
NL963,Petty Harbour,,Newfoundland and Labrador,CA,52.4073503,-55.6727083,ardac,0.8,True
NL964,Petty Harbour-Maddox Cove,,Newfoundland and Labrador,CA,47.4731556,-52.7071833,ardac,1.6,True
NL965,Piccadilly,,Newfoundland and Labrador,CA,48.5525,-58.9141667,ardac,1.2,True
NL966,Piccadilly Slant,,Newfoundland and Labrador,CA,48.5730556,-58.9091667,ardac,1.1,True
NL967,Piccaire,,Newfoundland and Labrador,CA,47.61,-55.9313889,ardac,0.6,True
NL968,Pick Eyes,,Newfoundland and Labrador,CA,47.5997222,-53.1833333,ardac,0.7,True
NL969,Pigeon Cove,,Newfoundland and Labrador,CA,51.2030556,-56.7844444,ardac,0.5,True
NL970,Pikes Arm,,Newfoundland and Labrador,CA,49.645,-54.5847222,ardac,1.5,True
NL971,Pilley's Island,,Newfoundland and Labrador,CA,49.5277056,-55.7158528,ardac,1.6,True
NL972,Pinchards Island,,Newfoundland and Labrador,CA,49.2,-53.4886111,ardac,0.4,True
NL973,Pines Cove,,Newfoundland and Labrador,CA,51.366708,-56.599034,ardac,4.9,True
NL974,Pinginak,,Newfoundland and Labrador,CA,55.333333,-60.399167,ardac,0.5,True
NL975,Pinsent,,Newfoundland and Labrador,CA,49.4338889,-54.0491667,ardac,0.8,True
NL976,Pinware,,Newfoundland and Labrador,CA,51.6219444,-56.7138889,ardac,1.9,True
NL977,Pitaga,,Newfoundland and Labrador,CA,52.45,-65.7994444,ardac,237.7,False
NL978,Pitts Harbour,,Newfoundland and Labrador,CA,52.0160051,-55.894233,ardac,1.1,True
NL979,Placentia,,Newfoundland and Labrador,CA,47.2705222,-53.9050916,ardac,4.4,True
NL980,Placentia Junction,,Newfoundland and Labrador,CA,47.383333,-53.665833,ardac,11.7,True
NL981,Plate Cove East,,Newfoundland and Labrador,CA,48.5166667,-53.4872222,ardac,0.3,True
NL982,Plate Cove West,,Newfoundland and Labrador,CA,48.489294,-53.510128,ardac,0.5,True
NL983,Pleasantville,,Newfoundland and Labrador,CA,47.5877778,-52.6805556,ardac,1.2,True
NL984,Plum Point,,Newfoundland and Labrador,CA,51.0730555,-56.8802778,ardac,0.6,True
NL985,Point Crewe,,Newfoundland and Labrador,CA,46.916667,-55.965833,ardac,0.2,True
NL986,Point Enrage,,Newfoundland and Labrador,CA,47.3894444,-55.2933334,ardac,2.3,True
NL987,Point La Haye,,Newfoundland and Labrador,CA,46.8919445,-53.5986111,ardac,0.6,True
NL988,Point Lance,,Newfoundland and Labrador,CA,46.8261611,-54.085025,ardac,2.3,True
NL989,Point Leamington,,Newfoundland and Labrador,CA,49.3198666,-55.4141,ardac,2.8,True
NL990,Point May,,Newfoundland and Labrador,CA,46.9452555,-55.9358056,ardac,3.8,True
NL991,Point Rosie,,Newfoundland and Labrador,CA,47.3886111,-55.29,ardac,2.1,True
NL992,Point Verde,,Newfoundland and Labrador,CA,47.2297222,-54.0025,ardac,0.8,True
NL993,Point au Gaul,,Newfoundland and Labrador,CA,46.8671222,-55.7472111,ardac,0.6,True
NL994,Point au Mal,,Newfoundland and Labrador,CA,48.6605555,-58.6611112,ardac,2.3,True
NL995,Point of Bay,,Newfoundland and Labrador,CA,49.2770277,-55.2679083,ardac,3.5,True
NL996,Pointe  l'Aurore,,Newfoundland and Labrador,CA,51.0944445,-55.7505555,ardac,0.8,True
NL997,Pollards Point,,Newfoundland and Labrador,CA,49.7475,-56.8955555,ardac,0.6,True
NL998,Pond Cove,,Newfoundland and Labrador,CA,51.1275,-56.8613889,ardac,1.0,True
NL999,Pool's Cove,,Newfoundland and Labrador,CA,47.68255,-55.4343944,ardac,0.4,True
NL1000,Pool's Island,,Newfoundland and Labrador,CA,49.1122223,-53.5841667,ardac,1.6,True
NL1001,Popes Harbour,,Newfoundland and Labrador,CA,48.2358333,-53.57,ardac,1.6,True
NL1002,Port Anne,,Newfoundland and Labrador,CA,47.3855556,-54.7027777,ardac,0.2,True
NL1003,Port Anson,,Newfoundland and Labrador,CA,49.5366639,-55.8520028,ardac,2.1,True
NL1004,Port Blandford,,Newfoundland and Labrador,CA,48.3414861,-54.1775472,ardac,3.4,True
NL1005,Port Elizabeth,,Newfoundland and Labrador,CA,47.266667,-54.8825,ardac,4.0,True
NL1006,Port Hope Simpson,,Newfoundland and Labrador,CA,52.5433334,-56.2977778,ardac,0.7,True
NL1007,Port Kirwan,,Newfoundland and Labrador,CA,46.9822056,-52.9176361,ardac,1.9,True
NL1008,Port Nelson,,Newfoundland and Labrador,CA,49.0822223,-53.6194444,ardac,2.6,True
NL1009,Port Rexton,,Newfoundland and Labrador,CA,48.3995278,-53.3245444,ardac,1.8,True
NL1010,Port Royal,,Newfoundland and Labrador,CA,47.5275,-54.0977778,ardac,0.5,True
NL1011,Port Saunders,,Newfoundland and Labrador,CA,50.6620167,-57.2538723,ardac,1.2,True
NL1012,Port Union,,Newfoundland and Labrador,CA,48.4975,-53.0822223,ardac,2.6,True
NL1013,Port au Bras,,Newfoundland and Labrador,CA,47.058056,-55.133889,ardac,1.2,True
NL1014,Port au Choix,,Newfoundland and Labrador,CA,50.7050139,-57.3270028,ardac,0.9,True
NL1015,Port au Port,,Newfoundland and Labrador,CA,48.5580556,-58.7172222,ardac,1.0,True
NL1016,Port au Port East,,Newfoundland and Labrador,CA,48.5804306,-58.6711361,ardac,2.6,True
NL1017,Port au Port West-Aguathuna-Felix Cove,,Newfoundland and Labrador,CA,48.54625,-58.7731222,ardac,2.0,True
NL1018,Port de Grave,,Newfoundland and Labrador,CA,47.585,-53.2133333,ardac,0.5,True
NL1019,Porterville,,Newfoundland and Labrador,CA,49.2569444,-55.1858334,ardac,2.2,True
NL1020,Portland,,Newfoundland and Labrador,CA,48.4288889,-53.8188889,ardac,0.9,True
NL1021,Portugal Cove,,Newfoundland and Labrador,CA,47.6277778,-52.8555556,ardac,0.5,True
NL1022,Portugal Cove South,,Newfoundland and Labrador,CA,46.7044445,-53.2561111,ardac,1.4,True
NL1023,Portugal Cove-St. Philip's,,Newfoundland and Labrador,CA,47.6254028,-52.8380222,ardac,1.0,True
NL1024,Postville,,Newfoundland and Labrador,CA,54.91023,-59.802161,ardac,0.3,True
NL1025,Pouch Cove,,Newfoundland and Labrador,CA,47.7616666,-52.7708333,ardac,1.9,True
NL1026,Pouch Cove,,Newfoundland and Labrador,CA,47.7464916,-52.7774333,ardac,3.1,True
NL1027,Pound Cove,,Newfoundland and Labrador,CA,49.1761111,-53.56,ardac,1.5,True
NL1028,Pound Cove,,Newfoundland and Labrador,CA,49.7883333,-56.6297222,ardac,3.4,True
NL1029,Presque,,Newfoundland and Labrador,CA,47.4236111,-54.4883334,ardac,1.1,True
NL1030,Princeton,,Newfoundland and Labrador,CA,48.4175,-53.59,ardac,0.5,True
NL1031,Pritchetts,,Newfoundland and Labrador,CA,48.8241667,-54.2830555,ardac,7.7,True
NL1032,Prowseton,,Newfoundland and Labrador,CA,47.6775,-54.3219445,ardac,1.2,True
NL1033,Pumbly Cove,,Newfoundland and Labrador,CA,49.7372222,-56.6738889,ardac,6.4,True
NL1034,Purbeck's Cove,,Newfoundland and Labrador,CA,49.7488889,-56.6491666,ardac,7.8,True
NL1035,Pushthrough,,Newfoundland and Labrador,CA,47.642684,-56.158771,ardac,0.0,True
NL1036,Pynns,,Newfoundland and Labrador,CA,49.0922222,-57.5441666,ardac,24.6,True
NL1037,Quarry,,Newfoundland and Labrador,CA,49.0516667,-56.5872222,ardac,53.5,True
NL1038,Queen's Cove,,Newfoundland and Labrador,CA,48.009444,-53.927222,ardac,1.9,True
NL1039,Quidi Vidi,,Newfoundland and Labrador,CA,47.5805555,-52.6777777,ardac,1.2,True
NL1040,Rabbit Town,,Newfoundland and Labrador,CA,47.5636111,-52.7255555,ardac,2.9,True
NL1041,Raleigh,,Newfoundland and Labrador,CA,51.5588889,-55.7286111,ardac,0.4,True
NL1042,Ramah,,Newfoundland and Labrador,CA,58.8669442,-63.2491666,ardac,0.9,True
NL1043,Rambler,,Newfoundland and Labrador,CA,49.8944444,-56.0802778,ardac,6.9,True
NL1044,Ramea,,Newfoundland and Labrador,CA,47.5206972,-57.3944695,ardac,9.0,True
NL1045,Random Heights,,Newfoundland and Labrador,CA,48.1733333,-53.9325,ardac,0.8,True
NL1046,Rantem,,Newfoundland and Labrador,CA,47.6944445,-53.8583334,ardac,1.6,True
NL1047,Rantem Station,,Newfoundland and Labrador,CA,47.6688889,-53.8747222,ardac,4.7,True
NL1048,Rattling Brook,,Newfoundland and Labrador,CA,49.0725,-55.3111111,ardac,0.5,True
NL1049,Raymond Point,,Newfoundland and Labrador,CA,47.7027777,-55.9405555,ardac,1.9,True
NL1050,Red Bay,,Newfoundland and Labrador,CA,51.7327778,-56.4277778,ardac,1.1,True
NL1051,Red Brook,,Newfoundland and Labrador,CA,48.4916666,-59.1597222,ardac,6.0,True
NL1052,Red Cliff,,Newfoundland and Labrador,CA,48.9488889,-55.7647222,ardac,30.0,True
NL1053,Red Cliff,,Newfoundland and Labrador,CA,48.5591667,-53.4902778,ardac,2.0,True
NL1054,Red Cove,,Newfoundland and Labrador,CA,47.5338888,-55.6180556,ardac,0.9,True
NL1055,Red Harbour,,Newfoundland and Labrador,CA,47.2927334,-55.002225,ardac,1.7,True
NL1056,Red Head Cove,,Newfoundland and Labrador,CA,48.1288889,-52.8961111,ardac,2.3,True
NL1057,Red Island,,Newfoundland and Labrador,CA,47.4,-54.1563889,ardac,0.9,True
NL1058,Red Island,,Newfoundland and Labrador,CA,47.6331381,-57.504909,ardac,0.1,True
NL1059,Red Point,,Newfoundland and Labrador,CA,53.4933912,-55.8863259,ardac,0.6,True
NL1060,Red Rocks,,Newfoundland and Labrador,CA,47.6680555,-59.3119445,ardac,0.6,True
NL1061,Redore,,Newfoundland and Labrador,CA,54.6501,-66.665937,ardac,336.2,False
NL1062,Reefs Harbour,,Newfoundland and Labrador,CA,51.0144445,-57.0125,ardac,0.6,True
NL1063,Reginaville,,Newfoundland and Labrador,CA,47.016666,-53.6825,ardac,4.4,True
NL1064,Reids Fishing Room,,Newfoundland and Labrador,CA,47.5244445,-53.6719445,ardac,0.3,True
NL1065,Reids Room,,Newfoundland and Labrador,CA,47.5694445,-53.5644445,ardac,1.2,True
NL1066,Reidville,,Newfoundland and Labrador,CA,49.2595195,-57.3674916,ardac,32.9,True
NL1067,Rencontre East,,Newfoundland and Labrador,CA,47.6375,-55.215278,ardac,1.6,True
NL1068,Rencontre West,,Newfoundland and Labrador,CA,47.615,-56.6811111,ardac,0.5,True
NL1069,Renews,,Newfoundland and Labrador,CA,46.9269444,-52.9327778,ardac,2.4,True
NL1070,Renews-Cappahayden,,Newfoundland and Labrador,CA,46.8980555,-52.9477778,ardac,2.6,True
NL1071,Rexons Cove,,Newfoundland and Labrador,CA,52.5809634,-55.8757564,ardac,3.4,True
NL1072,Richard's Harbour,,Newfoundland and Labrador,CA,47.611017,-56.399691,ardac,0.9,True
NL1073,Ricketts Bridge,,Newfoundland and Labrador,CA,47.6,-52.732222,ardac,5.3,True
NL1074,Rigolet,,Newfoundland and Labrador,CA,54.179068,-58.431039,ardac,1.9,True
NL1075,Rioux,,Newfoundland and Labrador,CA,48.2066667,-54.0430556,ardac,7.4,True
NL1076,River Brook,,Newfoundland and Labrador,CA,48.143881,-58.806539,ardac,8.9,True
NL1077,River of Ponds,,Newfoundland and Labrador,CA,50.5303944,-57.3829889,ardac,1.9,True
NL1078,Riverdale,,Newfoundland and Labrador,CA,47.4933333,-53.0216667,ardac,1.6,True
NL1079,Riverhead,,Newfoundland and Labrador,CA,46.9780556,-52.9577777,ardac,4.7,True
NL1080,Riverhead,,Newfoundland and Labrador,CA,46.7638889,-53.3513889,ardac,2.8,True
NL1081,Riverhead,,Newfoundland and Labrador,CA,47.5308333,-53.2047222,ardac,1.9,True
NL1082,Riverhead,,Newfoundland and Labrador,CA,47.8855555,-53.085,ardac,1.8,True
NL1083,Riverhead,,Newfoundland and Labrador,CA,46.9934694,-53.4833,ardac,4.3,True
NL1084,Riverhead,,Newfoundland and Labrador,CA,47.6691666,-53.2616667,ardac,4.6,True
NL1085,Riverview Siding,,Newfoundland and Labrador,CA,47.8680555,-59.1175,ardac,16.9,True
NL1086,Robert,,Newfoundland and Labrador,CA,50.7869444,-56.0341667,ardac,1.8,True
NL1087,Robert's Arm,,Newfoundland and Labrador,CA,49.4766556,-55.8347694,ardac,3.9,True
NL1088,Robinson Bight,,Newfoundland and Labrador,CA,48.1,-53.8,ardac,1.0,True
NL1089,Robinsons,,Newfoundland and Labrador,CA,48.2483334,-58.8086111,ardac,0.8,True
NL1090,Rocketts Cove,,Newfoundland and Labrador,CA,51.916666,-55.982222,ardac,3.0,True
NL1091,Rocky Harbour,,Newfoundland and Labrador,CA,49.5955556,-57.9205556,ardac,0.1,True
NL1092,Rocky Harbour,,Newfoundland and Labrador,CA,49.5944445,-57.9194445,ardac,0.3,True
NL1093,Roddickton-Bide Arm,,Newfoundland and Labrador,CA,50.848557,-56.110637,ardac,1.3,True
NL1094,Rodgers Cove,,Newfoundland and Labrador,CA,49.3,-54.499167,ardac,2.6,True
NL1095,Romaines,,Newfoundland and Labrador,CA,48.5563889,-58.6891666,ardac,1.1,True
NL1096,Rose Bay Junction,,Newfoundland and Labrador,CA,53.05,-66.1994444,ardac,304.3,False
NL1097,Rose Blanche,,Newfoundland and Labrador,CA,47.6127778,-58.6947222,ardac,1.4,True
NL1098,Rose Blanche-Harbour Le Cou,,Newfoundland and Labrador,CA,47.6210222,-58.6902471,ardac,2.4,True
NL1099,Rose au Rue,,Newfoundland and Labrador,CA,47.516667,-54.1825,ardac,1.1,True
NL1100,Rosedale,,Newfoundland and Labrador,CA,48.6925,-53.9563889,ardac,1.2,True
NL1101,Ross Bay,,Newfoundland and Labrador,CA,52.9130556,-66.1936111,ardac,289.2,False
NL1102,Ross Bay Junction,,Newfoundland and Labrador,CA,53.05,-66.1994444,ardac,304.3,False
NL1103,Rouge Harbour,,Newfoundland and Labrador,CA,49.7636111,-55.9144445,ardac,4.2,True
NL1104,Round Cove,,Newfoundland and Labrador,CA,47.6536111,-55.7147222,ardac,0.7,True
NL1105,Round Harbour,,Newfoundland and Labrador,CA,48.983333,-53.749167,ardac,1.7,True
NL1106,Round Harbour,,Newfoundland and Labrador,CA,47.6155556,-56.0063889,ardac,2.6,True
NL1107,Round Harbour,,Newfoundland and Labrador,CA,49.8513889,-55.6683333,ardac,1.6,True
NL1108,Roundabout,,Newfoundland and Labrador,CA,46.916667,-55.5825,ardac,1.1,True
NL1109,Rushoon,,Newfoundland and Labrador,CA,47.3513028,-54.9201111,ardac,0.9,True
NL1110,Rushy Pond,,Newfoundland and Labrador,CA,48.9545337,-55.687702,ardac,24.6,True
NL1111,Russell,,Newfoundland and Labrador,CA,48.9644444,-57.8063889,ardac,5.8,True
NL1112,Safe Harbour,,Newfoundland and Labrador,CA,49.1041667,-53.6186111,ardac,0.2,True
NL1113,Sagona Island,,Newfoundland and Labrador,CA,47.3677778,-55.7861111,ardac,10.1,True
NL1114,Saint Annes Industrial Park,,Newfoundland and Labrador,CA,47.53,-52.8286111,ardac,6.7,True
NL1115,Sally's Cove,,Newfoundland and Labrador,CA,49.7238667,-57.9310944,ardac,2.2,True
NL1116,Salmon Bight,,Newfoundland and Labrador,CA,53.4597447,-55.7619606,ardac,0.8,True
NL1117,Salmon Cove,,Newfoundland and Labrador,CA,47.5419444,-53.2633333,ardac,1.5,True
NL1118,Salmon Cove,,Newfoundland and Labrador,CA,47.7800306,-53.1732472,ardac,2.2,True
NL1119,Salmon Rock,,Newfoundland and Labrador,CA,51.2627778,-56.7633334,ardac,0.4,True
NL1120,Salmonier,,Newfoundland and Labrador,CA,47.0641667,-55.2094444,ardac,0.6,True
NL1121,Salt Harbour,,Newfoundland and Labrador,CA,49.6413889,-54.6211111,ardac,0.6,True
NL1122,Salt Pans,,Newfoundland and Labrador,CA,49.566666,-54.699166,ardac,0.5,True
NL1123,Salt Pond,,Newfoundland and Labrador,CA,47.0944444,-55.1927778,ardac,2.2,True
NL1124,Salt Pond Cove,,Newfoundland and Labrador,CA,49.3041667,-55.0255555,ardac,2.1,True
NL1125,Salvage,,Newfoundland and Labrador,CA,48.6732139,-53.6629333,ardac,1.5,True
NL1126,Salvation,,Newfoundland and Labrador,CA,55.466667,-60.215833,ardac,0.2,True
NL1127,Samson Island,,Newfoundland and Labrador,CA,49.5,-54.949167,ardac,5.3,True
NL1128,Samson's Island,,Newfoundland and Labrador,CA,49.5,-54.949167,ardac,5.3,True
NL1129,Sand Pits,,Newfoundland and Labrador,CA,47.5680556,-52.7297222,ardac,3.4,True
NL1130,Sandringham,,Newfoundland and Labrador,CA,48.6589444,-53.8274778,ardac,3.3,True
NL1131,Sandy Beach,,Newfoundland and Labrador,CA,47.5352778,-53.2372223,ardac,1.4,True
NL1132,Sandy Cove,,Newfoundland and Labrador,CA,48.6475861,-53.7085834,ardac,0.9,True
NL1133,Sandy Harbour,,Newfoundland and Labrador,CA,47.675,-54.3313889,ardac,1.2,True
NL1134,Sandy Hook,,Newfoundland and Labrador,CA,52.5287703,-55.7996163,ardac,2.1,True
NL1135,Sandy Point,,Newfoundland and Labrador,CA,47.0577778,-55.1808333,ardac,0.8,True
NL1136,Sandy Point,,Newfoundland and Labrador,CA,48.454239,-58.505594,ardac,0.9,True
NL1137,Sandy Point,,Newfoundland and Labrador,CA,49.2088889,-55.2913888,ardac,0.9,True
NL1138,Saunders Cove,,Newfoundland and Labrador,CA,48.7013889,-54.0105556,ardac,4.3,True
NL1139,Savage Cove,,Newfoundland and Labrador,CA,51.333377,-56.699042,ardac,2.1,True
NL1140,Savage Cove - Sandy Cove,,Newfoundland and Labrador,CA,51.330245,-56.684106,ardac,2.6,True
NL1141,Sawbill,,Newfoundland and Labrador,CA,53.616749,-66.349294,ardac,352.4,False
NL1142,Scrape Shore,,Newfoundland and Labrador,CA,46.6133333,-53.5569444,ardac,0.6,True
NL1143,Seahorse,,Newfoundland and Labrador,CA,52.1833333,-65.6994444,ardac,207.6,False
NL1144,Seal Bight,,Newfoundland and Labrador,CA,52.4562934,-55.682188,ardac,0.8,True
NL1145,Seal Cove,,Newfoundland and Labrador,CA,49.93135,-56.373472,ardac,0.7,True
NL1146,Seal Cove,,Newfoundland and Labrador,CA,47.4669444,-53.0730556,ardac,0.5,True
NL1147,Seal Cove,,Newfoundland and Labrador,CA,47.4847222,-56.0613889,ardac,3.5,True
NL1148,Seal Cove,,Newfoundland and Labrador,CA,47.1875,-52.8444444,ardac,0.8,True
NL1149,Seal Islands Harbour,,Newfoundland and Labrador,CA,53.2258138,-55.71168,ardac,3.2,True
NL1150,Seal Rocks,,Newfoundland and Labrador,CA,48.4358333,-58.4694444,ardac,0.4,True
NL1151,Seldom,,Newfoundland and Labrador,CA,49.616667,-54.1825,ardac,1.1,True
NL1152,Seldom Come By,,Newfoundland and Labrador,CA,49.6158333,-54.1752778,ardac,0.7,True
NL1153,Seldom-Little Seldom,,Newfoundland and Labrador,CA,49.616739,-54.187875,ardac,1.4,True
NL1154,Separation Point,,Newfoundland and Labrador,CA,53.6158333,-57.4188889,ardac,1.5,True
NL1155,Serpentine,,Newfoundland and Labrador,CA,48.7961111,-58.1466666,ardac,21.2,True
NL1156,Shabo,,Newfoundland and Labrador,CA,53.3167468,-66.1993138,ardac,333.5,False
NL1157,Shallop Cove,,Newfoundland and Labrador,CA,48.4158334,-58.5361111,ardac,0.9,True
NL1158,Shalloway,,Newfoundland and Labrador,CA,47.0030555,-55.1711111,ardac,1.6,True
NL1159,Shalloway Cove,,Newfoundland and Labrador,CA,48.8438889,-53.6844444,ardac,9.1,True
NL1160,Shamblers Cove,,Newfoundland and Labrador,CA,49.0752778,-53.6044444,ardac,2.1,True
NL1161,Sharks Cove,,Newfoundland and Labrador,CA,47.5580556,-53.2113889,ardac,1.2,True
NL1162,Shea Heights,,Newfoundland and Labrador,CA,47.5436111,-52.7119445,ardac,2.0,True
NL1163,Shearstown,,Newfoundland and Labrador,CA,47.5886111,-53.3027778,ardac,3.9,True
NL1164,Sheshatshiu,,Newfoundland and Labrador,CA,53.516667,-60.149167,ardac,1.6,True
NL1165,Ship Cove,,Newfoundland and Labrador,CA,47.0944444,-54.0705555,ardac,4.5,True
