id,name,alt_name,region,country,latitude,longitude
NL1,Abrahams Cove,,Newfoundland and Labrador,CA,48.5255556,-58.9161111
NL2,Adams Cove,,Newfoundland and Labrador,CA,47.8622222,-53.0927778
NL3,Adeytown,,Newfoundland and Labrador,CA,48.0741666,-53.9319444
NL4,Adlatovusek,,Newfoundland and Labrador,CA,55.25,-60.499167
NL5,Admiral's Cove,,Newfoundland and Labrador,CA,47.0966667,-52.9075
NL6,Admirals Beach,,Newfoundland and Labrador,CA,47.0171497,-53.5989861
NL7,Aguathuna,,Newfoundland and Labrador,CA,48.5613889,-58.7697223
NL8,Aillik,,Newfoundland and Labrador,CA,55.2127512,-59.2071047
NL9,Alderburn,,Newfoundland and Labrador,CA,49.1111112,-55.25
NL10,Alexander Bay,,Newfoundland and Labrador,CA,48.6794445,-54.1161111
NL11,Allan's Island,,Newfoundland and Labrador,CA,46.8533333,-55.8027778
NL12,Amherst Cove,,Newfoundland and Labrador,CA,48.5752778,-53.2075
NL13,Anchor Point,,Newfoundland and Labrador,CA,51.2389361,-56.7885527
NL14,Anderson's Cove,,Newfoundland and Labrador,CA,47.6052778,-55.1127778
NL15,Angels Cove,,Newfoundland and Labrador,CA,47.0027778,-54.1361111
NL16,Appleton,,Newfoundland and Labrador,CA,48.9817361,-54.8572361
NL17,Aquaforte,,Newfoundland and Labrador,CA,47.0080555,-52.9563889
NL18,Argentia,,Newfoundland and Labrador,CA,47.2980555,-53.9855556
NL19,Arnold's Cove,,Newfoundland and Labrador,CA,47.7689194,-53.9917694
NL20,Arnolds Cove Station,,Newfoundland and Labrador,CA,47.7838889,-53.9683333
NL21,Ashuanipi,,Newfoundland and Labrador,CA,52.7666667,-66.0827778
NL22,Aspen,,Newfoundland and Labrador,CA,48.1591667,-53.7533333
NL23,Aspey Brook,,Newfoundland and Labrador,CA,48.1619444,-53.8438889
NL24,Astray,,Newfoundland and Labrador,CA,54.600098,-66.699272
NL25,Avondale,,Newfoundland and Labrador,CA,47.3991028,-53.2264333
NL26,Baccalieu Island,,Newfoundland and Labrador,CA,48.1505555,-52.7963889
NL27,Back Cove,,Newfoundland and Labrador,CA,49.8497222,-56.5625
NL28,Back Harbour,,Newfoundland and Labrador,CA,49.6586111,-54.7855556
NL29,Back Shore,,Newfoundland and Labrador,CA,46.6175,-53.5872222
NL30,Bacon Cove,,Newfoundland and Labrador,CA,47.4805556,-53.1713889
NL31,Badger,,Newfoundland and Labrador,CA,48.9788806,-56.0416916
NL32,Badger's Quay,,Newfoundland and Labrador,CA,49.1238889,-53.5944445
NL33,Baie Verte,,Newfoundland and Labrador,CA,49.9087083,-56.1946584
NL34,Baine Harbour,,Newfoundland and Labrador,CA,47.3659444,-54.8972055
NL35,Baker Cove,,Newfoundland and Labrador,CA,47.5716667,-54.2088889
NL36,Bakers Brook,,Newfoundland and Labrador,CA,49.6536111,-57.955
NL37,Bally Haly,,Newfoundland and Labrador,CA,47.59,-52.6961112
NL38,Ballyhack,,Newfoundland and Labrador,CA,47.4394444,-53.1986111
NL39,Bar Haven,,Newfoundland and Labrador,CA,47.7105556,-54.2208333
NL40,Barachois,,Newfoundland and Labrador,CA,46.8616667,-53.5836111
NL41,Barachoix,,Newfoundland and Labrador,CA,47.6563889,-55.6941667
NL42,Barasway de Plate,,Newfoundland and Labrador,CA,47.4858333,-55.0697222
NL43,Bareneed,,Newfoundland and Labrador,CA,47.5763889,-53.2411111
NL44,Barge Bay,,Newfoundland and Labrador,CA,51.8071901,-56.2107976
NL45,Barr'd Harbour,,Newfoundland and Labrador,CA,50.8122223,-57.055
NL46,Barr'd Islands,,Newfoundland and Labrador,CA,49.7216667,-54.1877778
NL47,Barton,,Newfoundland and Labrador,CA,48.2216667,-53.8988889
NL48,Batteau,,Newfoundland and Labrador,CA,53.4093877,-55.7794516
NL49,Battery,,Newfoundland and Labrador,CA,47.0330556,-52.8830556
NL50,Battle Harbour,,Newfoundland and Labrador,CA,52.2667143,-55.5870035
NL51,Bauline,,Newfoundland and Labrador,CA,47.7008305,-52.8195695
NL52,Bauline South,,Newfoundland and Labrador,CA,47.17971,-52.8454697
NL53,Bay Bulls,,Newfoundland and Labrador,CA,47.3261583,-52.793875
NL54,Bay L'Argent,,Newfoundland and Labrador,CA,47.542664,-54.886061
NL55,Bay Roberts,,Newfoundland and Labrador,CA,47.5827278,-53.2932639
NL56,Bay View,,Newfoundland and Labrador,CA,47.083333,-55.215833
NL57,Bay de Loup,,Newfoundland and Labrador,CA,47.6616667,-57.5183334
NL58,Bay de Verde,,Newfoundland and Labrador,CA,48.1011611,-52.8895167
NL59,Bay de l'Eau,,Newfoundland and Labrador,CA,47.6288889,-54.9205555
NL60,Bay du Nord,,Newfoundland and Labrador,CA,47.7111111,-55.4130555
NL61,Bayside,,Newfoundland and Labrador,CA,49.5333333,-56.8636111
NL62,Baytona,,Newfoundland and Labrador,CA,49.3305861,-54.7841194
NL63,Bayview,,Newfoundland and Labrador,CA,49.6138889,-54.7436111
NL64,Beachside,,Newfoundland and Labrador,CA,49.6428889,-55.8991139
NL65,Beachy Cove,,Newfoundland and Labrador,CA,47.5969445,-53.2525
NL66,Bear Cove,,Newfoundland and Labrador,CA,49.6005555,-57.9272222
NL67,Bear Cove,,Newfoundland and Labrador,CA,49.8441667,-56.5661111
NL68,Beaumont,,Newfoundland and Labrador,CA,49.6127778,-55.6794445
NL69,Beaumont North,,Newfoundland and Labrador,CA,49.6208334,-55.6897222
NL70,Beaver,,Newfoundland and Labrador,CA,48.8119444,-58.1611111
NL71,Beaver Cove,,Newfoundland and Labrador,CA,49.4125,-54.3894444
NL72,Beaverton,,Newfoundland and Labrador,CA,49.5125,-54.5802777
NL73,Beckfords,,Newfoundland and Labrador,CA,46.8955555,-53.9116667
NL74,Belfry,,Newfoundland and Labrador,CA,53.708636,-57.008789
NL75,Bell Island,,Newfoundland and Labrador,CA,47.6316667,-52.9613889
NL76,Bell Island Front,,Newfoundland and Labrador,CA,47.6277778,-52.9333333
NL77,Bellburns,,Newfoundland and Labrador,CA,50.3279667,-57.5284278
NL78,Belle Isle,,Newfoundland and Labrador,CA,52.0133333,-55.2813889
NL79,Belleoram,,Newfoundland and Labrador,CA,47.524733,-55.416094
NL80,Bellmans Cove,,Newfoundland and Labrador,CA,48.555,-58.7583333
NL81,Benoit's Cove,,Newfoundland and Labrador,CA,49.0102778,-58.1369445
NL82,Benoits Siding,,Newfoundland and Labrador,CA,47.826959,-59.194173
NL83,Best's Harbour,,Newfoundland and Labrador,CA,47.575,-54.21
NL84,Bide Arm,,Newfoundland and Labrador,CA,50.817706,-56.104936
NL85,Big Brook,,Newfoundland and Labrador,CA,51.519722,-56.148611
NL86,Big Pond,,Newfoundland and Labrador,CA,47.4111112,-52.7675
NL87,Birch Hills,,Newfoundland and Labrador,CA,47.5616666,-53.29
NL88,Birchy Bay,,Newfoundland and Labrador,CA,49.3215389,-54.7361083
NL89,Birchy Cove,,Newfoundland and Labrador,CA,49.6825,-56.0280555
NL90,Birchy Head,,Newfoundland and Labrador,CA,49.4511111,-57.9044445
NL91,Birchy Nap,,Newfoundland and Labrador,CA,47.6536111,-52.7466667
NL92,Bird Cove,,Newfoundland and Labrador,CA,51.0460695,-56.9334055
NL93,Biscayan Cove,,Newfoundland and Labrador,CA,47.8022222,-52.7897223
NL94,Bishop's Cove,,Newfoundland and Labrador,CA,47.6367556,-53.2327389
NL95,Bishop's Falls,,Newfoundland and Labrador,CA,49.0209528,-55.4898944
NL96,Bishop's Harbour,,Newfoundland and Labrador,CA,48.6886111,-53.6538889
NL97,Bishops Beach,,Newfoundland and Labrador,CA,47.6111111,-53.2244445
NL98,Bishops Falls South,,Newfoundland and Labrador,CA,49.005,-55.4927777
NL99,Black Duck Brook,,Newfoundland and Labrador,CA,48.7,-58.899167
NL100,Black Duck Cove,,Newfoundland and Labrador,CA,47.0530555,-55.1802778
NL101,Black Duck Cove,,Newfoundland and Labrador,CA,49.5963889,-54.7069445
NL102,Black Duck Cove,,Newfoundland and Labrador,CA,48.22,-53.5033334
NL103,Black Duck Pond,,Newfoundland and Labrador,CA,47.5727778,-53.2644444
NL104,Black Duck Siding,,Newfoundland and Labrador,CA,48.5808333,-58.3847223
NL105,Black Island,,Newfoundland and Labrador,CA,49.534358,-54.970966
NL106,Black Island,,Newfoundland and Labrador,CA,49.5866666,-54.7116667
NL107,Black River,,Newfoundland and Labrador,CA,47.8780556,-54.1663889
NL108,Black Tickle,,Newfoundland and Labrador,CA,53.4616374,-55.7650328
NL109,Blackhead,,Newfoundland and Labrador,CA,47.525,-52.6569444
NL110,Blackhead,,Newfoundland and Labrador,CA,47.8472222,-53.0933333
NL111,Blanchet,,Newfoundland and Labrador,CA,47.4,-55.599167
NL112,Bloomfield,,Newfoundland and Labrador,CA,48.3766667,-53.905
NL113,Blow Me Down,,Newfoundland and Labrador,CA,47.5936111,-53.1897222
NL114,Blue Beach,,Newfoundland and Labrador,CA,48.7702777,-58.7833333
NL115,Blue Cove,,Newfoundland and Labrador,CA,51.0961111,-56.87
NL116,Bluff Head Cove,,Newfoundland and Labrador,CA,49.6280556,-54.7566667
NL117,Blundons Siding,,Newfoundland and Labrador,CA,48.3497222,-53.9011112
NL118,Boat Harbour West,,Newfoundland and Labrador,CA,47.43,-54.8425
NL119,Bobby Cove,,Newfoundland and Labrador,CA,49.8252778,-55.7544444
NL120,Bonalds Island,,Newfoundland and Labrador,CA,47.59341,-57.288238
NL121,Bonavista,,Newfoundland and Labrador,CA,48.6317917,-53.1041333
NL122,Bonne Bay,,Newfoundland and Labrador,CA,49.4994445,-57.9163889
NL123,Boswarlos,,Newfoundland and Labrador,CA,48.5702778,-58.8222222
NL124,Botwood,,Newfoundland and Labrador,CA,49.1356472,-55.3731528
NL125,Boxey,,Newfoundland and Labrador,CA,47.453055,-55.561389
NL126,Bradleys Cove,,Newfoundland and Labrador,CA,47.8738888,-53.0666667
NL127,Bragg's Island,,Newfoundland and Labrador,CA,48.933333,-53.665833
NL128,Brake's Cove,,Newfoundland and Labrador,CA,49.1258333,-58.0966667
NL129,Branch,,Newfoundland and Labrador,CA,46.8822222,-53.9644445
NL130,Bread and Cheese,,Newfoundland and Labrador,CA,47.3102778,-52.7919445
NL131,Brent's Cove,,Newfoundland and Labrador,CA,49.9369444,-55.7069444
NL132,Briens,,Newfoundland and Labrador,CA,47.4016667,-53.1211111
NL133,Brighton,,Newfoundland and Labrador,CA,49.5400695,-55.6432555
NL134,Brigus,,Newfoundland and Labrador,CA,47.5355556,-53.2102778
NL135,Brigus,,Newfoundland and Labrador,CA,47.5329806,-53.2150917
NL136,Brigus Gullies,,Newfoundland and Labrador,CA,47.5266667,-53.2391667
NL137,Bristol's Hope,,Newfoundland and Labrador,CA,47.7211111,-53.1963889
NL138,Britannia,,Newfoundland and Labrador,CA,48.1438889,-53.7219445
NL139,British Harbour,,Newfoundland and Labrador,CA,48.2622223,-53.5044445
NL140,Broad Cove,,Newfoundland and Labrador,CA,47.5516667,-53.5452777
NL141,Broad Cove,,Newfoundland and Labrador,CA,47.8369444,-53.0930555
NL142,Broad Cove,,Newfoundland and Labrador,CA,47.5758333,-54.2208333
NL143,Brookfield,,Newfoundland and Labrador,CA,49.1388889,-53.5852778
NL144,Brooklyn,,Newfoundland and Labrador,CA,48.3841666,-53.8694444
NL145,Brookside,,Newfoundland and Labrador,CA,47.4297222,-54.8138889
NL146,Browns Cove,,Newfoundland and Labrador,CA,49.6333333,-56.8172222
NL147,Brownsdale,,Newfoundland and Labrador,CA,48.035,-53.1211111
NL148,Bryant's Cove,,Newfoundland and Labrador,CA,47.6760917,-53.1930222
NL149,Buchans,,Newfoundland and Labrador,CA,48.8238,-56.8490694
NL150,Buchans,,Newfoundland and Labrador,CA,48.8230556,-56.8627778
NL151,Buckles Point,,Newfoundland and Labrador,CA,51.4822222,-56.9538889
NL152,Bulley's Cove,,Newfoundland and Labrador,CA,49.3497222,-55.3563889
NL153,Bulls Cove,,Newfoundland and Labrador,CA,47.05,-55.1605556
NL154,Burgeo,,Newfoundland and Labrador,CA,47.6199167,-57.6216334
NL155,Burgoynes Cove,,Newfoundland and Labrador,CA,48.1677777,-53.7119444
NL156,Burin,,Newfoundland and Labrador,CA,47.082841,-55.175272
NL157,Burin Bay,,Newfoundland and Labrador,CA,47.0216666,-55.1761111
NL158,Burin Bay Arm,,Newfoundland and Labrador,CA,47.0875,-55.1936111
NL159,Burlington,,Newfoundland and Labrador,CA,49.7501528,-56.0174223
NL160,Burns Cove,,Newfoundland and Labrador,CA,47.3922222,-54.8619445
NL161,Burnside,,Newfoundland and Labrador,CA,48.716667,-53.799167
NL162,Burnt Arm,,Newfoundland and Labrador,CA,49.1855555,-55.2772223
NL163,Burnt Cove,,Newfoundland and Labrador,CA,47.1991667,-52.85
NL164,Burnt Island,,Newfoundland and Labrador,CA,47.3833334,-54.7011111
NL165,Burnt Islands,,Newfoundland and Labrador,CA,47.6141944,-58.8701306
NL166,Burnt Point,,Newfoundland and Labrador,CA,47.9586111,-53.0397222
NL167,Burnt Stump,,Newfoundland and Labrador,CA,47.3980556,-53.1558333
NL168,Burnt Village,,Newfoundland and Labrador,CA,51.1641666,-55.9858333
NL169,Burtons Cove,,Newfoundland and Labrador,CA,49.5513889,-56.8686112
NL170,Butchers,,Newfoundland and Labrador,CA,47.8794445,-53.3730555
NL171,Butlerville,,Newfoundland and Labrador,CA,47.5738889,-53.3275
NL172,Butter Cove,,Newfoundland and Labrador,CA,48.0266666,-53.6491667
NL173,Butts,,Newfoundland and Labrador,CA,48.8222222,-54.2833333
NL174,Cahill Point,,Newfoundland and Labrador,CA,47.5636111,-52.69
NL175,Cains Island,,Newfoundland and Labrador,CA,47.6019445,-58.6997222
NL176,Calmer,,Newfoundland and Labrador,CA,46.8925,-55.9075
NL177,Camp Bay,,Newfoundland and Labrador,CA,52.1695996,-55.6512159
NL178,Camp Boggy,,Newfoundland and Labrador,CA,47.9805555,-55.8008333
NL179,Campbellton,,Newfoundland and Labrador,CA,49.2705194,-54.9319306
NL180,Canada Harbour,,Newfoundland and Labrador,CA,50.6802778,-56.1383333
NL181,Cape Anguille,,Newfoundland and Labrador,CA,47.9033333,-59.4094444
NL182,Cape Broyle,,Newfoundland and Labrador,CA,47.0965195,-52.9414917
NL183,Cape Charles,,Newfoundland and Labrador,CA,52.2185888,-55.6404425
NL184,Cape Cove,,Newfoundland and Labrador,CA,49.6516667,-54.0388889
NL185,Cape Dog,,Newfoundland and Labrador,CA,47.0908334,-53.6977777
NL186,Cape Freels North,,Newfoundland and Labrador,CA,49.260278,-53.503333
NL187,Cape Freels South,,Newfoundland and Labrador,CA,49.2522223,-53.4794444
NL188,Cape Island,,Newfoundland and Labrador,CA,49.2194445,-53.4780555
NL189,Cape Norman,,Newfoundland and Labrador,CA,51.6191667,-55.8991667
NL190,Cape Onion,,Newfoundland and Labrador,CA,51.6025,-55.6319445
NL191,Cape Race,,Newfoundland and Labrador,CA,46.6597222,-53.0736111
NL192,Cape St. George,,Newfoundland and Labrador,CA,48.4957027,-59.1849305
NL193,Cape St. George,,Newfoundland and Labrador,CA,48.466667,-59.249167
NL194,Cape St. Mary's,,Newfoundland and Labrador,CA,46.8227777,-54.1955556
NL195,Cape la Hune,,Newfoundland and Labrador,CA,47.555,-56.8727778
NL196,Caplin Cove,,Newfoundland and Labrador,CA,48.0397222,-52.9844444
NL197,Caplin Cove,,Newfoundland and Labrador,CA,48.0136112,-53.7222222
NL198,Caplin Gulch,,Newfoundland and Labrador,CA,51.5944444,-55.5136111
NL199,Cappahayden,,Newfoundland and Labrador,CA,46.8613889,-52.9469445
NL200,Capstan Island,,Newfoundland and Labrador,CA,51.57,-56.7330556
NL201,Carbonear,,Newfoundland and Labrador,CA,47.7315028,-53.2326611
NL202,Card's Harbour,,Newfoundland and Labrador,CA,49.5072222,-55.6338889
NL203,Carmanville,,Newfoundland and Labrador,CA,49.3673055,-54.2905694
NL204,Carmanville South,,Newfoundland and Labrador,CA,49.3961111,-54.2766667
NL205,Carrolls Cove,,Newfoundland and Labrador,CA,52.1615603,-55.7081791
NL206,Carter's Cove,,Newfoundland and Labrador,CA,49.5361111,-54.7866667
NL207,Cartwright,,Newfoundland and Labrador,CA,53.693779,-56.970056
NL208,Cartyville,,Newfoundland and Labrador,CA,48.2377778,-58.8025
NL209,Catalina,,Newfoundland and Labrador,CA,48.5166667,-53.0780555
NL210,Cavanagh,,Newfoundland and Labrador,CA,54.033418,-66.432611
NL211,Centreville,,Newfoundland and Labrador,CA,49.0166666,-53.8938889
NL212,Centreville-Wareham-Trinity,,Newfoundland and Labrador,CA,49.0000278,-53.9206694
NL213,Chamberlains,,Newfoundland and Labrador,CA,47.5263889,-52.9333333
NL214,Champney's,,Newfoundland and Labrador,CA,48.3908333,-53.2869445
NL215,Champney's Arm,,Newfoundland and Labrador,CA,48.3916667,-53.3075
NL216,Champney's West,,Newfoundland and Labrador,CA,48.3847223,-53.3011111
NL217,Chance Cove,,Newfoundland and Labrador,CA,47.6666472,-53.830925
NL218,Change Islands,,Newfoundland and Labrador,CA,49.6689444,-54.4037223
NL219,Channel-Port aux Basques,,Newfoundland and Labrador,CA,47.5955806,-59.1352917
NL220,Chapel Arm,,Newfoundland and Labrador,CA,47.5049111,-53.6661916
NL221,Chapel's Cove,,Newfoundland and Labrador,CA,47.4349098,-53.1404899
NL222,Charles Brook,,Newfoundland and Labrador,CA,49.3383333,-55.2525
NL223,Charleston,,Newfoundland and Labrador,CA,48.3922222,-53.6536111
NL224,Charlottetown,,Newfoundland and Labrador,CA,52.7657222,-56.1453
NL225,Chateau,,Newfoundland and Labrador,CA,51.979972,-55.8967163
NL226,Chimney Cove,,Newfoundland and Labrador,CA,49.3727777,-58.2272222
NL227,Chimney Tickle,,Newfoundland and Labrador,CA,52.1646341,-55.6944676
NL228,Churchill Falls,,Newfoundland and Labrador,CA,53.531781,-64.008444
NL229,Churchill Park,,Newfoundland and Labrador,CA,47.5755555,-52.7219444
NL230,Churchills,,Newfoundland and Labrador,CA,47.9822222,-53.9569444
NL231,Clarenville,,Newfoundland and Labrador,CA,48.1881389,-54.0557138
NL232,Clarenville South,,Newfoundland and Labrador,CA,48.1563889,-53.9722222
NL233,Clarke's Beach,,Newfoundland and Labrador,CA,47.5320167,-53.303675
NL234,Clarke's Head,,Newfoundland and Labrador,CA,49.3,-54.499167
NL235,Clattice Harbour,,Newfoundland and Labrador,CA,47.4877777,-54.4658333
NL236,Clattice South West,,Newfoundland and Labrador,CA,47.4777778,-54.4627778
NL237,Clifton,,Newfoundland and Labrador,CA,48.1794444,-53.7244444
NL238,Clowns Cove,,Newfoundland and Labrador,CA,47.7580556,-53.1838889
NL239,Coachman's Cove,,Newfoundland and Labrador,CA,50.0681694,-56.1237305
NL240,Coal Brook,,Newfoundland and Labrador,CA,47.9333333,-58.9905556
NL241,Cobb,,Newfoundland and Labrador,CA,47.8388889,-53.9744444
NL242,Codner,,Newfoundland and Labrador,CA,47.5058334,-52.9936111
NL243,Codroy,,Newfoundland and Labrador,CA,47.8811111,-59.3916667
NL244,Codroy Pond,,Newfoundland and Labrador,CA,48.070278,-58.8625
NL245,Coffee Cove,,Newfoundland and Labrador,CA,49.5861111,-55.9511111
NL246,Coffin Cove,,Newfoundland and Labrador,CA,47.5138889,-54.0827778
NL247,Cold Brook,,Newfoundland and Labrador,CA,48.6016667,-58.5319444
NL248,Coley's Point,,Newfoundland and Labrador,CA,47.5805555,-53.2655555
NL249,Coley's Point South,,Newfoundland and Labrador,CA,47.5791666,-53.2669444
NL250,Colinet,,Newfoundland and Labrador,CA,47.2195306,-53.5480611
NL251,Collier's Riverhead,,Newfoundland and Labrador,CA,47.4577778,-53.2072223
NL252,Colliers,,Newfoundland and Labrador,CA,47.4503222,-53.2482889
NL253,Collins Cove,,Newfoundland and Labrador,CA,47.0302778,-55.1752778
NL254,Come By Chance,,Newfoundland and Labrador,CA,47.8415167,-53.9847806
NL255,Comfort Bight,,Newfoundland and Labrador,CA,53.1519473,-55.7745496
NL256,Comfort Cove-Newstead,,Newfoundland and Labrador,CA,49.3581556,-54.8758195
NL257,Conception Bay South,,Newfoundland and Labrador,CA,47.4907778,-52.9951111
NL258,Conception Harbour,,Newfoundland and Labrador,CA,47.438575,-53.2239
NL259,Conche,,Newfoundland and Labrador,CA,50.8955084,-55.8866667
NL260,Coney Arm,,Newfoundland and Labrador,CA,49.9622223,-56.7838889
NL261,Conne River,,Newfoundland and Labrador,CA,47.8625,-55.755278
NL262,Cook's Harbour,,Newfoundland and Labrador,CA,51.6078722,-55.863925
NL263,Cooke,,Newfoundland and Labrador,CA,48.9094444,-58.0586111
NL264,Coomb's Cove,,Newfoundland and Labrador,CA,47.458611,-55.621944
NL265,Cooper's Cove,,Newfoundland and Labrador,CA,47.5836111,-54.2025
NL266,Cooperage,,Newfoundland and Labrador,CA,47.6691666,-53.2480555
NL267,Cootes Pond,,Newfoundland and Labrador,CA,46.9541667,-53.5202778
NL268,Coppett,,Newfoundland and Labrador,CA,47.6022222,-57.2508333
NL269,Corbin,,Newfoundland and Labrador,CA,47.5886111,-55.4188889
NL270,Corbin,,Newfoundland and Labrador,CA,46.9605555,-55.24
NL271,Cormack,,Newfoundland and Labrador,CA,49.31595,-57.3833639
NL272,Corner Brook,,Newfoundland and Labrador,CA,48.941111,-57.970278
NL273,Cornfield,,Newfoundland and Labrador,CA,47.04,-52.8911111
NL274,Cottlesville,,Newfoundland and Labrador,CA,49.495225,-54.8545583
NL275,Cottlesville,,Newfoundland and Labrador,CA,49.5147223,-54.8752778
NL276,Country Road,,Newfoundland and Labrador,CA,47.5752778,-53.2936111
NL277,Country Road Industrial Park,,Newfoundland and Labrador,CA,48.9263889,-57.9852778
NL278,Cow Head,,Newfoundland and Labrador,CA,49.919725,-57.7694834
NL279,Cox's Cove,,Newfoundland and Labrador,CA,49.1119861,-58.0805139
NL280,Crawley Island,,Newfoundland and Labrador,CA,47.4230555,-53.8575
NL281,Creston,,Newfoundland and Labrador,CA,47.1444444,-55.1922222
NL282,Creston North,,Newfoundland and Labrador,CA,47.1533333,-55.1986111
NL283,Crockers Cove,,Newfoundland and Labrador,CA,47.7425,-53.2002778
NL284,Croque,,Newfoundland and Labrador,CA,51.058333,-55.827778
NL285,Cross Roads,,Newfoundland and Labrador,CA,47.4480556,-53.5494445
NL286,Crossroads,,Newfoundland and Labrador,CA,47.8675,-53.3633334
NL287,Crow Head,,Newfoundland and Labrador,CA,49.67985,-54.7998834
NL288,Cruisers,,Newfoundland and Labrador,CA,48.9797222,-55.5711111
NL289,Cul de Sac West,,Newfoundland and Labrador,CA,47.5497222,-56.8416667
NL290,Culls Harbour,,Newfoundland and Labrador,CA,48.6797223,-53.9488889
NL291,Cupids,,Newfoundland and Labrador,CA,47.5478056,-53.2244889
NL292,Cupids Crossing,,Newfoundland and Labrador,CA,47.5283333,-53.2508333
NL293,Current Island,,Newfoundland and Labrador,CA,51.1769444,-56.82
NL294,Curzon Village,,Newfoundland and Labrador,CA,49.5105555,-57.9202778
NL295,Cuslett,,Newfoundland and Labrador,CA,46.9605555,-54.1583333
NL296,Cut Throat,,Newfoundland and Labrador,CA,57.4661778,-61.6166305
NL297,Daniel's Cove,,Newfoundland and Labrador,CA,48.1286111,-52.9736111
NL298,Daniel's Harbour,,Newfoundland and Labrador,CA,50.2326473,-57.5818083
NL299,Daniel's Point,,Newfoundland and Labrador,CA,46.7525,-53.3775
NL300,Darbys Harbour,,Newfoundland and Labrador,CA,47.4694444,-54.5413889
NL301,Dark Cove,,Newfoundland and Labrador,CA,48.6605555,-53.7083333
NL302,Davey Hanns Landing,,Newfoundland and Labrador,CA,48.6291666,-53.9380556
NL303,Davidsville,,Newfoundland and Labrador,CA,49.3583334,-54.4325
NL304,Davis Cove,,Newfoundland and Labrador,CA,47.6358333,-54.3441667
NL305,Davis House,,Newfoundland and Labrador,CA,51.4686111,-56.8705556
NL306,Davis Inlet,,Newfoundland and Labrador,CA,55.8886419,-60.9076539
NL307,Davis Island,,Newfoundland and Labrador,CA,47.2611111,-54.9361111
NL308,Dawson's Cove,,Newfoundland and Labrador,CA,47.5347223,-55.9325
NL309,De Grau,,Newfoundland and Labrador,CA,48.4833333,-59.1936111
NL310,Dead Islands,,Newfoundland and Labrador,CA,52.7992839,-55.8329921
NL311,Deadmans Cove,,Newfoundland and Labrador,CA,51.2533333,-56.7833333
NL312,Deep Bay,,Newfoundland and Labrador,CA,49.671111,-54.293056
NL313,Deep Cove,,Newfoundland and Labrador,CA,47.4138889,-54.4997222
NL314,Deer Harbour,,Newfoundland and Labrador,CA,48.1375,-53.5688889
NL315,Deer Island,,Newfoundland and Labrador,CA,47.62,-57.3647223
NL316,Deer Island,,Newfoundland and Labrador,CA,48.933333,-53.715833
NL317,Deer Lake,,Newfoundland and Labrador,CA,49.194994,-57.3897
NL318,Delbys Cove,,Newfoundland and Labrador,CA,48.2355556,-53.5372222
NL319,Dennis Hill,,Newfoundland and Labrador,CA,47.6041667,-59.1755556
NL320,Devils Kitchen,,Newfoundland and Labrador,CA,47.06,-52.9366667
NL321,Dildo,,Newfoundland and Labrador,CA,47.5713889,-53.5505556
NL322,Dock Cove,,Newfoundland and Labrador,CA,48.8591666,-53.645
NL323,Doctors Harbour,,Newfoundland and Labrador,CA,47.6619445,-55.3175
NL324,Doctors Harbour,,Newfoundland and Labrador,CA,47.6238889,-57.7761111
NL325,Dog Cove,,Newfoundland and Labrador,CA,47.6105555,-57.1363889
NL326,Dogwood,,Newfoundland and Labrador,CA,48.9508333,-57.8369444
NL327,Domino,,Newfoundland and Labrador,CA,53.4664558,-55.7757403
NL328,Donovans,,Newfoundland and Labrador,CA,47.5258333,-52.835
NL329,Doting Cove,,Newfoundland and Labrador,CA,49.4427778,-53.9358334
NL330,Dove Brook,,Newfoundland and Labrador,CA,53.6394992,-57.4280217
NL331,Dover,,Newfoundland and Labrador,CA,48.8869639,-53.9537778
NL332,Down Below,,Newfoundland and Labrador,CA,48.641302,-53.729638
NL333,Doyles,,Newfoundland and Labrador,CA,47.8302778,-59.19
NL334,Doyles,,Newfoundland and Labrador,CA,47.4594445,-52.7613889
NL335,Drook,,Newfoundland and Labrador,CA,46.6730556,-53.2469444
NL336,Drylake,,Newfoundland and Labrador,CA,52.6333333,-65.9827778
NL337,Duffs,,Newfoundland and Labrador,CA,47.4416667,-53.0977778
NL338,Dumpling Harbour,,Newfoundland and Labrador,CA,53.841704,-56.9687779
NL339,Dunfield,,Newfoundland and Labrador,CA,48.35,-53.3763889
NL340,Duntara,,Newfoundland and Labrador,CA,48.585975,-53.3810333
NL341,Dunville,,Newfoundland and Labrador,CA,47.27,-53.8975
NL342,Duricle,,Newfoundland and Labrador,CA,47.1122222,-55.0933334
NL343,Durrell,,Newfoundland and Labrador,CA,49.6597222,-54.7344444
NL344,Eagle River,,Newfoundland and Labrador,CA,53.5731642,-57.4322441
NL345,East Bay,,Newfoundland and Labrador,CA,47.7641666,-58.2533333
NL346,East Landing,,Newfoundland and Labrador,CA,46.6602778,-53.0730556
NL347,East Meadows,,Newfoundland and Labrador,CA,47.5983334,-52.71
NL348,East St Modeste,,Newfoundland and Labrador,CA,51.6347222,-56.6813889
NL349,Eastern Corner,,Newfoundland and Labrador,CA,47.6972222,-53.4783333
NL350,Eastern Cove,,Newfoundland and Labrador,CA,49.533333,-54.215833
NL351,Eastern Tickle,,Newfoundland and Labrador,CA,49.725016,-54.259615
NL352,Eastport,,Newfoundland and Labrador,CA,48.6646722,-53.7676278
NL353,Eddies Cove,,Newfoundland and Labrador,CA,51.415,-56.4608333
NL354,Elliott's Cove,,Newfoundland and Labrador,CA,48.1405556,-53.9041667
NL355,Elliston,,Newfoundland and Labrador,CA,48.6291611,-53.0480361
NL356,Embar,,Newfoundland and Labrador,CA,52.3,-65.6827778
NL357,Embree,,Newfoundland and Labrador,CA,49.3012472,-55.0437028
NL358,Emerald Vale,,Newfoundland and Labrador,CA,47.5069445,-53.2997223
NL359,Emeril,,Newfoundland and Labrador,CA,53.0834057,-66.215989
NL360,Emily Harbour,,Newfoundland and Labrador,CA,54.5388804,-57.184823
NL361,Englee,,Newfoundland and Labrador,CA,50.7657028,-56.0709528
NL362,English Harbour,,Newfoundland and Labrador,CA,48.3722222,-53.2616667
NL363,English Harbour East,,Newfoundland and Labrador,CA,47.64608,-54.892783
NL364,English Harbour West,,Newfoundland and Labrador,CA,47.463056,-55.493889
NL365,English Point,,Newfoundland and Labrador,CA,51.4880555,-56.9291666
NL366,Epworth,,Newfoundland and Labrador,CA,47.0286111,-55.2025
NL367,Esker,,Newfoundland and Labrador,CA,53.883416,-66.415949
NL368,Evergreen Village,,Newfoundland and Labrador,CA,47.5394445,-52.8419444
NL369,Exploits,,Newfoundland and Labrador,CA,49.5233333,-55.0675
NL370,Faden,,Newfoundland and Labrador,CA,54.183333,-66.499167
NL371,Fair Haven,,Newfoundland and Labrador,CA,47.5347223,-53.8988889
NL372,Fair Island,,Newfoundland and Labrador,CA,48.983333,-53.715833
NL373,Fairbank,,Newfoundland and Labrador,CA,49.5530555,-54.7427778
NL374,Fairbanks East,,Newfoundland and Labrador,CA,49.5538889,-54.7441667
NL375,Felix Cove,,Newfoundland and Labrador,CA,48.5336111,-58.7830555
NL376,Femme,,Newfoundland and Labrador,CA,47.6013889,-54.9844445
NL377,Fermeuse,,Newfoundland and Labrador,CA,46.9802778,-52.9516667
NL378,Fermeuse,,Newfoundland and Labrador,CA,46.9727667,-52.977475
NL379,Ferndale,,Newfoundland and Labrador,CA,47.2633333,-53.9469444
NL380,Ferolle Point,,Newfoundland and Labrador,CA,51.016667,-57.099167
NL381,Ferryland,,Newfoundland and Labrador,CA,47.0302389,-52.9056278
NL382,Fischells,,Newfoundland and Labrador,CA,48.3169444,-58.7097222
NL383,Fischot Islands,,Newfoundland and Labrador,CA,51.1822223,-55.6866667
NL384,Fishing Ships Harbour,,Newfoundland and Labrador,CA,52.6064097,-55.7715556
NL385,Flat Bay West,,Newfoundland and Labrador,CA,48.3988889,-58.6005556
NL386,Flat Island,,Newfoundland and Labrador,CA,47.2719445,-54.9225
NL387,Flat Islands,,Newfoundland and Labrador,CA,48.8,-53.6325
NL388,Flat Rock,,Newfoundland and Labrador,CA,47.0138889,-52.9838889
NL389,Flatrock,,Newfoundland and Labrador,CA,47.7572222,-53.1869444
NL390,Flatrock,,Newfoundland and Labrador,CA,47.7049611,-52.7316555
NL391,Fleur de Lys,,Newfoundland and Labrador,CA,50.132925,-56.1570194
NL392,Fleury Bight,,Newfoundland and Labrador,CA,49.523871,-55.295023
NL393,Flower's Cove,,Newfoundland and Labrador,CA,51.29535,-56.7202694
NL394,Fogo,,Newfoundland and Labrador,CA,49.714205,-54.278792
NL395,Fogo Island,,Newfoundland and Labrador,CA,49.658333,-54.1825
NL396,Ford,,Newfoundland and Labrador,CA,56.4663889,-61.1925
NL397,Forest Field,,Newfoundland and Labrador,CA,47.1602778,-53.4522222
NL398,Fort Townshend,,Newfoundland and Labrador,CA,47.5675,-52.7113889
NL399,Fort William,,Newfoundland and Labrador,CA,47.5711111,-52.6969445
NL400,Forteau,,Newfoundland and Labrador,CA,51.4915611,-56.9478916
NL401,Fortune,,Newfoundland and Labrador,CA,47.0406833,-55.8614917
NL402,Fortune Harbour,,Newfoundland and Labrador,CA,49.5094444,-55.2377778
NL403,Forward's Cove,,Newfoundland and Labrador,CA,47.266667,-55.899167
NL404,Four Harbour,,Newfoundland and Labrador,CA,51.1822223,-55.7316667
NL405,Fox Cove,,Newfoundland and Labrador,CA,47.0944444,-55.1038889
NL406,Fox Cove-Mortier,,Newfoundland and Labrador,CA,47.1023611,-55.1103778
NL407,Fox Harbour,,Newfoundland and Labrador,CA,47.3215,-53.8827166
NL408,Fox Island Harbour,,Newfoundland and Labrador,CA,47.5913889,-57.2855556
NL409,Fox Island River,,Newfoundland and Labrador,CA,48.6922222,-58.6783334
NL410,Fox Marsh,,Newfoundland and Labrador,CA,47.3944444,-53.4091667
NL411,Fox Roost,,Newfoundland and Labrador,CA,47.5711111,-59.0413889
NL412,Foxtrap,,Newfoundland and Labrador,CA,47.5086111,-52.9822222
NL413,Francis Harbour,,Newfoundland and Labrador,CA,52.5639634,-55.7216296
NL414,Frederickton,,Newfoundland and Labrador,CA,49.4261111,-54.3586111
NL415,Frenchman's Cove,,Newfoundland and Labrador,CA,47.161108,-55.41835
NL416,Frenchman's Cove,,Newfoundland and Labrador,CA,49.0558333,-58.1802777
NL417,Frenchmans Island,,Newfoundland and Labrador,CA,53.224757,-55.7361157
NL418,Frenchs Cove,,Newfoundland and Labrador,CA,47.6133334,-53.22
NL419,Freshwater,,Newfoundland and Labrador,CA,47.755029,-53.183343
NL420,Freshwater,,Newfoundland and Labrador,CA,46.8466667,-52.9469445
NL421,Freshwater,,Newfoundland and Labrador,CA,47.2591667,-53.9838889
NL422,Freshwater,,Newfoundland and Labrador,CA,47.0372222,-52.8861111
NL423,Freshwater,,Newfoundland and Labrador,CA,47.6011111,-53.0083334
NL424,Frog Marsh,,Newfoundland and Labrador,CA,47.5344445,-53.1930556
NL425,Furby's Cove,,Newfoundland and Labrador,CA,47.6011111,-55.8361111
NL426,Gadds Harbour,,Newfoundland and Labrador,CA,49.5069444,-57.8702777
NL427,Gaff Topsail,,Newfoundland and Labrador,CA,49.1427778,-56.6519445
NL428,Galeville,,Newfoundland and Labrador,CA,49.5519444,-56.8472222
NL429,Gallants,,Newfoundland and Labrador,CA,48.7054861,-58.2388527
NL430,Gallardin Point,,Newfoundland and Labrador,CA,47.26,-53.9733333
NL431,Gallows Cove,,Newfoundland and Labrador,CA,47.4436111,-53.1572222
NL432,Gambo,,Newfoundland and Labrador,CA,48.7970805,-54.2125111
NL433,Gambo Pond,,Newfoundland and Labrador,CA,48.7361111,-54.225
NL434,Gambo South,,Newfoundland and Labrador,CA,48.7675,-54.2247222
NL435,Gander,,Newfoundland and Labrador,CA,48.957189,-54.588561
NL436,Gander Bay,,Newfoundland and Labrador,CA,49.2961112,-54.4816667
NL437,Gander Bay South,,Newfoundland and Labrador,CA,49.2797222,-54.4861111
NL438,Gargamelle,,Newfoundland and Labrador,CA,50.6997222,-57.3533333
NL439,Garnish,,Newfoundland and Labrador,CA,47.215406,-55.332653
NL440,Garretts Cove,,Newfoundland and Labrador,CA,47.8541667,-53.7352778
NL441,Gaskiers,,Newfoundland and Labrador,CA,46.8744445,-53.6111111
NL442,Gaskiers-Point La Haye,,Newfoundland and Labrador,CA,46.8841666,-53.605
NL443,Gasters,,Newfoundland and Labrador,CA,47.4302778,-53.1463889
NL444,Gaultois,,Newfoundland and Labrador,CA,47.611875,-55.9137583
NL445,George's Brook,,Newfoundland and Labrador,CA,48.238333,-53.9599998
NL446,Georges Cove,,Newfoundland and Labrador,CA,52.5795616,-55.7536366
NL447,Georges Cove,,Newfoundland and Labrador,CA,49.5594445,-56.835
NL448,Georges Lake,,Newfoundland and Labrador,CA,48.7369444,-58.1838889
NL449,Georgestown,,Newfoundland and Labrador,CA,47.5688889,-52.7191667
NL450,Georgetown,,Newfoundland and Labrador,CA,48.9525,-58.015
NL451,Gillams,,Newfoundland and Labrador,CA,49.0194944,-58.0683389
NL452,Gillard's Cove,,Newfoundland and Labrador,CA,49.6180555,-54.755
NL453,Gillesport,,Newfoundland and Labrador,CA,49.6686111,-54.7447222
NL454,Gilling,,Newfoundland and Labrador,CA,54.750108,-66.782601
NL455,Gin Cove,,Newfoundland and Labrador,CA,48.1972222,-53.8158333
NL456,Glenburnie,,Newfoundland and Labrador,CA,49.4347222,-57.895
NL457,Glenburnie-Birchy Head-Shoal Brook,,Newfoundland and Labrador,CA,49.4507556,-57.9098889
NL458,Glendale,,Newfoundland and Labrador,CA,47.5169444,-52.8122222
NL459,Glendon Cove,,Newfoundland and Labrador,CA,47.7022222,-54.2372222
NL460,Glenridge Crescent,,Newfoundland and Labrador,CA,47.5791666,-52.7111111
NL461,Glenview,,Newfoundland and Labrador,CA,47.8780556,-53.9705556
NL462,Glenvilla Court,,Newfoundland and Labrador,CA,47.61,-52.7136111
NL463,Glenwood,,Newfoundland and Labrador,CA,48.9809139,-54.8820444
NL464,Glovertown,,Newfoundland and Labrador,CA,48.6911305,-54.0352778
NL465,Glovertown South,,Newfoundland and Labrador,CA,48.6716667,-54.0044444
NL466,Goblin,,Newfoundland and Labrador,CA,47.719644,-56.095772
NL467,Goddenville,,Newfoundland and Labrador,CA,47.5991667,-53.3455556
NL468,Gold Cove,,Newfoundland and Labrador,CA,49.5705555,-56.8475
NL469,Goobies Siding,,Newfoundland and Labrador,CA,47.9422222,-53.9636111
NL470,Goobies Station,,Newfoundland and Labrador,CA,47.9202777,-53.9488889
NL471,Goose Arm,,Newfoundland and Labrador,CA,49.137591,-57.92124
NL472,Goose Cove,,Newfoundland and Labrador,CA,51.3063889,-55.6336111
NL473,Goose Cove,,Newfoundland and Labrador,CA,48.3638889,-53.3844444
NL474,Goose Cove,,Newfoundland and Labrador,CA,47.8602778,-54.1027778
NL475,Goose Cove East,,Newfoundland and Labrador,CA,51.3075,-55.6272222
NL476,Gooseberry Cove,,Newfoundland and Labrador,CA,47.0694444,-54.0913889
NL477,Gooseberry Cove,,Newfoundland and Labrador,CA,48.0327778,-53.6419445
NL478,Gooseberry Island,,Newfoundland and Labrador,CA,48.883333,-53.615833
NL479,Goulds,,Newfoundland and Labrador,CA,47.4786111,-52.7666667
NL480,Grady Harbour,,Newfoundland and Labrador,CA,53.8024268,-56.4250483
NL481,Granby Island,,Newfoundland and Labrador,CA,49.7363889,-56.7236111
NL482,Grand Bank,,Newfoundland and Labrador,CA,47.088906,-55.755111
NL483,Grand Bay East,,Newfoundland and Labrador,CA,47.5861111,-59.1675
NL484,Grand Bay West,,Newfoundland and Labrador,CA,47.5852778,-59.18
NL485,Grand Bruit,,Newfoundland and Labrador,CA,47.671667,-58.226667
NL486,Grand Falls,,Newfoundland and Labrador,CA,48.9330556,-55.6513889
NL487,Grand Falls-Windsor,,Newfoundland and Labrador,CA,48.9640028,-55.6644417
NL488,Grand Jardin,,Newfoundland and Labrador,CA,48.4738889,-59.2186111
NL489,Grand John,,Newfoundland and Labrador,CA,47.4908334,-55.0561111
NL490,Grand Le Pierre,,Newfoundland and Labrador,CA,47.7732861,-54.8056084
NL491,Grandois,,Newfoundland and Labrador,CA,51.1025,-55.7486111
NL492,Grants,,Newfoundland and Labrador,CA,48.7305556,-54.1769444
NL493,Graven Bank,,Newfoundland and Labrador,CA,46.9605555,-53.5319445
NL494,Great Barasway,,Newfoundland and Labrador,CA,47.1275,-54.0627778
NL495,Great Bona,,Newfoundland and Labrador,CA,47.3905555,-54.5291667
NL496,Great Brule,,Newfoundland and Labrador,CA,47.6588889,-54.1341667
NL497,Great Harbour,,Newfoundland and Labrador,CA,47.5119444,-55.8441666
NL498,Great Harbour Deep,,Newfoundland and Labrador,CA,50.373333,-56.519444
NL499,Great Jervais,,Newfoundland and Labrador,CA,47.4694444,-55.1522222
NL500,Great Jervis Harbour,,Newfoundland and Labrador,CA,47.660006,-56.161704
NL501,Great Paradise,,Newfoundland and Labrador,CA,47.3513889,-54.5925
NL502,Great Salmonier,,Newfoundland and Labrador,CA,47.0686111,-55.2166667
NL503,Greeleytown,,Newfoundland and Labrador,CA,47.5041667,-52.9852778
NL504,Green Cove,,Newfoundland and Labrador,CA,49.6361112,-54.5927778
NL505,Green Island Cove,,Newfoundland and Labrador,CA,51.383375,-56.582365
NL506,Green Point,,Newfoundland and Labrador,CA,49.6822222,-57.9552778
NL507,Greenland,,Newfoundland and Labrador,CA,47.5655556,-53.1872222
NL508,Greenspond,,Newfoundland and Labrador,CA,49.07315,-53.5768027
NL509,Grenfell Heights,,Newfoundland and Labrador,CA,48.9477778,-55.6247222
NL510,Grey Islands Harbour,,Newfoundland and Labrador,CA,50.7022222,-55.5961111
NL511,Gripes Nest,,Newfoundland and Labrador,CA,46.9036111,-52.9188889
NL512,Griquet,,Newfoundland and Labrador,CA,51.5291667,-55.4586111
NL513,Groais Island,,Newfoundland and Labrador,CA,50.7256841,-55.587951
NL514,Grole,,Newfoundland and Labrador,CA,47.5219445,-56.1194444
NL515,Gulch,,Newfoundland and Labrador,CA,46.9075,-53.5977778
NL516,Gull Island,,Newfoundland and Labrador,CA,47.9538889,-53.0433333
NL517,Gullbridge,,Newfoundland and Labrador,CA,49.1997222,-56.155
NL518,Gullies,,Newfoundland and Labrador,CA,47.6477778,-53.2863889
NL519,Gulls Marsh,,Newfoundland and Labrador,CA,49.7833333,-57.8838889
NL520,Gunners Cove,,Newfoundland and Labrador,CA,51.5155555,-55.4586111
NL521,Gunridge,,Newfoundland and Labrador,CA,47.3111111,-52.7805556
NL522,Gussetts Cove,,Newfoundland and Labrador,CA,47.8511111,-53.0886111
NL523,Halfway House,,Newfoundland and Labrador,CA,47.8041667,-53.2938889
NL524,Halfway Point,,Newfoundland and Labrador,CA,48.9927778,-58.1
NL525,Halfway Tucks,,Newfoundland and Labrador,CA,46.7038889,-53.5980556
NL526,Halls Town,,Newfoundland and Labrador,CA,47.5375,-53.3230555
NL527,Hampden,,Newfoundland and Labrador,CA,49.5396389,-56.8816277
NL528,Hannah Cove,,Newfoundland and Labrador,CA,49.6202777,-56.83
NL529,Hant's Harbour,,Newfoundland and Labrador,CA,47.990422,-53.276714
NL530,Happy Adventure,,Newfoundland and Labrador,CA,48.6351722,-53.7818861
NL531,Happy Valley - Goose Bay,,Newfoundland and Labrador,CA,53.341739,-60.448803
NL532,Harbour Breton,,Newfoundland and Labrador,CA,47.477522,-55.824044
NL533,Harbour Buffett,,Newfoundland and Labrador,CA,47.5275,-54.0866667
NL534,Harbour Deep,,Newfoundland and Labrador,CA,50.369988,-56.51732
NL535,Harbour Grace,,Newfoundland and Labrador,CA,47.6796861,-53.2535888
NL536,Harbour Grace South,,Newfoundland and Labrador,CA,47.6786111,-53.2158333
NL537,Harbour Island,,Newfoundland and Labrador,CA,47.5516667,-54.2602778
NL538,Harbour Le Cou,,Newfoundland and Labrador,CA,47.6227778,-58.6869444
NL539,Harbour Main,,Newfoundland and Labrador,CA,47.4338889,-53.1611111
NL540,Harbour Main-Chapel's Cove-Lakeview,,Newfoundland and Labrador,CA,47.4118667,-53.1740194
NL541,Harbour Mille,,Newfoundland and Labrador,CA,47.581389,-54.879722
NL542,Harbour Round,,Newfoundland and Labrador,CA,49.9216667,-55.7380555
NL543,Harcourt,,Newfoundland and Labrador,CA,48.1977777,-53.8583334
NL544,Hardy's Cove,,Newfoundland and Labrador,CA,47.6675,-55.6663889
NL545,Hare Bay,,Newfoundland and Labrador,CA,48.8591528,-54.0318361
NL546,Hare Harbour,,Newfoundland and Labrador,CA,53.750866,-56.7315184
NL547,Hare Harbour,,Newfoundland and Labrador,CA,47.5830556,-55.1430556
NL548,Harlands Landing,,Newfoundland and Labrador,CA,53.483333,-64.499167
NL549,Harnum Point,,Newfoundland and Labrador,CA,47.5666667,-53.5647222
NL550,Harricott,,Newfoundland and Labrador,CA,47.1738889,-53.5408333
NL551,Harris Point,,Newfoundland and Labrador,CA,49.2808334,-54.4869444
NL552,Harrison,,Newfoundland and Labrador,CA,48.9755556,-57.7838889
NL553,Harrys Brook,,Newfoundland and Labrador,CA,48.666667,-58.265833
NL554,Hatchet Cove,,Newfoundland and Labrador,CA,48.0286111,-53.7997222
NL555,Hatchet Harbour,,Newfoundland and Labrador,CA,49.6338889,-54.6227778
NL556,Hawke Harbour,,Newfoundland and Labrador,CA,53.0422686,-55.8097361
NL557,Hawke's Bay,,Newfoundland and Labrador,CA,50.6168083,-57.1846972
NL558,Haystack,,Newfoundland and Labrador,CA,47.6375,-54.0777778
NL559,Hayward Cove,,Newfoundland and Labrador,CA,49.562804,-54.891531
NL560,Haywards Cove,,Newfoundland and Labrador,CA,48.8683333,-53.6477778
NL561,Head Harbour,,Newfoundland and Labrador,CA,49.4961111,-55.6925
NL562,Head of Bay D'Espoir,,Newfoundland and Labrador,CA,47.9294444,-55.7527778
NL563,Heart's Content,,Newfoundland and Labrador,CA,47.8498556,-53.3549306
NL564,Heart's Delight,,Newfoundland and Labrador,CA,47.7747222,-53.4625
NL565,Heart's Delight-Islington,,Newfoundland and Labrador,CA,47.7720722,-53.4437166
NL566,Heart's Desire,,Newfoundland and Labrador,CA,47.8156361,-53.4267777
NL567,Heatherton,,Newfoundland and Labrador,CA,48.2805556,-58.7577778
NL568,Hebron,,Newfoundland and Labrador,CA,58.1993175,-62.6258544
NL569,Henley Harbour,,Newfoundland and Labrador,CA,51.9955852,-55.8517801
NL570,Hermitage,,Newfoundland and Labrador,CA,47.55,-55.9325
NL571,Hermitage-Sandyville,,Newfoundland and Labrador,CA,47.546214,-55.924428
NL572,Hibbs Cove,,Newfoundland and Labrador,CA,47.6011111,-53.1847222
NL573,Hickman's Harbour,,Newfoundland and Labrador,CA,48.1086111,-53.7422222
NL574,High Beach,,Newfoundland and Labrador,CA,46.8888889,-55.8902778
NL575,Highlands,,Newfoundland and Labrador,CA,48.1716667,-58.9302778
NL576,Hillgrade,,Newfoundland and Labrador,CA,49.5719444,-54.7052778
NL577,Hillview,,Newfoundland and Labrador,CA,48.033889,-53.917222
NL578,Hodderville,,Newfoundland and Labrador,CA,48.5280556,-53.3013889
NL579,Hogan's Pond,,Newfoundland and Labrador,CA,47.5844445,-52.8638889
NL580,Holiday Hill,,Newfoundland and Labrador,CA,47.4625,-53.5366667
NL581,Holton,,Newfoundland and Labrador,CA,54.574113,-57.2755588
NL582,Holyrood,,Newfoundland and Labrador,CA,47.3458861,-53.1520305
NL583,Hoop Cove,,Newfoundland and Labrador,CA,47.6255555,-55.1061111
NL584,Hooping Harbour,,Newfoundland and Labrador,CA,50.6163889,-56.2655556
NL585,Hopedale,,Newfoundland and Labrador,CA,55.460711,-60.233242
NL586,Hopewell,,Newfoundland and Labrador,CA,47.4783333,-53.0522223
NL587,Horse Islands,,Newfoundland and Labrador,CA,50.2022222,-55.7327778
NL588,Howards,,Newfoundland and Labrador,CA,48.8,-58.149167
NL589,Howley,,Newfoundland and Labrador,CA,49.1572028,-57.0995333
NL590,Hoylestown,,Newfoundland and Labrador,CA,47.5758333,-52.6888889
NL591,Hughes Brook,,Newfoundland and Labrador,CA,48.9996805,-57.87935
NL592,Humber Arm South,,Newfoundland and Labrador,CA,49.01565,-58.1677167
NL593,Humber Canal,,Newfoundland and Labrador,CA,49.1883334,-57.3658334
NL594,Humber Village,,Newfoundland and Labrador,CA,48.9891666,-57.7638888
NL595,Hydroville,,Newfoundland and Labrador,CA,49.4699328,-56.1903556
NL596,Iggiak,,Newfoundland and Labrador,CA,56.2694445,-61.6855555
NL597,Iglosoataliksoak,,Newfoundland and Labrador,CA,55.266667,-60.365833
NL598,Iglosuatiliratsuk,,Newfoundland and Labrador,CA,56.8058453,-61.6805575
NL599,Independent,,Newfoundland and Labrador,CA,53.856985,-56.880481
NL600,Indian Bay,,Newfoundland and Labrador,CA,49.0641139,-53.96235
NL601,Indian Burying Place,,Newfoundland and Labrador,CA,49.8283333,-55.74
NL602,Indian Cove (settlement),,Newfoundland and Labrador,CA,52.2605199,-55.64954
NL603,Indian Harbour,,Newfoundland and Labrador,CA,47.643889,-58.423889
NL604,Indian Harbour,,Newfoundland and Labrador,CA,53.7977926,-56.9952078
NL605,Indian Harbour,,Newfoundland and Labrador,CA,47.4877777,-54.1955556
NL606,Indian Harbour,,Newfoundland and Labrador,CA,54.4464596,-57.2161651
NL607,Indian Islands,,Newfoundland and Labrador,CA,49.533333,-54.2325
NL608,Indian Pond,,Newfoundland and Labrador,CA,47.4597222,-53.0866667
NL609,Indian Tickle,,Newfoundland and Labrador,CA,53.5553959,-56.0020012
NL610,Innismara,,Newfoundland and Labrador,CA,49.1037805,-58.2139444
NL611,Iona,,Newfoundland and Labrador,CA,47.4244444,-53.9730555
NL612,Ireland's Bight,,Newfoundland and Labrador,CA,51.333333,-55.765555
NL613,Ireland's Eye,,Newfoundland and Labrador,CA,48.2172222,-53.4955555
NL614,Irishtown,,Newfoundland and Labrador,CA,48.9838889,-57.9361111
NL615,Irishtown,,Newfoundland and Labrador,CA,47.3216667,-52.8158333
NL616,Irishtown-Summerside,,Newfoundland and Labrador,CA,48.987769,-57.954761
NL617,Irvine,,Newfoundland and Labrador,CA,47.5302778,-52.8794444
NL618,Island Cove,,Newfoundland and Labrador,CA,48.0030556,-53.7761111
NL619,Island Harbour,,Newfoundland and Labrador,CA,49.616111,-54.311944
NL620,Island Harbour,,Newfoundland and Labrador,CA,53.7529055,-56.7844794
NL621,Isle Valen,,Newfoundland and Labrador,CA,47.4775,-54.3877778
NL622,Isle aux Morts,,Newfoundland and Labrador,CA,47.5974223,-58.965975
NL623,Islington,,Newfoundland and Labrador,CA,47.7594444,-53.4786111
NL624,Ittilliarsuk,,Newfoundland and Labrador,CA,55.250086,-60.065717
NL625,Ivanhoe,,Newfoundland and Labrador,CA,48.2022222,-53.5147222
NL626,Jack Ladder,,Newfoundland and Labrador,CA,49.3255555,-57.5327778
NL627,Jackson's Arm,,Newfoundland and Labrador,CA,49.8652223,-56.8048306
NL628,Jackson's Cove,,Newfoundland and Labrador,CA,49.6852778,-55.9936111
NL629,Jacques Fontaine,,Newfoundland and Labrador,CA,47.5230556,-54.9288889
NL630,Jamestown,,Newfoundland and Labrador,CA,48.4427778,-53.7991667
NL631,Jean de Gaunt Island,,Newfoundland and Labrador,CA,47.5261111,-54.2722223
NL632,Jeffrey's,,Newfoundland and Labrador,CA,48.2252778,-58.8430555
NL633,Jenkins Cove,,Newfoundland and Labrador,CA,49.6688889,-54.7563889
NL634,Jerrys Nose,,Newfoundland and Labrador,CA,48.5163889,-58.9405556
NL635,Jersey Harbour,,Newfoundland and Labrador,CA,47.4858333,-55.7611111
NL636,Jerseyside,,Newfoundland and Labrador,CA,47.2547222,-53.9613889
NL637,Jim Myles Garden,,Newfoundland and Labrador,CA,47.6769445,-54.7127778
NL638,Jim's Cove,,Newfoundland and Labrador,CA,49.5133334,-55.6175
NL639,Job's Cove,,Newfoundland and Labrador,CA,47.9780555,-53.0136111
NL640,Job's Room,,Newfoundland and Labrador,CA,51.4658333,-56.9486111
NL641,Joe Batt's Arm,,Newfoundland and Labrador,CA,49.7269444,-54.1725
NL642,Joe Batt's Arm-Barr'd Islands-Shoal Bay,,Newfoundland and Labrador,CA,49.722625,-54.149056
NL643,John's Beach,,Newfoundland and Labrador,CA,49.0230556,-58.1441667
NL644,John's Pond,,Newfoundland and Labrador,CA,47.1472222,-53.6177778
NL645,Jordan Town,,Newfoundland and Labrador,CA,47.589597,-53.203572
NL646,Journois,,Newfoundland and Labrador,CA,48.3561111,-58.6811111
NL647,Joyce,,Newfoundland and Labrador,CA,48.3797222,-58.5922222
NL648,Jumpers Brook,,Newfoundland and Labrador,CA,49.0263889,-55.4005556
NL649,Junction Brook,,Newfoundland and Labrador,CA,49.2147222,-57.3991667
NL650,Juniper Stump,,Newfoundland and Labrador,CA,47.5019444,-53.3033333
NL651,Kaipokok,,Newfoundland and Labrador,CA,55.066667,-59.5825
NL652,Kamarsuk,,Newfoundland and Labrador,CA,56.2780555,-61.5930555
NL653,Kauk Bight,,Newfoundland and Labrador,CA,56.5,-61.715833
NL654,Keels,,Newfoundland and Labrador,CA,48.6019445,-53.4074445
NL655,Kelligrews,,Newfoundland and Labrador,CA,47.5061111,-53.0058334
NL656,Kenney's Cove,,Newfoundland and Labrador,CA,51.066666,-55.798889
NL657,Kerleys Harbour,,Newfoundland and Labrador,CA,48.2811111,-53.4697223
NL658,Kettle Cove,,Newfoundland and Labrador,CA,49.5966667,-54.7183333
NL659,Kilbride,,Newfoundland and Labrador,CA,47.5280555,-52.7411111
NL660,King's Cove,,Newfoundland and Labrador,CA,48.5589834,-53.3732611
NL661,King's Point,,Newfoundland and Labrador,CA,49.5807861,-56.208
NL662,Kingman's,,Newfoundland and Labrador,CA,46.9652778,-52.9408333
NL663,Kings Cove,,Newfoundland and Labrador,CA,52.575182,-55.7417099
NL664,Kings Cove,,Newfoundland and Labrador,CA,49.7105555,-55.9
NL665,Kingston,,Newfoundland and Labrador,CA,47.8252778,-53.1155556
NL666,Kingwell,,Newfoundland and Labrador,CA,47.5494444,-54.1055556
NL667,Kippens,,Newfoundland and Labrador,CA,48.5585444,-58.6339833
NL668,Kirby's Cove,,Newfoundland and Labrador,CA,47.025,-55.1694445
NL669,Kitchuses,,Newfoundland and Labrador,CA,47.4569444,-53.1838889
NL670,Kitty's Brook,,Newfoundland and Labrador,CA,49.1863889,-56.9019445
NL671,Knights Cove,,Newfoundland and Labrador,CA,48.5405556,-53.3222222
NL672,Knob Lake Junction,,Newfoundland and Labrador,CA,54.750108,-66.782601
NL673,Koanclikulluk,,Newfoundland and Labrador,CA,55.3,-60.399167
NL674,L'Anse au Loup,,Newfoundland and Labrador,CA,51.525847,-56.8349304
NL675,L'Anse-Amour,,Newfoundland and Labrador,CA,51.4677778,-56.8713889
NL676,L'Anse-au-Clair,,Newfoundland and Labrador,CA,51.4637361,-57.0670944
NL677,L'Anse-au-Diable,,Newfoundland and Labrador,CA,51.5602778,-56.7561111
NL678,L'Anse-au-Loup,,Newfoundland and Labrador,CA,47.0838889,-55.6730555
NL679,L'Anse-Ã -l'Eau,,Newfoundland and Labrador,CA,47.01,-55.2038889
NL680,La Manche,,Newfoundland and Labrador,CA,47.6913889,-53.9391667
NL681,La Manche,,Newfoundland and Labrador,CA,47.1677778,-52.8638889
NL682,La Manche Siding,,Newfoundland and Labrador,CA,47.7025,-53.9027778
NL683,LaScie,,Newfoundland and Labrador,CA,49.949236,-55.610031
NL684,Labrador City,,Newfoundland and Labrador,CA,52.9605694,-66.9365973
NL685,Ladle Cove,,Newfoundland and Labrador,CA,49.4688889,-54.055
NL686,Lady Cove,,Newfoundland and Labrador,CA,48.0938889,-53.8438889
NL687,Lake Bond,,Newfoundland and Labrador,CA,49.016667,-56.165833
NL688,Lake Siding,,Newfoundland and Labrador,CA,49.1583334,-57.4491667
NL689,Lakeview,,Newfoundland and Labrador,CA,47.4202778,-53.1397222
NL690,Lally Cove,,Newfoundland and Labrador,CA,47.6552778,-55.3691667
NL691,Lamaline,,Newfoundland and Labrador,CA,46.906572,-55.768875
NL692,Lancaster,,Newfoundland and Labrador,CA,48.66,-53.0669445
NL693,Lance Cove,,Newfoundland and Labrador,CA,47.4666667,-53.0619444
NL694,Lance Cove,,Newfoundland and Labrador,CA,48.6641667,-53.0863889
NL695,Langdon's Cove,,Newfoundland and Labrador,CA,49.6927778,-55.9772222
NL696,Lark Harbour,,Newfoundland and Labrador,CA,49.1055056,-58.3923611
NL697,Lawn,,Newfoundland and Labrador,CA,46.93885,-55.539314
NL698,Lawrence Pond,,Newfoundland and Labrador,CA,47.4652778,-53.0436111
NL699,Lead Cove,,Newfoundland and Labrador,CA,48.045,-53.0919444
NL700,Lead Mines,,Newfoundland and Labrador,CA,47.6877777,-53.9383333
NL701,Leading Tickles,,Newfoundland and Labrador,CA,49.481925,-55.4271583
NL702,Leading Tickles East,,Newfoundland and Labrador,CA,49.5,-55.415833
NL703,Leading Tickles South,,Newfoundland and Labrador,CA,49.4961111,-55.4513889
NL704,Lears Cove,,Newfoundland and Labrador,CA,46.8502778,-54.1855556
NL705,Lethbridge,,Newfoundland and Labrador,CA,48.3694445,-53.8611111
NL706,Lewin's Cove,,Newfoundland and Labrador,CA,47.0873,-55.2189528
NL707,Lewisporte,,Newfoundland and Labrador,CA,49.2418083,-55.0460194
NL708,Little Barasway,,Newfoundland and Labrador,CA,47.1780555,-54.0416667
NL709,Little Bay,,Newfoundland and Labrador,CA,47.1630555,-55.1044444
NL710,Little Bay,,Newfoundland and Labrador,CA,49.5992389,-55.9518361
NL711,Little Bay,,Newfoundland and Labrador,CA,47.61664,-56.03251
NL712,Little Bay East,,Newfoundland and Labrador,CA,47.555833,-54.863889
NL713,Little Bay Islands,,Newfoundland and Labrador,CA,49.6443361,-55.7974221
NL714,Little Bay West,,Newfoundland and Labrador,CA,47.5022222,-55.7191667
NL715,Little Bona,,Newfoundland and Labrador,CA,47.3683334,-54.5663889
NL716,Little Brehat,,Newfoundland and Labrador,CA,51.4513889,-55.4802778
NL717,Little Brule,,Newfoundland and Labrador,CA,47.6675,-54.1302778
NL718,Little Burnt Bay,,Newfoundland and Labrador,CA,49.3397167,-55.0820056
NL719,Little Catalina,,Newfoundland and Labrador,CA,48.549469,-53.056886
NL720,Little Harbour,,Newfoundland and Labrador,CA,49.1147183,-57.5127225
NL721,Little Harbour,,Newfoundland and Labrador,CA,49.6277778,-54.7111111
NL722,Little Harbour,,Newfoundland and Labrador,CA,49.590743,-54.842247
NL723,Little Harbour Deep,,Newfoundland and Labrador,CA,50.2494444,-56.5541667
NL724,Little Harbour East,,Newfoundland and Labrador,CA,47.5961111,-54.86
NL725,Little Harbour West,,Newfoundland and Labrador,CA,47.383333,-54.799167
NL726,Little Heart's Ease,,Newfoundland and Labrador,CA,48.0086111,-53.6994444
NL727,Little Island Cove,,Newfoundland and Labrador,CA,47.4277778,-53.5505556
NL728,Little Paradise,,Newfoundland and Labrador,CA,47.3602778,-54.5783333
NL729,Little Port,,Newfoundland and Labrador,CA,49.106944,-58.418611
NL730,Little Pumbly Cove,,Newfoundland and Labrador,CA,49.7233333,-56.6961111
NL731,Little Quirpon,,Newfoundland and Labrador,CA,51.5772222,-55.4427778
NL732,Little Salmonier,,Newfoundland and Labrador,CA,47.0691666,-55.1761111
NL733,Little Seldom,,Newfoundland and Labrador,CA,49.5991667,-54.2033333
NL734,Livingston,,Newfoundland and Labrador,CA,53.933417,-66.449282
NL735,Lobster Cove,,Newfoundland and Labrador,CA,49.6125,-57.9525
NL736,Lobster Harbour,,Newfoundland and Labrador,CA,49.6038889,-54.6836111
NL737,Loch Leven,,Newfoundland and Labrador,CA,48.1683334,-58.8638889
NL738,Lock's Cove,,Newfoundland and Labrador,CA,51.3377778,-55.9555555
NL739,Locks Cove,,Newfoundland and Labrador,CA,47.6416666,-56.5091666
NL740,Locks Harbour,,Newfoundland and Labrador,CA,49.450607,-55.510384
NL741,Lockston,,Newfoundland and Labrador,CA,48.3963889,-53.3755555
NL742,Lodges,,Newfoundland and Labrador,CA,47.5575,-53.6286111
NL743,Logy Bay,,Newfoundland and Labrador,CA,47.63,-52.6783333
NL744,Logy Bay-Middle Cove-Outer Cove,,Newfoundland and Labrador,CA,47.6366889,-52.6870083
NL745,Lomond,,Newfoundland and Labrador,CA,49.4605555,-57.7613889
NL746,Lonesome Cove,,Newfoundland and Labrador,CA,51.400043,-56.549031
NL747,Long Beach,,Newfoundland and Labrador,CA,48.4375,-53.5766667
NL748,Long Beach,,Newfoundland and Labrador,CA,46.6425,-53.1352778
NL749,Long Beach,,Newfoundland and Labrador,CA,47.9486111,-53.0544445
NL750,Long Beach,,Newfoundland and Labrador,CA,47.9963889,-53.8163889
NL751,Long Cove,,Newfoundland and Labrador,CA,47.0591667,-55.1719445
NL752,Long Cove,,Newfoundland and Labrador,CA,47.5688889,-53.6716667
NL753,Long Grade,,Newfoundland and Labrador,CA,47.6116667,-59.2011111
NL754,Long Harbour,,Newfoundland and Labrador,CA,47.4333333,-53.8152778
NL755,Long Harbour Station,,Newfoundland and Labrador,CA,47.4655556,-53.7319445
NL756,Long Harbour-Mount Arlington Heights,,Newfoundland and Labrador,CA,47.4430945,-53.782475
NL757,Long Point,,Newfoundland and Labrador,CA,48.7661111,-58.7894445
NL758,Long Pond,,Newfoundland and Labrador,CA,47.5158333,-52.9705555
NL759,Loran,,Newfoundland and Labrador,CA,52.2480093,-55.6107508
NL760,Lord's Cove,,Newfoundland and Labrador,CA,46.8984417,-55.6587028
NL761,Loreburn,,Newfoundland and Labrador,CA,48.0466667,-53.7144444
NL762,Loretto,,Newfoundland and Labrador,CA,48.502453,-59.150035
NL763,Lories,,Newfoundland and Labrador,CA,46.9011112,-55.9394444
NL764,Lourdes,,Newfoundland and Labrador,CA,48.647823,-59.001605
NL765,Low Point,,Newfoundland and Labrador,CA,48.0597222,-52.9580555
NL766,Lower Coast,,Newfoundland and Labrador,CA,46.7236111,-53.3802778
NL767,Lower Cove,,Newfoundland and Labrador,CA,48.5236112,-59.0038889
NL768,Lower Island Cove,,Newfoundland and Labrador,CA,48.0025,-52.98
NL769,Lucyville,,Newfoundland and Labrador,CA,54.7713889,-58.4352778
NL770,Luke's Arm,,Newfoundland and Labrador,CA,49.5097222,-54.8569444
NL771,Lumsden,,Newfoundland and Labrador,CA,49.2867583,-53.5925417
NL772,Lumsden South,,Newfoundland and Labrador,CA,49.3,-53.582222
NL773,Lushes Bight,,Newfoundland and Labrador,CA,49.5930556,-55.7138889
NL774,Lushes Bight - Beaumont - Beaumont North,,Newfoundland and Labrador,CA,49.612445,-55.699182
NL775,Maberly,,Newfoundland and Labrador,CA,48.6197222,-53.015
NL776,Maccles,,Newfoundland and Labrador,CA,48.644136,-54.130291
NL777,Maddox Cove,,Newfoundland and Labrador,CA,47.4736111,-52.7013889
NL778,Mahers,,Newfoundland and Labrador,CA,47.3972223,-53.3616667
NL779,Maidstone,,Newfoundland and Labrador,CA,48.2005556,-58.875
NL780,Main Brook,,Newfoundland and Labrador,CA,51.1652528,-55.9875694
NL781,Main Point,,Newfoundland and Labrador,CA,49.3372222,-54.4297222
NL782,Makkovik,,Newfoundland and Labrador,CA,55.047394,-59.202842
NL783,Mall Bay,,Newfoundland and Labrador,CA,46.9766666,-53.5872222
NL784,Man of War Cove,,Newfoundland and Labrador,CA,48.5286111,-58.8111111
NL785,Manuels,,Newfoundland and Labrador,CA,47.5230556,-52.9536111
NL786,Manuels Cove,,Newfoundland and Labrador,CA,49.6122222,-54.7347222
NL787,Maple Valley Industrial Park,,Newfoundland and Labrador,CA,48.95,-57.9169444
NL788,Marble Mountain Ski Area,,Newfoundland and Labrador,CA,48.945,-57.8286111
NL789,Marches Point,,Newfoundland and Labrador,CA,48.4972222,-59.135
NL790,Margaree,,Newfoundland and Labrador,CA,47.5733333,-59.0561111
NL791,Marquise,,Newfoundland and Labrador,CA,47.2844444,-53.9966667
NL792,Mary March,,Newfoundland and Labrador,CA,49,-56.549167
NL793,Mary's Harbour,,Newfoundland and Labrador,CA,52.3152777,-55.8336001
NL794,Marystown,,Newfoundland and Labrador,CA,47.154975,-55.1644334
NL795,Marystown South,,Newfoundland and Labrador,CA,47.1564,-55.1617
NL796,Masons Cove,,Newfoundland and Labrador,CA,49.3122223,-55.0361111
NL797,Massey Drive,,Newfoundland and Labrador,CA,48.9363861,-57.8927417
NL798,McAndrew,,Newfoundland and Labrador,CA,47.2844444,-53.9791667
NL799,McIver's,,Newfoundland and Labrador,CA,49.0608417,-58.1094667
NL800,McKay's,,Newfoundland and Labrador,CA,48.2311111,-58.8202778
NL801,Meadows,,Newfoundland and Labrador,CA,48.996536,-58.045158
NL802,Melrose,,Newfoundland and Labrador,CA,48.4805556,-53.0727778
NL803,Menihek,,Newfoundland and Labrador,CA,54.4744445,-66.6161111
NL804,Merasheen,,Newfoundland and Labrador,CA,47.4138889,-54.3455555
NL805,Mercer's Cove,,Newfoundland and Labrador,CA,47.2608334,-55.8697222
NL806,Mercer's Cove,,Newfoundland and Labrador,CA,47.6036111,-53.2344444
NL807,Michael's Harbour,,Newfoundland and Labrador,CA,49.2902778,-54.9841667
NL808,Middle Amherst Cove,,Newfoundland and Labrador,CA,48.5644444,-53.2205555
NL809,Middle Arm,,Newfoundland and Labrador,CA,49.7030277,-56.1148445
NL810,Middle Arm,,Newfoundland and Labrador,CA,49.8569445,-56.4397222
NL811,Middle Arm,,Newfoundland and Labrador,CA,47.4358333,-53.2008333
NL812,Middle Brook,,Newfoundland and Labrador,CA,48.8022223,-54.2086111
NL813,Middle Cove,,Newfoundland and Labrador,CA,47.6477778,-52.6958334
NL814,Middle Gut,,Newfoundland and Labrador,CA,46.7852778,-53.6247223
NL815,Middle House,,Newfoundland and Labrador,CA,54.1925596,-58.5913496
NL816,Miles Cove,,Newfoundland and Labrador,CA,49.5401528,-55.7958777
NL817,Miller's Passage,,Newfoundland and Labrador,CA,47.5180555,-55.6563889
NL818,Millertown,,Newfoundland and Labrador,CA,48.8119444,-56.5430555
NL819,Millertown Junction,,Newfoundland and Labrador,CA,49.0086111,-56.3419444
NL820,Mills Siding,,Newfoundland and Labrador,CA,48.1952778,-53.9663889
NL821,Milltown,,Newfoundland and Labrador,CA,47.9075,-55.760278
NL822,Milltown-Head of Bay d'Espoir,,Newfoundland and Labrador,CA,47.925892,-55.744281
NL823,Millville,,Newfoundland and Labrador,CA,47.8513889,-59.3430556
NL824,Milton,,Newfoundland and Labrador,CA,48.2161111,-53.9630556
NL825,Ming's Bight,,Newfoundland and Labrador,CA,49.9747833,-56.0409167
NL826,Mistaken Cove,,Newfoundland and Labrador,CA,51.3155555,-56.7161111
NL827,Mitchells Brook,,Newfoundland and Labrador,CA,47.13,-53.5111111
NL828,Molliers,,Newfoundland and Labrador,CA,47.1038889,-55.6511111
NL829,Monchy,,Newfoundland and Labrador,CA,48.9711111,-54.7913889
NL830,Monkstown,,Newfoundland and Labrador,CA,47.5766666,-54.4327778
NL831,Monroe,,Newfoundland and Labrador,CA,48.2002778,-53.7988889
NL832,Moore's Cove,,Newfoundland and Labrador,CA,49.5011111,-55.3077778
NL833,Moores Harbour,,Newfoundland and Labrador,CA,57.5343291,-61.7606947
NL834,Mooring Cove,,Newfoundland and Labrador,CA,47.1888889,-55.14
NL835,Morleys Siding,,Newfoundland and Labrador,CA,48.3172222,-53.9075
NL836,Morrisville,,Newfoundland and Labrador,CA,47.882844,-55.767158
NL837,Mortier,,Newfoundland and Labrador,CA,47.0886111,-55.1241667
NL838,Mose Ambrose,,Newfoundland and Labrador,CA,47.4658333,-55.5141667
NL839,Mosquito,,Newfoundland and Labrador,CA,46.9861111,-53.6877778
NL840,Mount Arlington Heights,,Newfoundland and Labrador,CA,47.4280556,-53.8547222
NL841,Mount Carmel,,Newfoundland and Labrador,CA,47.1530556,-53.4752778
NL842,Mount Carmel-Mitchells Brook-St. Catherine's,,Newfoundland and Labrador,CA,47.186478,-53.422992
NL843,Mount Cashel,,Newfoundland and Labrador,CA,47.5888889,-52.7111111
NL844,Mount Moriah,,Newfoundland and Labrador,CA,48.9583917,-58.0708694
NL845,Mount Pearl,,Newfoundland and Labrador,CA,47.5195306,-52.8118056
NL846,Mouse Island,,Newfoundland and Labrador,CA,47.5666667,-59.1597222
NL847,Mud Lake,,Newfoundland and Labrador,CA,53.3055556,-60.1669444
NL848,Muddy Bay,,Newfoundland and Labrador,CA,53.6530555,-57.0555556
NL849,Muddy Hole,,Newfoundland and Labrador,CA,47.618914,-56.352269
NL850,Murphys Cove,,Newfoundland and Labrador,CA,47.445,-54.4761111
NL851,Musgrave Harbour,,Newfoundland and Labrador,CA,49.4167028,-53.9644222
NL852,Musgravetown,,Newfoundland and Labrador,CA,48.4140306,-53.8921305
NL853,Nain,,Newfoundland and Labrador,CA,56.536319,-61.718942
NL854,Neddy Harbour,,Newfoundland and Labrador,CA,49.5275,-57.8688889
NL855,New Bonaventure,,Newfoundland and Labrador,CA,48.2841667,-53.4430556
NL856,New Bridge,,Newfoundland and Labrador,CA,47.1361111,-53.4763889
NL857,New Burnt Cove,,Newfoundland and Labrador,CA,48.1725,-53.7197222
NL858,New Chelsea,,Newfoundland and Labrador,CA,48.0244444,-53.2183333
NL859,New Country Siding,,Newfoundland and Labrador,CA,48.3472222,-53.7372222
NL860,New Ferolle,,Newfoundland and Labrador,CA,51.0183333,-57.0588889
NL861,New Harbour,,Newfoundland and Labrador,CA,47.6036111,-54.9680556
NL862,New Harbour,,Newfoundland and Labrador,CA,47.5994445,-56.6533334
NL863,New Melbourne,,Newfoundland and Labrador,CA,48.0452778,-53.1552778
NL864,New Perlican,,Newfoundland and Labrador,CA,47.9069389,-53.3271
NL865,New-Wes-Valley,,Newfoundland and Labrador,CA,49.1531389,-53.6266722
NL866,Newport,,Newfoundland and Labrador,CA,49.0441666,-53.6425
NL867,Newton,,Newfoundland and Labrador,CA,47.6597223,-52.7169445
NL868,Newtown,,Newfoundland and Labrador,CA,49.2052778,-53.5219444
NL869,Newtown,,Newfoundland and Labrador,CA,47.3641666,-53.1794445
NL870,Nicholsville,,Newfoundland and Labrador,CA,49.190556,-57.454167
NL871,Nickey's Nose Cove,,Newfoundland and Labrador,CA,49.6921356,-55.970928
NL872,Nippers Harbour,,Newfoundland and Labrador,CA,49.7933334,-55.8702778
NL873,Noels Pond,,Newfoundland and Labrador,CA,48.5636111,-58.5141667
NL874,Norman's Cove,,Newfoundland and Labrador,CA,47.56,-53.6658333
NL875,Norman's Cove-Long Cove,,Newfoundland and Labrador,CA,47.5459305,-53.6899055
NL876,Normans Bay,,Newfoundland and Labrador,CA,52.937622,-55.909179
NL877,Norris Arm,,Newfoundland and Labrador,CA,49.0773444,-55.2379028
NL878,Norris Point,,Newfoundland and Labrador,CA,49.5186111,-57.8725
NL879,Norris Point,,Newfoundland and Labrador,CA,49.5194444,-57.8725
NL880,North Bay,,Newfoundland and Labrador,CA,47.8041667,-58.3258333
NL881,North Boat Harbour,,Newfoundland and Labrador,CA,51.5902778,-55.9877778
NL882,North Cove,,Newfoundland and Labrador,CA,53.783333,-56.482222
NL883,North East Croque,,Newfoundland and Labrador,CA,51.055836,-55.802803
NL884,North Harbour,,Newfoundland and Labrador,CA,47.1502778,-53.665
NL885,North Harbour South,,Newfoundland and Labrador,CA,47.1502778,-53.6511111
NL886,North Pond Heights,,Newfoundland and Labrador,CA,47.6527778,-52.7327778
NL887,North River,,Newfoundland and Labrador,CA,47.54345,-53.3130305
NL888,North River,,Newfoundland and Labrador,CA,53.8190197,-57.1036152
NL889,North Samson Island,,Newfoundland and Labrador,CA,49.5,-54.949167
NL890,North Shore,,Newfoundland and Labrador,CA,48.6897222,-54.0244444
NL891,North Side,,Newfoundland and Labrador,CA,46.9611111,-52.9319445
NL892,North Valley,,Newfoundland and Labrador,CA,47.5488889,-53.3030556
NL893,North West Arm,,Newfoundland and Labrador,CA,47.5855556,-53.2822222
NL894,North West Arm,,Newfoundland and Labrador,CA,49.1338889,-53.6241667
NL895,North West Brook - Ivany's Cove,,Newfoundland and Labrador,CA,48.03,-53.957222
NL896,North West River,,Newfoundland and Labrador,CA,53.53545,-60.1440055
NL897,Northeast Arm Harbour Deep,,Newfoundland and Labrador,CA,50.4008333,-56.4911111
NL898,Northeast Crouse,,Newfoundland and Labrador,CA,50.9277778,-55.8516667
NL899,Northeast Harbour Buffett,,Newfoundland and Labrador,CA,47.5363889,-54.0713889
NL900,Northern,,Newfoundland and Labrador,CA,49.1836111,-57.3388889
NL901,Northern Arm,,Newfoundland and Labrador,CA,49.1861222,-55.3862583
NL902,Northern Bay,,Newfoundland and Labrador,CA,47.9444444,-53.0655555
NL903,Northern Bight,,Newfoundland and Labrador,CA,48.0152778,-54.0008333
NL904,Northside,,Newfoundland and Labrador,CA,47.6061111,-53.9333334
NL905,Notre Dame Junction,,Newfoundland and Labrador,CA,49.1263889,-55.0847222
NL906,Nuggetville,,Newfoundland and Labrador,CA,47.3372222,-53.5572222
NL907,Nutak,,Newfoundland and Labrador,CA,57.4817577,-61.8308122
NL908,O'Brien,,Newfoundland and Labrador,CA,49.0497223,-54.9933333
NL909,O'Regan's,,Newfoundland and Labrador,CA,47.8594445,-59.2297222
NL910,Ocean Pond,,Newfoundland and Labrador,CA,47.4233333,-53.4236111
NL911,Ochre Pit Cove,,Newfoundland and Labrador,CA,47.9094445,-53.0702778
NL912,Oderin,,Newfoundland and Labrador,CA,47.2930556,-54.7994445
NL913,Okak,,Newfoundland and Labrador,CA,57.5643338,-61.9830346
NL914,Old Bonaventure,,Newfoundland and Labrador,CA,48.2875,-53.4291667
NL915,Old Mill,,Newfoundland and Labrador,CA,47.76228,-57.2920099
NL916,Old Perlican,,Newfoundland and Labrador,CA,48.0871306,-52.9944472
NL917,Open Hall,,Newfoundland and Labrador,CA,48.5483333,-53.4819444
NL918,Opocopa,,Newfoundland and Labrador,CA,53.0417435,-66.6118348
NL919,Oreway,,Newfoundland and Labrador,CA,52.5666667,-65.8827778
NL920,Osmond,,Newfoundland and Labrador,CA,47.6238889,-59.2611111
NL921,Otter's Point,,Newfoundland and Labrador,CA,47.6830639,-58.0171014
NL922,Otterbury,,Newfoundland and Labrador,CA,47.6786111,-53.2502777
NL923,Otterbury,,Newfoundland and Labrador,CA,47.5788889,-52.8961111
NL924,Otterbury,,Newfoundland and Labrador,CA,47.5558333,-53.2730556
NL925,Our Harbour,,Newfoundland and Labrador,CA,47.6102777,-57.6094444
NL926,Outer Cove,,Newfoundland and Labrador,CA,47.6466667,-52.6805556
NL927,Packs Harbour,,Newfoundland and Labrador,CA,53.8563597,-56.9843693
NL928,Pacquet,,Newfoundland and Labrador,CA,49.992475,-55.8973083
NL929,Paddock's Bight,,Newfoundland and Labrador,CA,49.5661111,-55.78
NL930,Paradise,,Newfoundland and Labrador,CA,55.514159,-60.079965
NL931,Paradise,,Newfoundland and Labrador,CA,47.5346416,-52.8839778
NL932,Paradise,,Newfoundland and Labrador,CA,49.665801,-54.782202
NL933,Paradise Point,,Newfoundland and Labrador,CA,53.4377778,-57.2991666
NL934,Paradise River,,Newfoundland and Labrador,CA,53.4405556,-57.2730556
NL935,Pardy Island,,Newfoundland and Labrador,CA,47.0402778,-55.1444444
NL936,Parkers Cove,,Newfoundland and Labrador,CA,47.3984917,-54.8605778
NL937,Parkview,,Newfoundland and Labrador,CA,49.5244444,-54.7563889
NL938,Parson's Pond,,Newfoundland and Labrador,CA,50.0369278,-57.6969917
NL939,Parsons Harbour,,Newfoundland and Labrador,CA,47.5997222,-56.6533334
NL940,Parsons Point,,Newfoundland and Labrador,CA,49.0422222,-53.8738889
NL941,Pasadena,,Newfoundland and Labrador,CA,49.0119334,-57.5684833
NL942,Pass Island,,Newfoundland and Labrador,CA,47.4897223,-56.1952778
NL943,Pateyville,,Newfoundland and Labrador,CA,51.3566667,-55.5722223
NL944,Path End,,Newfoundland and Labrador,CA,46.8955555,-53.5505556
NL945,Path End,,Newfoundland and Labrador,CA,47.8561111,-53.9422222
NL946,Path End,,Newfoundland and Labrador,CA,46.8441667,-52.9477778
NL947,Path End,,Newfoundland and Labrador,CA,47.0472222,-55.1708334
NL948,Patrick's Cove,,Newfoundland and Labrador,CA,47.0361111,-54.1130555
NL949,Patricks Harbour,,Newfoundland and Labrador,CA,47.680211,-56.008557
NL950,Pays Cove,,Newfoundland and Labrador,CA,47.666666,-54.8325
NL951,Peaches Cove,,Newfoundland and Labrador,CA,47.6755556,-54.0811111
NL952,Peachytown,,Newfoundland and Labrador,CA,47.5013889,-52.9963889
NL953,Penetanguishene,,Newfoundland and Labrador,CA,47.6052778,-52.7516667
NL954,Penguin Arm,,Newfoundland and Labrador,CA,49.165659,-57.987817
NL955,Pentons Heights,,Newfoundland and Labrador,CA,49.717778,-54.134722
NL956,Perry's Cove,,Newfoundland and Labrador,CA,47.8,-53.149167
NL957,Peter's River,,Newfoundland and Labrador,CA,46.7625,-53.6066666
NL958,Peterview,,Newfoundland and Labrador,CA,49.1074583,-55.3388167
NL959,Petit Jardin,,Newfoundland and Labrador,CA,48.4708333,-59.2316666
NL960,Petites,,Newfoundland and Labrador,CA,47.618889,-58.633889
NL961,Petries,,Newfoundland and Labrador,CA,48.9594445,-58.0094444
NL962,Petty Harbour,,Newfoundland and Labrador,CA,47.4680555,-52.7086111
NL963,Petty Harbour,,Newfoundland and Labrador,CA,52.4073503,-55.6727083
NL964,Petty Harbour-Maddox Cove,,Newfoundland and Labrador,CA,47.4731556,-52.7071833
NL965,Piccadilly,,Newfoundland and Labrador,CA,48.5525,-58.9141667
NL966,Piccadilly Slant,,Newfoundland and Labrador,CA,48.5730556,-58.9091667
NL967,Piccaire,,Newfoundland and Labrador,CA,47.61,-55.9313889
NL968,Pick Eyes,,Newfoundland and Labrador,CA,47.5997222,-53.1833333
NL969,Pigeon Cove,,Newfoundland and Labrador,CA,51.2030556,-56.7844444
NL970,Pikes Arm,,Newfoundland and Labrador,CA,49.645,-54.5847222
NL971,Pilley's Island,,Newfoundland and Labrador,CA,49.5277056,-55.7158528
NL972,Pinchards Island,,Newfoundland and Labrador,CA,49.2,-53.4886111
NL973,Pines Cove,,Newfoundland and Labrador,CA,51.366708,-56.599034
NL974,Pinginak,,Newfoundland and Labrador,CA,55.333333,-60.399167
NL975,Pinsent,,Newfoundland and Labrador,CA,49.4338889,-54.0491667
NL976,Pinware,,Newfoundland and Labrador,CA,51.6219444,-56.7138889
NL977,Pitaga,,Newfoundland and Labrador,CA,52.45,-65.7994444
NL978,Pitts Harbour,,Newfoundland and Labrador,CA,52.0160051,-55.894233
NL979,Placentia,,Newfoundland and Labrador,CA,47.2705222,-53.9050916
NL980,Placentia Junction,,Newfoundland and Labrador,CA,47.383333,-53.665833
NL981,Plate Cove East,,Newfoundland and Labrador,CA,48.5166667,-53.4872222
NL982,Plate Cove West,,Newfoundland and Labrador,CA,48.489294,-53.510128
NL983,Pleasantville,,Newfoundland and Labrador,CA,47.5877778,-52.6805556
NL984,Plum Point,,Newfoundland and Labrador,CA,51.0730555,-56.8802778
NL985,Point Crewe,,Newfoundland and Labrador,CA,46.916667,-55.965833
NL986,Point EnragÃ©e,,Newfoundland and Labrador,CA,47.3894444,-55.2933334
NL987,Point La Haye,,Newfoundland and Labrador,CA,46.8919445,-53.5986111
NL988,Point Lance,,Newfoundland and Labrador,CA,46.8261611,-54.085025
NL989,Point Leamington,,Newfoundland and Labrador,CA,49.3198666,-55.4141
NL990,Point May,,Newfoundland and Labrador,CA,46.9452555,-55.9358056
NL991,Point Rosie,,Newfoundland and Labrador,CA,47.3886111,-55.29
NL992,Point Verde,,Newfoundland and Labrador,CA,47.2297222,-54.0025
NL993,Point au Gaul,,Newfoundland and Labrador,CA,46.8671222,-55.7472111
NL994,Point au Mal,,Newfoundland and Labrador,CA,48.6605555,-58.6611112
NL995,Point of Bay,,Newfoundland and Labrador,CA,49.2770277,-55.2679083
NL996,Pointe Ã  l'Aurore,,Newfoundland and Labrador,CA,51.0944445,-55.7505555
NL997,Pollards Point,,Newfoundland and Labrador,CA,49.7475,-56.8955555
NL998,Pond Cove,,Newfoundland and Labrador,CA,51.1275,-56.8613889
NL999,Pool's Cove,,Newfoundland and Labrador,CA,47.68255,-55.4343944
NL1000,Pool's Island,,Newfoundland and Labrador,CA,49.1122223,-53.5841667
NL1001,Popes Harbour,,Newfoundland and Labrador,CA,48.2358333,-53.57
NL1002,Port Anne,,Newfoundland and Labrador,CA,47.3855556,-54.7027777
NL1003,Port Anson,,Newfoundland and Labrador,CA,49.5366639,-55.8520028
NL1004,Port Blandford,,Newfoundland and Labrador,CA,48.3414861,-54.1775472
NL1005,Port Elizabeth,,Newfoundland and Labrador,CA,47.266667,-54.8825
NL1006,Port Hope Simpson,,Newfoundland and Labrador,CA,52.5433334,-56.2977778
NL1007,Port Kirwan,,Newfoundland and Labrador,CA,46.9822056,-52.9176361
NL1008,Port Nelson,,Newfoundland and Labrador,CA,49.0822223,-53.6194444
NL1009,Port Rexton,,Newfoundland and Labrador,CA,48.3995278,-53.3245444
NL1010,Port Royal,,Newfoundland and Labrador,CA,47.5275,-54.0977778
NL1011,Port Saunders,,Newfoundland and Labrador,CA,50.6620167,-57.2538723
NL1012,Port Union,,Newfoundland and Labrador,CA,48.4975,-53.0822223
NL1013,Port au Bras,,Newfoundland and Labrador,CA,47.058056,-55.133889
NL1014,Port au Choix,,Newfoundland and Labrador,CA,50.7050139,-57.3270028
NL1015,Port au Port,,Newfoundland and Labrador,CA,48.5580556,-58.7172222
NL1016,Port au Port East,,Newfoundland and Labrador,CA,48.5804306,-58.6711361
NL1017,Port au Port West-Aguathuna-Felix Cove,,Newfoundland and Labrador,CA,48.54625,-58.7731222
NL1018,Port de Grave,,Newfoundland and Labrador,CA,47.585,-53.2133333
NL1019,Porterville,,Newfoundland and Labrador,CA,49.2569444,-55.1858334
NL1020,Portland,,Newfoundland and Labrador,CA,48.4288889,-53.8188889
NL1021,Portugal Cove,,Newfoundland and Labrador,CA,47.6277778,-52.8555556
NL1022,Portugal Cove South,,Newfoundland and Labrador,CA,46.7044445,-53.2561111
NL1023,Portugal Cove-St. Philip's,,Newfoundland and Labrador,CA,47.6254028,-52.8380222
NL1024,Postville,,Newfoundland and Labrador,CA,54.91023,-59.802161
NL1025,Pouch Cove,,Newfoundland and Labrador,CA,47.7616666,-52.7708333
NL1026,Pouch Cove,,Newfoundland and Labrador,CA,47.7464916,-52.7774333
NL1027,Pound Cove,,Newfoundland and Labrador,CA,49.1761111,-53.56
NL1028,Pound Cove,,Newfoundland and Labrador,CA,49.7883333,-56.6297222
NL1029,Presque,,Newfoundland and Labrador,CA,47.4236111,-54.4883334
NL1030,Princeton,,Newfoundland and Labrador,CA,48.4175,-53.59
NL1031,Pritchetts,,Newfoundland and Labrador,CA,48.8241667,-54.2830555
NL1032,Prowseton,,Newfoundland and Labrador,CA,47.6775,-54.3219445
NL1033,Pumbly Cove,,Newfoundland and Labrador,CA,49.7372222,-56.6738889
NL1034,Purbeck's Cove,,Newfoundland and Labrador,CA,49.7488889,-56.6491666
NL1035,Pushthrough,,Newfoundland and Labrador,CA,47.642684,-56.158771
NL1036,Pynns,,Newfoundland and Labrador,CA,49.0922222,-57.5441666
NL1037,Quarry,,Newfoundland and Labrador,CA,49.0516667,-56.5872222
NL1038,Queen's Cove,,Newfoundland and Labrador,CA,48.009444,-53.927222
NL1039,Quidi Vidi,,Newfoundland and Labrador,CA,47.5805555,-52.6777777
NL1040,Rabbit Town,,Newfoundland and Labrador,CA,47.5636111,-52.7255555
NL1041,Raleigh,,Newfoundland and Labrador,CA,51.5588889,-55.7286111
NL1042,Ramah,,Newfoundland and Labrador,CA,58.8669442,-63.2491666
NL1043,Rambler,,Newfoundland and Labrador,CA,49.8944444,-56.0802778
NL1044,Ramea,,Newfoundland and Labrador,CA,47.5206972,-57.3944695
NL1045,Random Heights,,Newfoundland and Labrador,CA,48.1733333,-53.9325
NL1046,Rantem,,Newfoundland and Labrador,CA,47.6944445,-53.8583334
NL1047,Rantem Station,,Newfoundland and Labrador,CA,47.6688889,-53.8747222
NL1048,Rattling Brook,,Newfoundland and Labrador,CA,49.0725,-55.3111111
NL1049,Raymond Point,,Newfoundland and Labrador,CA,47.7027777,-55.9405555
NL1050,Red Bay,,Newfoundland and Labrador,CA,51.7327778,-56.4277778
NL1051,Red Brook,,Newfoundland and Labrador,CA,48.4916666,-59.1597222
NL1052,Red Cliff,,Newfoundland and Labrador,CA,48.9488889,-55.7647222
NL1053,Red Cliff,,Newfoundland and Labrador,CA,48.5591667,-53.4902778
NL1054,Red Cove,,Newfoundland and Labrador,CA,47.5338888,-55.6180556
NL1055,Red Harbour,,Newfoundland and Labrador,CA,47.2927334,-55.002225
NL1056,Red Head Cove,,Newfoundland and Labrador,CA,48.1288889,-52.8961111
NL1057,Red Island,,Newfoundland and Labrador,CA,47.4,-54.1563889
NL1058,Red Island,,Newfoundland and Labrador,CA,47.6331381,-57.504909
NL1059,Red Point,,Newfoundland and Labrador,CA,53.4933912,-55.8863259
NL1060,Red Rocks,,Newfoundland and Labrador,CA,47.6680555,-59.3119445
NL1061,Redore,,Newfoundland and Labrador,CA,54.6501,-66.665937
NL1062,Reefs Harbour,,Newfoundland and Labrador,CA,51.0144445,-57.0125
NL1063,Reginaville,,Newfoundland and Labrador,CA,47.016666,-53.6825
NL1064,Reids Fishing Room,,Newfoundland and Labrador,CA,47.5244445,-53.6719445
NL1065,Reids Room,,Newfoundland and Labrador,CA,47.5694445,-53.5644445
NL1066,Reidville,,Newfoundland and Labrador,CA,49.2595195,-57.3674916
NL1067,Rencontre East,,Newfoundland and Labrador,CA,47.6375,-55.215278
NL1068,Rencontre West,,Newfoundland and Labrador,CA,47.615,-56.6811111
NL1069,Renews,,Newfoundland and Labrador,CA,46.9269444,-52.9327778
NL1070,Renews-Cappahayden,,Newfoundland and Labrador,CA,46.8980555,-52.9477778
NL1071,Rexons Cove,,Newfoundland and Labrador,CA,52.5809634,-55.8757564
NL1072,Richard's Harbour,,Newfoundland and Labrador,CA,47.611017,-56.399691
NL1073,Ricketts Bridge,,Newfoundland and Labrador,CA,47.6,-52.732222
NL1074,Rigolet,,Newfoundland and Labrador,CA,54.179068,-58.431039
NL1075,Rioux,,Newfoundland and Labrador,CA,48.2066667,-54.0430556
NL1076,River Brook,,Newfoundland and Labrador,CA,48.143881,-58.806539
NL1077,River of Ponds,,Newfoundland and Labrador,CA,50.5303944,-57.3829889
NL1078,Riverdale,,Newfoundland and Labrador,CA,47.4933333,-53.0216667
NL1079,Riverhead,,Newfoundland and Labrador,CA,46.9780556,-52.9577777
NL1080,Riverhead,,Newfoundland and Labrador,CA,46.7638889,-53.3513889
NL1081,Riverhead,,Newfoundland and Labrador,CA,47.5308333,-53.2047222
NL1082,Riverhead,,Newfoundland and Labrador,CA,47.8855555,-53.085
NL1083,Riverhead,,Newfoundland and Labrador,CA,46.9934694,-53.4833
NL1084,Riverhead,,Newfoundland and Labrador,CA,47.6691666,-53.2616667
NL1085,Riverview Siding,,Newfoundland and Labrador,CA,47.8680555,-59.1175
NL1086,Robert,,Newfoundland and Labrador,CA,50.7869444,-56.0341667
NL1087,Robert's Arm,,Newfoundland and Labrador,CA,49.4766556,-55.8347694
NL1088,Robinson Bight,,Newfoundland and Labrador,CA,48.1,-53.8
NL1089,Robinsons,,Newfoundland and Labrador,CA,48.2483334,-58.8086111
NL1090,Rocketts Cove,,Newfoundland and Labrador,CA,51.916666,-55.982222
NL1091,Rocky Harbour,,Newfoundland and Labrador,CA,49.5955556,-57.9205556
NL1092,Rocky Harbour,,Newfoundland and Labrador,CA,49.5944445,-57.9194445
NL1093,Roddickton-Bide Arm,,Newfoundland and Labrador,CA,50.848557,-56.110637
NL1094,Rodgers Cove,,Newfoundland and Labrador,CA,49.3,-54.499167
NL1095,Romaines,,Newfoundland and Labrador,CA,48.5563889,-58.6891666
NL1096,Rose Bay Junction,,Newfoundland and Labrador,CA,53.05,-66.1994444
NL1097,Rose Blanche,,Newfoundland and Labrador,CA,47.6127778,-58.6947222
NL1098,Rose Blanche-Harbour Le Cou,,Newfoundland and Labrador,CA,47.6210222,-58.6902471
NL1099,Rose au Rue,,Newfoundland and Labrador,CA,47.516667,-54.1825
NL1100,Rosedale,,Newfoundland and Labrador,CA,48.6925,-53.9563889
NL1101,Ross Bay,,Newfoundland and Labrador,CA,52.9130556,-66.1936111
NL1102,Ross Bay Junction,,Newfoundland and Labrador,CA,53.05,-66.1994444
NL1103,Rouge Harbour,,Newfoundland and Labrador,CA,49.7636111,-55.9144445
NL1104,Round Cove,,Newfoundland and Labrador,CA,47.6536111,-55.7147222
NL1105,Round Harbour,,Newfoundland and Labrador,CA,48.983333,-53.749167
NL1106,Round Harbour,,Newfoundland and Labrador,CA,47.6155556,-56.0063889
NL1107,Round Harbour,,Newfoundland and Labrador,CA,49.8513889,-55.6683333
NL1108,Roundabout,,Newfoundland and Labrador,CA,46.916667,-55.5825
NL1109,Rushoon,,Newfoundland and Labrador,CA,47.3513028,-54.9201111
NL1110,Rushy Pond,,Newfoundland and Labrador,CA,48.9545337,-55.687702
NL1111,Russell,,Newfoundland and Labrador,CA,48.9644444,-57.8063889
NL1112,Safe Harbour,,Newfoundland and Labrador,CA,49.1041667,-53.6186111
NL1113,Sagona Island,,Newfoundland and Labrador,CA,47.3677778,-55.7861111
NL1114,Saint Annes Industrial Park,,Newfoundland and Labrador,CA,47.53,-52.8286111
NL1115,Sally's Cove,,Newfoundland and Labrador,CA,49.7238667,-57.9310944
NL1116,Salmon Bight,,Newfoundland and Labrador,CA,53.4597447,-55.7619606
NL1117,Salmon Cove,,Newfoundland and Labrador,CA,47.5419444,-53.2633333
NL1118,Salmon Cove,,Newfoundland and Labrador,CA,47.7800306,-53.1732472
NL1119,Salmon Rock,,Newfoundland and Labrador,CA,51.2627778,-56.7633334
NL1120,Salmonier,,Newfoundland and Labrador,CA,47.0641667,-55.2094444
NL1121,Salt Harbour,,Newfoundland and Labrador,CA,49.6413889,-54.6211111
NL1122,Salt Pans,,Newfoundland and Labrador,CA,49.566666,-54.699166
NL1123,Salt Pond,,Newfoundland and Labrador,CA,47.0944444,-55.1927778
NL1124,Salt Pond Cove,,Newfoundland and Labrador,CA,49.3041667,-55.0255555
NL1125,Salvage,,Newfoundland and Labrador,CA,48.6732139,-53.6629333
NL1126,Salvation,,Newfoundland and Labrador,CA,55.466667,-60.215833
NL1127,Samson Island,,Newfoundland and Labrador,CA,49.5,-54.949167
NL1128,Samson's Island,,Newfoundland and Labrador,CA,49.5,-54.949167
NL1129,Sand Pits,,Newfoundland and Labrador,CA,47.5680556,-52.7297222
NL1130,Sandringham,,Newfoundland and Labrador,CA,48.6589444,-53.8274778
NL1131,Sandy Beach,,Newfoundland and Labrador,CA,47.5352778,-53.2372223
NL1132,Sandy Cove,,Newfoundland and Labrador,CA,48.6475861,-53.7085834
NL1133,Sandy Harbour,,Newfoundland and Labrador,CA,47.675,-54.3313889
NL1134,Sandy Hook,,Newfoundland and Labrador,CA,52.5287703,-55.7996163
NL1135,Sandy Point,,Newfoundland and Labrador,CA,47.0577778,-55.1808333
NL1136,Sandy Point,,Newfoundland and Labrador,CA,48.454239,-58.505594
NL1137,Sandy Point,,Newfoundland and Labrador,CA,49.2088889,-55.2913888
NL1138,Saunders Cove,,Newfoundland and Labrador,CA,48.7013889,-54.0105556
NL1139,Savage Cove,,Newfoundland and Labrador,CA,51.333377,-56.699042
NL1140,Savage Cove - Sandy Cove,,Newfoundland and Labrador,CA,51.330245,-56.684106
NL1141,Sawbill,,Newfoundland and Labrador,CA,53.616749,-66.349294
NL1142,Scrape Shore,,Newfoundland and Labrador,CA,46.6133333,-53.5569444
NL1143,Seahorse,,Newfoundland and Labrador,CA,52.1833333,-65.6994444
NL1144,Seal Bight,,Newfoundland and Labrador,CA,52.4562934,-55.682188
NL1145,Seal Cove,,Newfoundland and Labrador,CA,49.93135,-56.373472
NL1146,Seal Cove,,Newfoundland and Labrador,CA,47.4669444,-53.0730556
NL1147,Seal Cove,,Newfoundland and Labrador,CA,47.4847222,-56.0613889
NL1148,Seal Cove,,Newfoundland and Labrador,CA,47.1875,-52.8444444
NL1149,Seal Islands Harbour,,Newfoundland and Labrador,CA,53.2258138,-55.71168
NL1150,Seal Rocks,,Newfoundland and Labrador,CA,48.4358333,-58.4694444
NL1151,Seldom,,Newfoundland and Labrador,CA,49.616667,-54.1825
NL1152,Seldom Come By,,Newfoundland and Labrador,CA,49.6158333,-54.1752778
NL1153,Seldom-Little Seldom,,Newfoundland and Labrador,CA,49.616739,-54.187875
NL1154,Separation Point,,Newfoundland and Labrador,CA,53.6158333,-57.4188889
NL1155,Serpentine,,Newfoundland and Labrador,CA,48.7961111,-58.1466666
NL1156,Shabo,,Newfoundland and Labrador,CA,53.3167468,-66.1993138
NL1157,Shallop Cove,,Newfoundland and Labrador,CA,48.4158334,-58.5361111
NL1158,Shalloway,,Newfoundland and Labrador,CA,47.0030555,-55.1711111
NL1159,Shalloway Cove,,Newfoundland and Labrador,CA,48.8438889,-53.6844444
NL1160,Shamblers Cove,,Newfoundland and Labrador,CA,49.0752778,-53.6044444
NL1161,Sharks Cove,,Newfoundland and Labrador,CA,47.5580556,-53.2113889
NL1162,Shea Heights,,Newfoundland and Labrador,CA,47.5436111,-52.7119445
NL1163,Shearstown,,Newfoundland and Labrador,CA,47.5886111,-53.3027778
NL1164,Sheshatshiu,,Newfoundland and Labrador,CA,53.516667,-60.149167
NL1165,Ship Cove,,Newfoundland and Labrador,CA,47.0944444,-54.0705555
NL1166,Ship Cove,,Newfoundland and Labrador,CA,47.5922222,-53.1966667
NL1167,Ship Cove,,Newfoundland and Labrador,CA,47.0311111,-55.1808333
NL1168,Ship Cove,,Newfoundland and Labrador,CA,48.5183333,-58.9522222
NL1169,Ship Harbour,,Newfoundland and Labrador,CA,47.3655556,-53.8902778
NL1170,Ship Island,,Newfoundland and Labrador,CA,49.6402778,-54.6116666
NL1171,Shoal Arm,,Newfoundland and Labrador,CA,49.5922223,-55.9494444
NL1172,Shoal Bay,,Newfoundland and Labrador,CA,49.6880556,-54.1919444
NL1173,Shoal Brook,,Newfoundland and Labrador,CA,49.4738889,-57.9219445
NL1174,Shoal Cove,,Newfoundland and Labrador,CA,51.350043,-56.649038
NL1175,Shoal Cove,,Newfoundland and Labrador,CA,51.0222222,-57.0244445
NL1176,Shoal Harbour,,Newfoundland and Labrador,CA,48.183333,-53.9825
NL1177,Shoal Point,,Newfoundland and Labrador,CA,46.7608333,-53.3652778
NL1178,Shoal Point,,Newfoundland and Labrador,CA,47.8925,-59.3994444
NL1179,Shoe Cove,,Newfoundland and Labrador,CA,47.7452778,-52.7411111
NL1180,Shoe Cove Bight,,Newfoundland and Labrador,CA,49.916667,-55.549166
NL1181,Shore's Cove,,Newfoundland and Labrador,CA,47.0975,-52.9294445
NL1182,Sibleys Cove,,Newfoundland and Labrador,CA,48.0408333,-53.0988889
NL1183,Silver Fox Island,,Newfoundland and Labrador,CA,49.0152777,-53.6805555
NL1184,Silver Point,,Newfoundland and Labrador,CA,49.4611111,-57.9086111
NL1185,Silverdale,,Newfoundland and Labrador,CA,49.6813889,-55.9777778
NL1186,Skibbereen,,Newfoundland and Labrador,CA,47.3913889,-53.1855555
NL1187,Small Point,,Newfoundland and Labrador,CA,47.8319445,-53.1058333
NL1188,Small Point-Adam's Cove-Blackhead-Broad Cove,,Newfoundland and Labrador,CA,47.847008,-53.127678
NL1189,Smokey,,Newfoundland and Labrador,CA,54.4714396,-57.1843702
NL1190,Smooth Cove,,Newfoundland and Labrador,CA,47.9227778,-53.0722222
NL1191,Snack Cove,,Newfoundland and Labrador,CA,53.7956231,-56.8226227
NL1192,Snooks Harbour,,Newfoundland and Labrador,CA,48.1594444,-53.8777778
NL1193,Snug Harbour,,Newfoundland and Labrador,CA,52.8919513,-55.8509326
NL1194,Soldier's Cove,,Newfoundland and Labrador,CA,47.7938889,-54.2080555
NL1195,Sopers,,Newfoundland and Labrador,CA,48.9675,-58.0441667
NL1196,Sops Island,,Newfoundland and Labrador,CA,49.774163,-56.842311
NL1197,South Branch,,Newfoundland and Labrador,CA,47.9116499,-59.0343998
NL1198,South Brook,,Newfoundland and Labrador,CA,49.0133333,-57.6188889
NL1199,South Brook,,Newfoundland and Labrador,CA,49.9769445,-56.0286111
NL1200,South Brook,,Newfoundland and Labrador,CA,49.4029722,-56.089675
NL1201,South River,,Newfoundland and Labrador,CA,47.5320889,-53.2680833
NL1202,South Side,,Newfoundland and Labrador,CA,49.2236111,-55.0380555
NL1203,South West Arm,,Newfoundland and Labrador,CA,49.1155556,-53.625
NL1204,Southeast Arm,,Newfoundland and Labrador,CA,49.4658333,-55.2847222
NL1205,Southeast Placentia,,Newfoundland and Labrador,CA,47.2172222,-53.9380556
NL1206,Southern Arm,,Newfoundland and Labrador,CA,49.6477778,-55.9280556
NL1207,Southern Bay,,Newfoundland and Labrador,CA,48.4002778,-53.6238889
NL1208,Southern Harbour,,Newfoundland and Labrador,CA,47.7223584,-53.9534666
NL1209,Southern Harbour Station,,Newfoundland and Labrador,CA,47.7186111,-53.9047222
NL1210,Southport,,Newfoundland and Labrador,CA,48.0425,-53.6397223
NL1211,Southside,,Newfoundland and Labrador,CA,47.5633333,-53.2072223
NL1212,Southwest Croque,,Newfoundland and Labrador,CA,51.0313889,-55.8075
NL1213,Southwest Crouse,,Newfoundland and Labrador,CA,50.9058334,-55.8916666
NL1214,Spaniard's Bay,,Newfoundland and Labrador,CA,47.6180528,-53.3369778
NL1215,Spear Harbour,,Newfoundland and Labrador,CA,52.4454648,-55.6519445
NL1216,Spencers Cove,,Newfoundland and Labrador,CA,47.6672222,-54.0763889
NL1217,Spillars Cove,,Newfoundland and Labrador,CA,51.5916667,-55.4905555
NL1218,Spillway,,Newfoundland and Labrador,CA,49.1625,-57.436944
NL1219,Spirity Cove,,Newfoundland and Labrador,CA,50.6,-57.365833
NL1220,Spoon Cove,,Newfoundland and Labrador,CA,47.6441667,-53.2105556
NL1221,Spotted Island,,Newfoundland and Labrador,CA,53.4899578,-55.7746994
NL1222,Spout Cove,,Newfoundland and Labrador,CA,47.8152778,-53.1283333
NL1223,Spread Eagle,,Newfoundland and Labrador,CA,47.3838889,-53.6291667
NL1224,Spread Eagle,,Newfoundland and Labrador,CA,47.5383334,-53.6161111
NL1225,Spring Village,,Newfoundland and Labrador,CA,51.2,-55.832222
NL1226,Springdale,,Newfoundland and Labrador,CA,49.5119027,-56.0642695
NL1227,Springfield,,Newfoundland and Labrador,CA,47.5252778,-53.2775
NL1228,Spruce Brook,,Newfoundland and Labrador,CA,48.7538889,-58.1772222
NL1229,Spruce Park,,Newfoundland and Labrador,CA,53.3152778,-60.3958334
NL1230,Sprucy Cove,,Newfoundland and Labrador,CA,49.7466667,-56.87
NL1231,Square Islands,,Newfoundland and Labrador,CA,52.7301448,-55.8295382
NL1232,St Barbe,,Newfoundland and Labrador,CA,51.1997222,-56.7772223
NL1233,St. Alban's,,Newfoundland and Labrador,CA,47.877222,-55.849336
NL1234,St. Annes,,Newfoundland and Labrador,CA,47.4280556,-54.4588889
NL1235,St. Anthony,,Newfoundland and Labrador,CA,51.374936,-55.616405
NL1236,St. Barbe North Sandy Cove,,Newfoundland and Labrador,CA,51.350043,-56.665706
NL1237,St. Bernard's,,Newfoundland and Labrador,CA,47.526111,-54.951667
NL1238,St. Bernard's-Jacques Fontaine,,Newfoundland and Labrador,CA,47.5195028,-54.9091917
NL1239,St. Brendan's,,Newfoundland and Labrador,CA,48.85805,-53.6660305
NL1240,St. Bride's,,Newfoundland and Labrador,CA,46.9208334,-54.1711111
NL1241,St. Carols,,Newfoundland and Labrador,CA,51.3766667,-55.5055555
NL1242,St. Catherine's,,Newfoundland and Labrador,CA,47.1758333,-53.4141667
NL1243,St. Chads,,Newfoundland and Labrador,CA,48.6922222,-53.7763889
NL1244,St. David's,,Newfoundland and Labrador,CA,48.2063889,-58.8655556
NL1245,St. Fintan's,,Newfoundland and Labrador,CA,48.1819444,-58.8452777
NL1246,St. George's,,Newfoundland and Labrador,CA,48.4152861,-58.4943917
NL1247,St. Jacques,,Newfoundland and Labrador,CA,47.4908334,-55.4194445
NL1248,St. Jacques-Coomb's Cove,,Newfoundland and Labrador,CA,47.4708222,-55.5418222
NL1249,St. John Island,,Newfoundland and Labrador,CA,50.8105556,-57.2427778
NL1250,St. John's,,Newfoundland and Labrador,CA,47.482197,-52.797069
NL1251,St. John's Bay,,Newfoundland and Labrador,CA,47.455387,-55.606271
NL1252,St. Jones Within,,Newfoundland and Labrador,CA,48.0441666,-53.7527778
NL1253,St. Jones Without,,Newfoundland and Labrador,CA,47.9222223,-53.6913889
NL1254,St. Joseph's,,Newfoundland and Labrador,CA,47.09215,-53.5157889
NL1255,St. Joseph's,,Newfoundland and Labrador,CA,47.3772222,-54.7652777
NL1256,St. Joseph's Cove,,Newfoundland and Labrador,CA,47.9175,-55.8011111
NL1257,St. Josephs Cove,,Newfoundland and Labrador,CA,49.482222,-57.928333
NL1258,St. Julien's,,Newfoundland and Labrador,CA,51.093889,-55.743333
NL1259,St. Kyran's,,Newfoundland and Labrador,CA,47.4558333,-54.4447222
NL1260,St. Lawrence,,Newfoundland and Labrador,CA,46.907917,-55.404514
NL1261,St. Leonards,,Newfoundland and Labrador,CA,47.4677778,-54.4325
NL1262,St. Lewis,,Newfoundland and Labrador,CA,52.3724528,-55.7012583
NL1263,St. Lunaire,,Newfoundland and Labrador,CA,51.505,-55.4777778
NL1264,St. Lunaire-Griquet,,Newfoundland and Labrador,CA,51.5205361,-55.4808889
NL1265,St. Mary's,,Newfoundland and Labrador,CA,46.9135056,-53.5317416
NL1266,St. Michaels,,Newfoundland and Labrador,CA,47.1925,-52.8452778
NL1267,St. Pauls,,Newfoundland and Labrador,CA,49.8636667,-57.8059806
NL1268,St. Phillips,,Newfoundland and Labrador,CA,47.5875,-52.8780555
NL1269,St. Shores,,Newfoundland and Labrador,CA,46.6611111,-53.6241667
NL1270,St. Shott's,,Newfoundland and Labrador,CA,46.632222,-53.586667
NL1271,St. Stephens,,Newfoundland and Labrador,CA,46.7747222,-53.6155556
NL1272,St. Teresa,,Newfoundland and Labrador,CA,48.365,-58.6422222
NL1273,St. Thomas,,Newfoundland and Labrador,CA,47.575,-52.8991667
NL1274,St. Veronica's,,Newfoundland and Labrador,CA,47.9516667,-55.7847222
NL1275,St. Vincent's,,Newfoundland and Labrador,CA,46.8002778,-53.6377777
NL1276,St. Vincent's-St. Stephen's-Peter's River,,Newfoundland and Labrador,CA,46.7794278,-53.5835861
NL1277,Stag Harbour,,Newfoundland and Labrador,CA,49.576111,-54.285
NL1278,Stage Shore,,Newfoundland and Labrador,CA,46.6258334,-53.5933334
NL1279,Stanley Cove,,Newfoundland and Labrador,CA,47.689967,-56.162754
NL1280,Stanleyville,,Newfoundland and Labrador,CA,49.4666667,-57.7797222
NL1281,Steady Brook,,Newfoundland and Labrador,CA,48.9583945,-57.8184528
NL1282,Stepaside,,Newfoundland and Labrador,CA,47.0291667,-55.1511111
NL1283,Stephenville,,Newfoundland and Labrador,CA,48.5476139,-58.5475556
NL1284,Stephenville Crossing,,Newfoundland and Labrador,CA,48.5288028,-58.4553583
NL1285,Stevensons Village,,Newfoundland and Labrador,CA,47.685,-53.2366667
NL1286,Stock Cove,,Newfoundland and Labrador,CA,48.5375,-53.3402778
NL1287,Stocking Harbour,,Newfoundland and Labrador,CA,49.7419444,-55.9613889
NL1288,Stone's Cove,,Newfoundland and Labrador,CA,47.5858333,-55.1216666
NL1289,Stoney House,,Newfoundland and Labrador,CA,47.0508333,-54.1063889
NL1290,Stopperside,,Newfoundland and Labrador,CA,47.4944445,-52.65
NL1291,Strong's Island,,Newfoundland and Labrador,CA,49.4819445,-54.7841667
NL1292,Stuckless Cove,,Newfoundland and Labrador,CA,49.8536111,-56.5497222
NL1293,Summerford,,Newfoundland and Labrador,CA,49.4971028,-54.78295
NL1294,Summerside,,Newfoundland and Labrador,CA,48.98,-57.9822223
NL1295,Summerville,,Newfoundland and Labrador,CA,48.45,-53.5591666
NL1296,Sunnyside,,Newfoundland and Labrador,CA,54.85,-59.799167
NL1297,Sunnyside,,Newfoundland and Labrador,CA,49.6383334,-54.6166667
NL1298,Sunnyside,,Newfoundland and Labrador,CA,47.8710584,-53.9124861
NL1299,Swabs Dock,,Newfoundland and Labrador,CA,47.1308333,-55.4919444
NL1300,Swanger Cove,,Newfoundland and Labrador,CA,47.8827778,-55.8408333
NL1301,Swansea,,Newfoundland and Labrador,CA,47.7558333,-53.2591667
NL1302,Sweet Bay,,Newfoundland and Labrador,CA,48.4463889,-53.6497222
NL1303,Sydney Cove,,Newfoundland and Labrador,CA,48.9866666,-53.7358333
NL1304,Table Bay,,Newfoundland and Labrador,CA,53.694562,-56.706036
NL1305,Tacks Beach,,Newfoundland and Labrador,CA,47.5777778,-54.2122223
NL1306,Talcville,,Newfoundland and Labrador,CA,47.5111111,-52.9616667
NL1307,Tartan Lane,,Newfoundland and Labrador,CA,46.6847223,-53.4375
NL1308,Taylor's Bay,,Newfoundland and Labrador,CA,46.8761111,-55.7263889
NL1309,Tea Cove,,Newfoundland and Labrador,CA,48.642179,-58.9691
NL1310,Templeman,,Newfoundland and Labrador,CA,49.1983333,-53.5519445
NL1311,Terra Nova,,Newfoundland and Labrador,CA,48.5025,-54.2144445
NL1312,Terrenceville,,Newfoundland and Labrador,CA,47.659956,-54.70693
NL1313,The Battery,,Newfoundland and Labrador,CA,47.5416667,-53.2019444
NL1314,The Battery,,Newfoundland and Labrador,CA,47.5686111,-52.6911111
NL1315,The Beaches,,Newfoundland and Labrador,CA,49.574722,-56.8275
NL1316,The Block,,Newfoundland and Labrador,CA,47.8011111,-59.3272223
NL1317,The Broads,,Newfoundland and Labrador,CA,47.52,-53.2775
NL1318,The Dock,,Newfoundland and Labrador,CA,47.5730556,-53.2530556
NL1319,The Droke,,Newfoundland and Labrador,CA,47.0627778,-55.1730556
NL1320,The Flats,,Newfoundland and Labrador,CA,46.7969445,-53.6436111
NL1321,The Front,,Newfoundland and Labrador,CA,47.6336111,-52.9402778
NL1322,The Gravels,,Newfoundland and Labrador,CA,48.55,-58.7325
NL1323,The Green,,Newfoundland and Labrador,CA,47.6472222,-52.9527778
NL1324,The Groves,,Newfoundland and Labrador,CA,47.0355555,-52.8941666
NL1325,The Houser,,Newfoundland and Labrador,CA,47.2602778,-52.7766667
NL1326,The Keys,,Newfoundland and Labrador,CA,47.3041667,-52.8127778
NL1327,The Mines,,Newfoundland and Labrador,CA,47.5872222,-53.6958333
NL1328,The Motion,,Newfoundland and Labrador,CA,47.5316666,-53.2958333
NL1329,The Northside,,Newfoundland and Labrador,CA,48.6694444,-53.7580555
NL1330,The Thicket,,Newfoundland and Labrador,CA,47.6508333,-53.2588889
NL1331,The Tickles,,Newfoundland and Labrador,CA,47.5180555,-54.0777778
NL1332,Thorburn Lake,,Newfoundland and Labrador,CA,48.2675,-54.1575
NL1333,Thorburn Road,,Newfoundland and Labrador,CA,47.5816667,-52.8397222
NL1334,Thoroughfare,,Newfoundland and Labrador,CA,48.1983333,-53.5486111
NL1335,Three Arms,,Newfoundland and Labrador,CA,49.6844445,-55.9027778
NL1336,Three Mile Rock,,Newfoundland and Labrador,CA,50.0055555,-57.7358334
NL1337,Tibbos Hill,,Newfoundland and Labrador,CA,47.497644,-55.604265
NL1338,Tickle Cove,,Newfoundland and Labrador,CA,48.5825,-53.4813889
NL1339,Tickle Harbour Station,,Newfoundland and Labrador,CA,47.5769444,-53.8297222
NL1340,Tickles,,Newfoundland and Labrador,CA,47.1544445,-53.5719444
NL1341,Tilt Cove,,Newfoundland and Labrador,CA,49.8861111,-55.6269444
NL1342,Tilt Cove,,Newfoundland and Labrador,CA,49.5530555,-54.7297222
NL1343,Tilting,,Newfoundland and Labrador,CA,49.699603,-54.0892
NL1344,Tilton,,Newfoundland and Labrador,CA,47.6286111,-53.3030556
NL1345,Tilts,,Newfoundland and Labrador,CA,46.7988889,-54.0983333
NL1346,Tims Harbour,,Newfoundland and Labrador,CA,49.4488889,-54.4822222
NL1347,Toogood Arm,,Newfoundland and Labrador,CA,49.6294444,-54.6083333
NL1348,Topsail,,Newfoundland and Labrador,CA,47.5402778,-52.9180556
NL1349,Torbay,,Newfoundland and Labrador,CA,47.6591278,-52.753175
NL1350,Toslow,,Newfoundland and Labrador,CA,47.3936111,-54.4877777
NL1351,Traytown,,Newfoundland and Labrador,CA,48.6610639,-53.9783417
NL1352,Traytown,,Newfoundland and Labrador,CA,48.216667,-53.515833
NL1353,Trepassey,,Newfoundland and Labrador,CA,46.746758,-53.363625
NL1354,Triangle,,Newfoundland and Labrador,CA,52.8370335,-55.8521576
NL1355,Trinity,,Newfoundland and Labrador,CA,48.3754666,-53.3946583
NL1356,Trinity,,Newfoundland and Labrador,CA,48.9825,-53.9083333
NL1357,Trinity Bay North,,Newfoundland and Labrador,CA,48.501506,-53.081453
NL1358,Trinity East,,Newfoundland and Labrador,CA,48.3791667,-53.345
NL1359,Trinny Cove,,Newfoundland and Labrador,CA,47.4905556,-53.9094444
NL1360,Triton,,Newfoundland and Labrador,CA,49.518325,-55.619875
NL1361,Triton West,,Newfoundland and Labrador,CA,49.5275,-55.6122222
NL1362,Trout River,,Newfoundland and Labrador,CA,49.4739333,-58.1252917
NL1363,Trouty,,Newfoundland and Labrador,CA,48.3291667,-53.4047222
NL1364,Trump Islands,,Newfoundland and Labrador,CA,49.5841667,-54.7730556
NL1365,Turks Cove,,Newfoundland and Labrador,CA,47.9325,-53.3480556
NL1366,Turner's Bight,,Newfoundland and Labrador,CA,54.216732,-58.115703
NL1367,Turnip Cove,,Newfoundland and Labrador,CA,47.6875,-55.4372222
NL1368,Twillingate,,Newfoundland and Labrador,CA,49.6443111,-54.7436166
NL1369,Twillingate,,Newfoundland and Labrador,CA,49.6491666,-54.7611111
NL1370,Twin Falls,,Newfoundland and Labrador,CA,53.5,-64.5325
NL1371,Uipat Utshimassit,,Newfoundland and Labrador,CA,55.8612258,-60.8538989
NL1372,Ungardlek,,Newfoundland and Labrador,CA,56.8476051,-61.3776749
NL1373,Upper Burgeo,,Newfoundland and Labrador,CA,47.603382,-57.668816
NL1374,Upper Gullies,,Newfoundland and Labrador,CA,47.4808333,-53.0413889
NL1375,Upper Island Cove,,Newfoundland and Labrador,CA,47.6496972,-53.2235194
NL1376,Upshall,,Newfoundland and Labrador,CA,47.666667,-53.899167
NL1377,Utshimassit,,Newfoundland and Labrador,CA,55.8886419,-60.9076539
NL1378,Valleyfield,,Newfoundland and Labrador,CA,49.1277778,-53.6108334
NL1379,Valna Fad,,Newfoundland and Labrador,CA,46.7144444,-53.3858333
NL1380,Vardyville,,Newfoundland and Labrador,CA,48.133333,-53.7325
NL1381,Venison Islands,,Newfoundland and Labrador,CA,52.9706611,-55.7805369
NL1382,Victoria,,Newfoundland and Labrador,CA,47.77125,-53.2380778
NL1383,Victoria Cove,,Newfoundland and Labrador,CA,49.3552777,-54.4933333
NL1384,Villa Marie,,Newfoundland and Labrador,CA,47.2997222,-53.8605556
NL1385,Virgin Arm,,Newfoundland and Labrador,CA,49.5241666,-54.7744444
NL1386,Virginia Park,,Newfoundland and Labrador,CA,47.5969445,-52.6908333
NL1387,Vitters Cove,,Newfoundland and Labrador,CA,47.9091667,-53.3727778
NL1388,Voy's Beach,,Newfoundland and Labrador,CA,49.0363889,-58.15
NL1389,Wabana,,Newfoundland and Labrador,CA,47.6394722,-52.9476666
NL1390,Wabush,,Newfoundland and Labrador,CA,52.872,-66.8909194
NL1391,Waldron Cove,,Newfoundland and Labrador,CA,49.519686,-55.168415
NL1392,Wallmans,,Newfoundland and Labrador,CA,52.42792,-56.1316598
