id,name,alt_name,region,country,latitude,longitude,tags,km_distance_to_ocean,is_coastal,ocean_lat1,ocean_lon1
NL1,Abrahams Cove,,Newfoundland and Labrador,CA,48.5255556,-58.9161111,ardac,1.9,True,48.4877,-58.9035
NL2,Adams Cove,,Newfoundland and Labrador,CA,47.8622222,-53.0927778,ardac,1.9,True,47.8238,-53.0855
NL3,Adeytown,,Newfoundland and Labrador,CA,48.0741666,-53.9319444,ardac,2.3,True,47.8355,-53.531
NL4,Adlatovusek,,Newfoundland and Labrador,CA,55.25,-60.499167,ardac,0.7,True,55.3566,-60.3288
NL5,Admiral's Cove,,Newfoundland and Labrador,CA,47.0966667,-52.9075,ardac,1.0,True,47.0584,-52.9005
NL6,Admirals Beach,,Newfoundland and Labrador,CA,47.0171497,-53.5989861,ardac,2.1,True,46.8475,-53.7371
NL7,Aguathuna,,Newfoundland and Labrador,CA,48.5613889,-58.7697223,ardac,0.5,True,48.5235,-58.7572
NL8,Aillik,,Newfoundland and Labrador,CA,55.2127512,-59.2071047,ardac,0.5,True,55.1741,-59.1918
NL9,Alderburn,,Newfoundland and Labrador,CA,49.1111112,-55.25,ardac,1.1,True,49.3052,-55.298
NL10,Alexander Bay,,Newfoundland and Labrador,CA,48.6794445,-54.1161111,ardac,9.7,True,48.9067,-53.8053
NL11,Allan's Island,,Newfoundland and Labrador,CA,46.8533333,-55.8027778,ardac,2.4,True,46.8153,-55.7933
NL12,Amherst Cove,,Newfoundland and Labrador,CA,48.5752778,-53.2075,ardac,1.1,True,48.5368,-53.2
NL13,Anchor Point,,Newfoundland and Labrador,CA,51.2389361,-56.7885527,ardac,0.5,True,51.2004,-56.7771
NL14,Anderson's Cove,,Newfoundland and Labrador,CA,47.6052778,-55.1127778,ardac,1.4,True,47.5671,-55.1038
NL15,Angels Cove,,Newfoundland and Labrador,CA,47.0027778,-54.1361111,ardac,1.1,True,46.9646,-54.1281
NL16,Appleton,,Newfoundland and Labrador,CA,48.9817361,-54.8572361,ardac,28.6,True,49.4086,-54.9591
NL17,Aquaforte,,Newfoundland and Labrador,CA,47.0080555,-52.9563889,ardac,4.9,True,47.1,-52.8009
NL18,Argentia,,Newfoundland and Labrador,CA,47.2980555,-53.9855556,ardac,1.1,True,47.2598,-53.9776
NL19,Arnold's Cove,,Newfoundland and Labrador,CA,47.7689194,-53.9917694,ardac,0.7,True,47.7306,-53.9837
NL20,Arnolds Cove Station,,Newfoundland and Labrador,CA,47.7838889,-53.9683333,ardac,2.2,True,47.6458,-53.7646
NL21,Ashuanipi,,Newfoundland and Labrador,CA,52.7666667,-66.0827778,ardac,272.8,False,50.1038,-66.0264
NL22,Aspen,,Newfoundland and Labrador,CA,48.1591667,-53.7533333,ardac,1.5,True,48.4855,-53.6427
NL23,Aspey Brook,,Newfoundland and Labrador,CA,48.1619444,-53.8438889,ardac,1.1,True,48.4884,-53.734
NL24,Astray,,Newfoundland and Labrador,CA,54.600098,-66.699272,ardac,341.0,False,56.3251,-61.6727
NL25,Avondale,,Newfoundland and Labrador,CA,47.3991028,-53.2264333,ardac,4.6,True,47.5928,-53.2635
NL26,Baccalieu Island,,Newfoundland and Labrador,CA,48.1505555,-52.7963889,ardac,5.1,True,48.1121,-52.7894
NL27,Back Cove,,Newfoundland and Labrador,CA,49.8497222,-56.5625,ardac,0.4,True,49.906,-56.7643
NL28,Back Harbour,,Newfoundland and Labrador,CA,49.6586111,-54.7855556,ardac,6.4,True,49.6201,-54.7764
NL29,Back Shore,,Newfoundland and Labrador,CA,46.6175,-53.5872222,ardac,1.0,True,46.5793,-53.5797
NL30,Bacon Cove,,Newfoundland and Labrador,CA,47.4805556,-53.1713889,ardac,1.3,True,47.573,-53.0147
NL31,Badger,,Newfoundland and Labrador,CA,48.9788806,-56.0416916,ardac,48.8,True,49.5806,-55.6515
NL32,Badger's Quay,,Newfoundland and Labrador,CA,49.1238889,-53.5944445,ardac,1.2,True,49.2177,-53.4325
NL33,Baie Verte,,Newfoundland and Labrador,CA,49.9087083,-56.1946584,ardac,1.8,True,50.007,-56.0357
NL34,Baine Harbour,,Newfoundland and Labrador,CA,47.3659444,-54.8972055,ardac,1.3,True,47.3278,-54.8884
NL35,Baker Cove,,Newfoundland and Labrador,CA,47.5716667,-54.2088889,ardac,1.5,True,47.5334,-54.2007
NL36,Bakers Brook,,Newfoundland and Labrador,CA,49.6536111,-57.955,ardac,1.1,True,49.6155,-57.9429
NL37,Bally Haly,,Newfoundland and Labrador,CA,47.59,-52.6961112,ardac,2.4,True,47.5516,-52.6893
NL38,Ballyhack,,Newfoundland and Labrador,CA,47.4394444,-53.1986111,ardac,0.4,True,47.5319,-53.0421
NL39,Bar Haven,,Newfoundland and Labrador,CA,47.7105556,-54.2208333,ardac,3.1,True,47.6723,-54.2126
NL40,Barachois,,Newfoundland and Labrador,CA,46.8616667,-53.5836111,ardac,2.3,True,46.8235,-53.5761
NL41,Barachoix,,Newfoundland and Labrador,CA,47.6563889,-55.6941667,ardac,0.5,True,47.4833,-55.826
NL42,Barasway de Plate,,Newfoundland and Labrador,CA,47.4858333,-55.0697222,ardac,0.8,True,47.3503,-54.8639
NL43,Bareneed,,Newfoundland and Labrador,CA,47.5763889,-53.2411111,ardac,1.0,True,47.5381,-53.2338
NL44,Barge Bay,,Newfoundland and Labrador,CA,51.8071901,-56.2107976,ardac,1.1,True,51.7686,-56.1998
NL45,Barr'd Harbour,,Newfoundland and Labrador,CA,50.8122223,-57.055,ardac,0.6,True,50.7738,-57.0434
NL46,Barr'd Islands,,Newfoundland and Labrador,CA,49.7216667,-54.1877778,ardac,0.5,True,49.6831,-54.1792
NL47,Barton,,Newfoundland and Labrador,CA,48.2216667,-53.8988889,ardac,1.7,True,48.5482,-53.7892
NL48,Batteau,,Newfoundland and Labrador,CA,53.4093877,-55.7794516,ardac,0.6,True,53.3705,-55.7684
NL49,Battery,,Newfoundland and Labrador,CA,47.0330556,-52.8830556,ardac,1.7,True,46.9948,-52.8761
NL50,Battle Harbour,,Newfoundland and Labrador,CA,52.2667143,-55.5870035,ardac,5.5,True,52.3648,-55.4168
NL51,Bauline,,Newfoundland and Labrador,CA,47.7008305,-52.8195695,ardac,4.8,True,47.6624,-52.8126
NL52,Bauline South,,Newfoundland and Labrador,CA,47.17971,-52.8454697,ardac,0.4,True,47.1414,-52.8386
NL53,Bay Bulls,,Newfoundland and Labrador,CA,47.3261583,-52.793875,ardac,1.8,True,47.2878,-52.787
NL54,Bay L'Argent,,Newfoundland and Labrador,CA,47.542664,-54.886061,ardac,0.9,True,47.6019,-55.0749
NL55,Bay Roberts,,Newfoundland and Labrador,CA,47.5827278,-53.2932639,ardac,3.1,True,47.5444,-53.2859
NL56,Bay View,,Newfoundland and Labrador,CA,47.083333,-55.215833,ardac,2.1,True,47.179,-55.065
NL57,Bay de Loup,,Newfoundland and Labrador,CA,47.6616667,-57.5183334,ardac,1.5,True,47.6237,-57.5072
NL58,Bay de Verde,,Newfoundland and Labrador,CA,48.1011611,-52.8895167,ardac,1.2,True,48.0627,-52.8824
NL59,Bay de l'Eau,,Newfoundland and Labrador,CA,47.6288889,-54.9205555,ardac,2.3,True,47.688,-55.1098
NL60,Bay du Nord,,Newfoundland and Labrador,CA,47.7111111,-55.4130555,ardac,0.3,True,47.5762,-55.2051
NL61,Bayside,,Newfoundland and Labrador,CA,49.5333333,-56.8636111,ardac,1.7,True,49.8645,-56.7742
NL62,Baytona,,Newfoundland and Labrador,CA,49.3305861,-54.7841194,ardac,0.6,True,49.3904,-54.9809
NL63,Bayview,,Newfoundland and Labrador,CA,49.6138889,-54.7436111,ardac,3.3,True,49.5754,-54.7345
NL64,Beachside,,Newfoundland and Labrador,CA,49.6428889,-55.8991139,ardac,1.2,True,49.5081,-55.6798
NL65,Beachy Cove,,Newfoundland and Labrador,CA,47.5969445,-53.2525,ardac,0.5,True,47.5586,-53.2452
NL66,Bear Cove,,Newfoundland and Labrador,CA,49.6005555,-57.9272222,ardac,0.5,True,49.5624,-57.9152
NL67,Bear Cove,,Newfoundland and Labrador,CA,49.8441667,-56.5661111,ardac,0.4,True,49.9004,-56.7679
NL68,Beaumont,,Newfoundland and Labrador,CA,49.6127778,-55.6794445,ardac,2.0,True,49.5744,-55.6695
NL69,Beaumont North,,Newfoundland and Labrador,CA,49.6208334,-55.6897222,ardac,0.9,True,49.5824,-55.6797
NL70,Beaver,,Newfoundland and Labrador,CA,48.8119444,-58.1611111,ardac,19.8,True,49.0041,-58.2222
NL71,Beaver Cove,,Newfoundland and Labrador,CA,49.4125,-54.3894444,ardac,1.6,True,49.5077,-54.2281
NL72,Beaverton,,Newfoundland and Labrador,CA,49.5125,-54.5802777,ardac,1.5,True,49.474,-54.5714
NL73,Beckfords,,Newfoundland and Labrador,CA,46.8955555,-53.9116667,ardac,0.4,True,46.8574,-53.9039
NL74,Belfry,,Newfoundland and Labrador,CA,53.708636,-57.008789,ardac,0.2,True,53.6699,-56.9964
NL75,Bell Island,,Newfoundland and Labrador,CA,47.6316667,-52.9613889,ardac,1.9,True,47.5933,-52.9543
NL76,Bell Island Front,,Newfoundland and Labrador,CA,47.6277778,-52.9333333,ardac,1.4,True,47.5894,-52.9263
NL77,Bellburns,,Newfoundland and Labrador,CA,50.3279667,-57.5284278,ardac,0.3,True,50.2897,-57.5165
NL78,Belle Isle,,Newfoundland and Labrador,CA,52.0133333,-55.2813889,ardac,1.1,True,51.9746,-55.2712
NL79,Belleoram,,Newfoundland and Labrador,CA,47.524733,-55.416094,ardac,1.0,True,47.4866,-55.4068
NL80,Bellmans Cove,,Newfoundland and Labrador,CA,48.555,-58.7583333,ardac,0.9,True,48.5171,-58.7458
NL81,Benoit's Cove,,Newfoundland and Labrador,CA,49.0102778,-58.1369445,ardac,3.2,True,48.9722,-58.1249
NL82,Benoits Siding,,Newfoundland and Labrador,CA,47.826959,-59.194173,ardac,10.1,True,48.0177,-59.2585
NL83,Best's Harbour,,Newfoundland and Labrador,CA,47.575,-54.21,ardac,1.9,True,47.5367,-54.2018
NL84,Bide Arm,,Newfoundland and Labrador,CA,50.817706,-56.104936,ardac,2.2,True,50.9162,-55.9421
NL85,Big Brook,,Newfoundland and Labrador,CA,51.519722,-56.148611,ardac,3.1,True,51.4811,-56.1377
NL86,Big Pond,,Newfoundland and Labrador,CA,47.4111112,-52.7675,ardac,5.3,True,47.3728,-52.7606
NL87,Birch Hills,,Newfoundland and Labrador,CA,47.5616666,-53.29,ardac,2.3,True,47.5233,-53.2826
NL88,Birchy Bay,,Newfoundland and Labrador,CA,49.3215389,-54.7361083,ardac,0.5,True,49.4173,-54.5759
NL89,Birchy Cove,,Newfoundland and Labrador,CA,49.6825,-56.0280555,ardac,1.3,True,49.548,-55.8082
NL90,Birchy Head,,Newfoundland and Labrador,CA,49.4511111,-57.9044445,ardac,1.0,True,49.413,-57.8925
NL91,Birchy Nap,,Newfoundland and Labrador,CA,47.6536111,-52.7466667,ardac,2.9,True,47.6152,-52.7398
NL92,Bird Cove,,Newfoundland and Labrador,CA,51.0460695,-56.9334055,ardac,1.0,True,51.0076,-56.9219
NL93,Biscayan Cove,,Newfoundland and Labrador,CA,47.8022222,-52.7897223,ardac,1.3,True,47.7638,-52.7828
NL94,Bishop's Cove,,Newfoundland and Labrador,CA,47.6367556,-53.2327389,ardac,0.4,True,47.7294,-53.0756
NL95,Bishop's Falls,,Newfoundland and Labrador,CA,49.0209528,-55.4898944,ardac,8.3,True,49.3502,-55.3907
NL96,Bishop's Harbour,,Newfoundland and Labrador,CA,48.6886111,-53.6538889,ardac,0.5,True,48.6501,-53.646
NL97,Bishops Beach,,Newfoundland and Labrador,CA,47.6111111,-53.2244445,ardac,0.5,True,47.7037,-53.0673
NL98,Bishops Falls South,,Newfoundland and Labrador,CA,49.005,-55.4927777,ardac,9.3,True,49.3342,-55.3936
NL99,Black Duck Brook,,Newfoundland and Labrador,CA,48.7,-58.899167,ardac,0.9,True,48.6621,-58.8865
NL100,Black Duck Cove,,Newfoundland and Labrador,CA,47.0530555,-55.1802778,ardac,1.0,True,47.1487,-55.0294
NL101,Black Duck Cove,,Newfoundland and Labrador,CA,49.5963889,-54.7069445,ardac,3.1,True,49.5579,-54.6979
NL102,Black Duck Cove,,Newfoundland and Labrador,CA,48.22,-53.5033334,ardac,2.5,True,48.0807,-53.2991
NL103,Black Duck Pond,,Newfoundland and Labrador,CA,47.5727778,-53.2644444,ardac,1.3,True,47.5344,-53.2571
NL104,Black Duck Siding,,Newfoundland and Labrador,CA,48.5808333,-58.3847223,ardac,6.3,True,48.6331,-58.5828
NL105,Black Island,,Newfoundland and Labrador,CA,49.534358,-54.970966,ardac,6.7,True,49.4959,-54.9617
NL106,Black Island,,Newfoundland and Labrador,CA,49.5866666,-54.7116667,ardac,2.5,True,49.5482,-54.7026
NL107,Black River,,Newfoundland and Labrador,CA,47.8780556,-54.1663889,ardac,0.4,True,47.7404,-53.9616
NL108,Black Tickle,,Newfoundland and Labrador,CA,53.4616374,-55.7650328,ardac,0.9,True,53.4228,-55.754
NL109,Blackhead,,Newfoundland and Labrador,CA,47.525,-52.6569444,ardac,1.1,True,47.4866,-52.6501
NL110,Blackhead,,Newfoundland and Labrador,CA,47.8472222,-53.0933333,ardac,1.5,True,47.8088,-53.0861
NL111,Blanchet,,Newfoundland and Labrador,CA,47.4,-55.599167,ardac,0.1,True,47.3619,-55.5898
NL112,Bloomfield,,Newfoundland and Labrador,CA,48.3766667,-53.905,ardac,2.2,True,48.4707,-53.7466
NL113,Blow Me Down,,Newfoundland and Labrador,CA,47.5936111,-53.1897222,ardac,0.5,True,47.6862,-53.0326
NL114,Blue Beach,,Newfoundland and Labrador,CA,48.7702777,-58.7833333,ardac,1.3,True,48.7323,-58.7708
NL115,Blue Cove,,Newfoundland and Labrador,CA,51.0961111,-56.87,ardac,2.0,True,51.0576,-56.8585
NL116,Bluff Head Cove,,Newfoundland and Labrador,CA,49.6280556,-54.7566667,ardac,4.0,True,49.5896,-54.7476
NL117,Blundons Siding,,Newfoundland and Labrador,CA,48.3497222,-53.9011112,ardac,3.4,True,48.576,-53.5915
NL118,Boat Harbour West,,Newfoundland and Labrador,CA,47.43,-54.8425,ardac,1.3,True,47.294,-54.6377
NL119,Bobby Cove,,Newfoundland and Labrador,CA,49.8252778,-55.7544444,ardac,2.9,True,49.6901,-55.5347
NL120,Bonalds Island,,Newfoundland and Labrador,CA,47.59341,-57.288238,ardac,0.6,True,47.5555,-57.2773
NL121,Bonavista,,Newfoundland and Labrador,CA,48.6317917,-53.1041333,ardac,1.0,True,48.5933,-53.0967
NL122,Bonne Bay,,Newfoundland and Labrador,CA,49.4994445,-57.9163889,ardac,1.2,True,49.4613,-57.9044
NL123,Boswarlos,,Newfoundland and Labrador,CA,48.5702778,-58.8222222,ardac,0.7,True,48.5324,-58.8097
NL124,Botwood,,Newfoundland and Labrador,CA,49.1356472,-55.3731528,ardac,2.7,True,49.3296,-55.4218
NL125,Boxey,,Newfoundland and Labrador,CA,47.453055,-55.561389,ardac,1.0,True,47.4149,-55.552
NL126,Bradleys Cove,,Newfoundland and Labrador,CA,47.8738888,-53.0666667,ardac,0.6,True,47.8355,-53.0594
NL127,Bragg's Island,,Newfoundland and Labrador,CA,48.933333,-53.665833,ardac,9.4,True,48.8948,-53.6579
NL128,Brake's Cove,,Newfoundland and Labrador,CA,49.1258333,-58.0966667,ardac,1.4,True,49.0878,-58.0846
NL129,Branch,,Newfoundland and Labrador,CA,46.8822222,-53.9644445,ardac,2.0,True,46.8441,-53.9566
NL130,Bread and Cheese,,Newfoundland and Labrador,CA,47.3102778,-52.7919445,ardac,0.5,True,47.272,-52.7851
NL131,Brent's Cove,,Newfoundland and Labrador,CA,49.9369444,-55.7069444,ardac,0.5,True,49.995,-55.908
NL132,Briens,,Newfoundland and Labrador,CA,47.4016667,-53.1211111,ardac,1.8,True,47.494,-52.9646
NL133,Brighton,,Newfoundland and Labrador,CA,49.5400695,-55.6432555,ardac,1.0,True,49.6374,-55.4844
NL134,Brigus,,Newfoundland and Labrador,CA,47.5355556,-53.2102778,ardac,1.5,True,47.6281,-53.0534
NL135,Brigus,,Newfoundland and Labrador,CA,47.5329806,-53.2150917,ardac,1.7,True,47.6255,-53.0583
NL136,Brigus Gullies,,Newfoundland and Labrador,CA,47.5266667,-53.2391667,ardac,2.4,True,47.4883,-53.2318
NL137,Bristol's Hope,,Newfoundland and Labrador,CA,47.7211111,-53.1963889,ardac,0.4,True,47.8137,-53.0388
NL138,Britannia,,Newfoundland and Labrador,CA,48.1438889,-53.7219445,ardac,1.6,True,48.0051,-53.5173
NL139,British Harbour,,Newfoundland and Labrador,CA,48.2622223,-53.5044445,ardac,1.9,True,48.1229,-53.3
NL140,Broad Cove,,Newfoundland and Labrador,CA,47.5516667,-53.5452777,ardac,0.9,True,47.6135,-53.7322
NL141,Broad Cove,,Newfoundland and Labrador,CA,47.8369444,-53.0930555,ardac,0.4,True,47.7986,-53.0858
NL142,Broad Cove,,Newfoundland and Labrador,CA,47.5758333,-54.2208333,ardac,1.9,True,47.5376,-54.2126
NL143,Brookfield,,Newfoundland and Labrador,CA,49.1388889,-53.5852778,ardac,1.3,True,49.2326,-53.4232
NL144,Brooklyn,,Newfoundland and Labrador,CA,48.3841666,-53.8694444,ardac,1.0,True,48.4781,-53.7109
NL145,Brookside,,Newfoundland and Labrador,CA,47.4297222,-54.8138889,ardac,0.9,True,47.2937,-54.6092
NL146,Browns Cove,,Newfoundland and Labrador,CA,49.6333333,-56.8172222,ardac,1.1,True,49.7325,-56.6608
NL147,Brownsdale,,Newfoundland and Labrador,CA,48.035,-53.1211111,ardac,1.2,True,47.9966,-53.1138
NL148,Bryant's Cove,,Newfoundland and Labrador,CA,47.6760917,-53.1930222,ardac,1.6,True,47.7387,-53.38
NL149,Buchans,,Newfoundland and Labrador,CA,48.8238,-56.8490694,ardac,77.7,True,49.3886,-57.7475
NL150,Buchans,,Newfoundland and Labrador,CA,48.8230556,-56.8627778,ardac,76.8,True,49.3877,-57.7614
NL151,Buckles Point,,Newfoundland and Labrador,CA,51.4822222,-56.9538889,ardac,1.0,True,51.4437,-56.9422
NL152,Bulley's Cove,,Newfoundland and Labrador,CA,49.3497222,-55.3563889,ardac,0.8,True,49.3113,-55.3468
NL153,Bulls Cove,,Newfoundland and Labrador,CA,47.05,-55.1605556,ardac,1.4,True,47.1456,-55.0097
NL154,Burgeo,,Newfoundland and Labrador,CA,47.6199167,-57.6216334,ardac,2.1,True,47.582,-57.6104
NL155,Burgoynes Cove,,Newfoundland and Labrador,CA,48.1677777,-53.7119444,ardac,1.7,True,48.0289,-53.5072
NL156,Burin,,Newfoundland and Labrador,CA,47.082841,-55.175272,ardac,1.0,True,47.1785,-55.0243
NL157,Burin Bay,,Newfoundland and Labrador,CA,47.0216666,-55.1761111,ardac,0.2,True,47.1173,-55.0254
NL158,Burin Bay Arm,,Newfoundland and Labrador,CA,47.0875,-55.1936111,ardac,1.5,True,47.1832,-55.0427
NL159,Burlington,,Newfoundland and Labrador,CA,49.7501528,-56.0174223,ardac,1.1,True,49.6156,-55.7972
NL160,Burns Cove,,Newfoundland and Labrador,CA,47.3922222,-54.8619445,ardac,1.4,True,47.3541,-54.8532
NL161,Burnside,,Newfoundland and Labrador,CA,48.716667,-53.799167,ardac,3.6,True,48.8106,-53.6392
NL162,Burnt Arm,,Newfoundland and Labrador,CA,49.1855555,-55.2772223,ardac,0.4,True,49.3796,-55.3255
NL163,Burnt Cove,,Newfoundland and Labrador,CA,47.1991667,-52.85,ardac,1.5,True,47.1609,-52.8431
NL164,Burnt Island,,Newfoundland and Labrador,CA,47.3833334,-54.7011111,ardac,0.4,True,47.2471,-54.497
NL165,Burnt Islands,,Newfoundland and Labrador,CA,47.6141944,-58.8701306,ardac,4.2,True,47.4369,-58.989
NL166,Burnt Point,,Newfoundland and Labrador,CA,47.9586111,-53.0397222,ardac,1.2,True,47.9202,-53.0325
NL167,Burnt Stump,,Newfoundland and Labrador,CA,47.3980556,-53.1558333,ardac,2.9,True,47.4905,-52.9994
NL168,Burnt Village,,Newfoundland and Labrador,CA,51.1641666,-55.9858333,ardac,0.6,True,51.0289,-55.7579
NL169,Burtons Cove,,Newfoundland and Labrador,CA,49.5513889,-56.8686112,ardac,0.9,True,49.8826,-56.7792
NL170,Butchers,,Newfoundland and Labrador,CA,47.8794445,-53.3730555,ardac,0.8,True,47.8411,-53.3656
NL171,Butlerville,,Newfoundland and Labrador,CA,47.5738889,-53.3275,ardac,5.4,True,47.5356,-53.3201
NL172,Butter Cove,,Newfoundland and Labrador,CA,48.0266666,-53.6491667,ardac,1.2,True,47.8878,-53.4453
NL173,Butts,,Newfoundland and Labrador,CA,48.8222222,-54.2833333,ardac,7.6,True,48.8171,-53.9225
NL174,Cahill Point,,Newfoundland and Labrador,CA,47.5636111,-52.69,ardac,1.0,True,47.5252,-52.6832
NL175,Cains Island,,Newfoundland and Labrador,CA,47.6019445,-58.6997222,ardac,0.3,True,47.5642,-58.6876
NL176,Calmer,,Newfoundland and Labrador,CA,46.8925,-55.9075,ardac,0.6,True,46.8545,-55.898
NL177,Camp Bay,,Newfoundland and Labrador,CA,52.1695996,-55.6512159,ardac,3.3,True,52.2677,-55.4816
NL178,Camp Boggy,,Newfoundland and Labrador,CA,47.9805555,-55.8008333,ardac,2.9,True,47.5764,-55.8744
NL179,Campbellton,,Newfoundland and Labrador,CA,49.2705194,-54.9319306,ardac,2.0,True,49.4648,-54.9787
NL180,Canada Harbour,,Newfoundland and Labrador,CA,50.6802778,-56.1383333,ardac,0.8,True,50.7787,-55.9761
NL181,Cape Anguille,,Newfoundland and Labrador,CA,47.9033333,-59.4094444,ardac,0.8,True,47.9534,-59.6056
NL182,Cape Broyle,,Newfoundland and Labrador,CA,47.0965195,-52.9414917,ardac,1.0,True,47.0582,-52.9345
NL183,Cape Charles,,Newfoundland and Labrador,CA,52.2185888,-55.6404425,ardac,0.6,True,52.3167,-55.4706
NL184,Cape Cove,,Newfoundland and Labrador,CA,49.6516667,-54.0388889,ardac,0.3,True,49.6131,-54.0304
NL185,Cape Dog,,Newfoundland and Labrador,CA,47.0908334,-53.6977777,ardac,0.7,True,46.921,-53.8358
NL186,Cape Freels North,,Newfoundland and Labrador,CA,49.260278,-53.503333,ardac,2.0,True,49.2217,-53.4955
NL187,Cape Freels South,,Newfoundland and Labrador,CA,49.2522223,-53.4794444,ardac,1.3,True,49.2137,-53.4716
NL188,Cape Island,,Newfoundland and Labrador,CA,49.2194445,-53.4780555,ardac,1.0,True,49.1809,-53.4702
NL189,Cape Norman,,Newfoundland and Labrador,CA,51.6191667,-55.8991667,ardac,1.0,True,51.5805,-55.8885
NL190,Cape Onion,,Newfoundland and Labrador,CA,51.6025,-55.6319445,ardac,0.8,True,51.5638,-55.6215
NL191,Cape Race,,Newfoundland and Labrador,CA,46.6597222,-53.0736111,ardac,0.8,True,46.6215,-53.0666
NL192,Cape St. George,,Newfoundland and Labrador,CA,48.4957027,-59.1849305,ardac,4.1,True,48.4579,-59.1721
NL193,Cape St. George,,Newfoundland and Labrador,CA,48.466667,-59.249167,ardac,1.2,True,48.4288,-59.2363
NL194,Cape St. Mary's,,Newfoundland and Labrador,CA,46.8227777,-54.1955556,ardac,0.8,True,46.7846,-54.1875
NL195,Cape la Hune,,Newfoundland and Labrador,CA,47.555,-56.8727778,ardac,1.1,True,47.6102,-57.0643
NL196,Caplin Cove,,Newfoundland and Labrador,CA,48.0397222,-52.9844444,ardac,2.0,True,48.0013,-52.9773
NL197,Caplin Cove,,Newfoundland and Labrador,CA,48.0136112,-53.7222222,ardac,1.5,True,47.8749,-53.5182
NL198,Caplin Gulch,,Newfoundland and Labrador,CA,51.5944444,-55.5136111,ardac,1.0,True,51.5558,-55.5033
NL199,Cappahayden,,Newfoundland and Labrador,CA,46.8613889,-52.9469445,ardac,1.8,True,46.8231,-52.94
NL200,Capstan Island,,Newfoundland and Labrador,CA,51.57,-56.7330556,ardac,0.6,True,51.4362,-56.5003
NL201,Carbonear,,Newfoundland and Labrador,CA,47.7315028,-53.2326611,ardac,2.0,True,47.8242,-53.0751
NL202,Card's Harbour,,Newfoundland and Labrador,CA,49.5072222,-55.6338889,ardac,3.6,True,49.6045,-55.4751
NL203,Carmanville,,Newfoundland and Labrador,CA,49.3673055,-54.2905694,ardac,4.0,True,49.4623,-54.1292
NL204,Carmanville South,,Newfoundland and Labrador,CA,49.3961111,-54.2766667,ardac,1.8,True,49.3576,-54.268
NL205,Carrolls Cove,,Newfoundland and Labrador,CA,52.1615603,-55.7081791,ardac,0.4,True,52.2598,-55.5387
NL206,Carter's Cove,,Newfoundland and Labrador,CA,49.5361111,-54.7866667,ardac,2.3,True,49.4976,-54.7775
NL207,Cartwright,,Newfoundland and Labrador,CA,53.693779,-56.970056,ardac,3.2,True,53.655,-56.9577
NL208,Cartyville,,Newfoundland and Labrador,CA,48.2377778,-58.8025,ardac,2.0,True,48.2891,-58.9995
NL209,Catalina,,Newfoundland and Labrador,CA,48.5166667,-53.0780555,ardac,3.1,True,48.4782,-53.0707
NL210,Cavanagh,,Newfoundland and Labrador,CA,54.033418,-66.432611,ardac,357.2,False,56.2944,-61.9585
NL211,Centreville,,Newfoundland and Labrador,CA,49.0166666,-53.8938889,ardac,2.8,True,48.8778,-53.6844
NL212,Centreville-Wareham-Trinity,,Newfoundland and Labrador,CA,49.0000278,-53.9206694,ardac,2.8,True,48.9615,-53.9125
NL213,Chamberlains,,Newfoundland and Labrador,CA,47.5263889,-52.9333333,ardac,2.9,True,47.488,-52.9263
NL214,Champney's,,Newfoundland and Labrador,CA,48.3908333,-53.2869445,ardac,0.7,True,48.4838,-53.1271
NL215,Champney's Arm,,Newfoundland and Labrador,CA,48.3916667,-53.3075,ardac,1.1,True,48.4847,-53.1477
NL216,Champney's West,,Newfoundland and Labrador,CA,48.3847223,-53.3011111,ardac,1.0,True,48.4777,-53.1413
NL217,Chance Cove,,Newfoundland and Labrador,CA,47.6666472,-53.830925,ardac,2.1,True,47.6283,-53.823
NL218,Change Islands,,Newfoundland and Labrador,CA,49.6689444,-54.4037223,ardac,6.9,True,49.6304,-54.3949
NL219,Channel-Port aux Basques,,Newfoundland and Labrador,CA,47.5955806,-59.1352917,ardac,4.0,True,47.6461,-59.3297
NL220,Chapel Arm,,Newfoundland and Labrador,CA,47.5049111,-53.6661916,ardac,2.5,True,47.5665,-53.8531
NL221,Chapel's Cove,,Newfoundland and Labrador,CA,47.4349098,-53.1404899,ardac,1.0,True,47.4976,-53.3264
NL222,Charles Brook,,Newfoundland and Labrador,CA,49.3383333,-55.2525,ardac,1.8,True,49.2999,-55.243
NL223,Charleston,,Newfoundland and Labrador,CA,48.3922222,-53.6536111,ardac,3.5,True,48.5865,-53.6935
NL224,Charlottetown,,Newfoundland and Labrador,CA,52.7657222,-56.1453,ardac,2.4,True,52.8648,-55.9743
NL225,Chateau,,Newfoundland and Labrador,CA,51.979972,-55.8967163,ardac,0.7,True,51.8039,-56.0422
NL226,Chimney Cove,,Newfoundland and Labrador,CA,49.3727777,-58.2272222,ardac,0.2,True,49.4255,-58.4289
NL227,Chimney Tickle,,Newfoundland and Labrador,CA,52.1646341,-55.6944676,ardac,0.7,True,52.2628,-55.525
NL228,Churchill Falls,,Newfoundland and Labrador,CA,53.531781,-64.008444,ardac,201.4,False,55.4332,-60.4342
NL229,Churchill Park,,Newfoundland and Labrador,CA,47.5755555,-52.7219444,ardac,3.4,True,47.5372,-52.7151
NL230,Churchills,,Newfoundland and Labrador,CA,47.9822222,-53.9569444,ardac,5.7,True,47.7438,-53.5567
NL231,Clarenville,,Newfoundland and Labrador,CA,48.1881389,-54.0557138,ardac,8.4,True,48.547,-53.597
NL232,Clarenville South,,Newfoundland and Labrador,CA,48.1563889,-53.9722222,ardac,2.9,True,47.9179,-53.5702
NL233,Clarke's Beach,,Newfoundland and Labrador,CA,47.5320167,-53.303675,ardac,4.5,True,47.4937,-53.2963
NL234,Clarke's Head,,Newfoundland and Labrador,CA,49.3,-54.499167,ardac,2.6,True,49.3604,-54.6954
NL235,Clattice Harbour,,Newfoundland and Labrador,CA,47.4877777,-54.4658333,ardac,0.9,True,47.4496,-54.4574
NL236,Clattice South West,,Newfoundland and Labrador,CA,47.4777778,-54.4627778,ardac,1.5,True,47.4396,-54.4544
NL237,Clifton,,Newfoundland and Labrador,CA,48.1794444,-53.7244444,ardac,1.9,True,48.0406,-53.5196
NL238,Clowns Cove,,Newfoundland and Labrador,CA,47.7580556,-53.1838889,ardac,1.3,True,47.8506,-53.0262
NL239,Coachman's Cove,,Newfoundland and Labrador,CA,50.0681694,-56.1237305,ardac,3.0,True,50.0298,-56.1132
NL240,Coal Brook,,Newfoundland and Labrador,CA,47.9333333,-58.9905556,ardac,19.3,True,47.9842,-59.1864
NL241,Cobb,,Newfoundland and Labrador,CA,47.8388889,-53.9744444,ardac,3.1,True,47.7008,-53.7705
NL242,Codner,,Newfoundland and Labrador,CA,47.5058334,-52.9936111,ardac,2.9,True,47.4675,-52.9865
NL243,Codroy,,Newfoundland and Labrador,CA,47.8811111,-59.3916667,ardac,0.5,True,47.9312,-59.5877
NL244,Codroy Pond,,Newfoundland and Labrador,CA,48.070278,-58.8625,ardac,11.3,True,48.2615,-58.9257
NL245,Coffee Cove,,Newfoundland and Labrador,CA,49.5861111,-55.9511111,ardac,2.1,True,49.4515,-55.732
NL246,Coffin Cove,,Newfoundland and Labrador,CA,47.5138889,-54.0827778,ardac,0.9,True,47.4756,-54.0747
NL247,Cold Brook,,Newfoundland and Labrador,CA,48.6016667,-58.5319444,ardac,7.8,True,48.5637,-58.5196
NL248,Coley's Point,,Newfoundland and Labrador,CA,47.5805555,-53.2655555,ardac,1.0,True,47.5422,-53.2582
NL249,Coley's Point South,,Newfoundland and Labrador,CA,47.5791666,-53.2669444,ardac,1.1,True,47.5408,-53.2596
NL250,Colinet,,Newfoundland and Labrador,CA,47.2195306,-53.5480611,ardac,1.9,True,47.381,-53.9276
NL251,Collier's Riverhead,,Newfoundland and Labrador,CA,47.4577778,-53.2072223,ardac,1.5,True,47.5203,-53.3933
NL252,Colliers,,Newfoundland and Labrador,CA,47.4503222,-53.2482889,ardac,4.1,True,47.5128,-53.4344
NL253,Collins Cove,,Newfoundland and Labrador,CA,47.0302778,-55.1752778,ardac,0.5,True,47.1259,-55.0245
NL254,Come By Chance,,Newfoundland and Labrador,CA,47.8415167,-53.9847806,ardac,2.8,True,47.7035,-53.7807
NL255,Comfort Bight,,Newfoundland and Labrador,CA,53.1519473,-55.7745496,ardac,1.6,True,53.1131,-55.7636
NL256,Comfort Cove-Newstead,,Newfoundland and Labrador,CA,49.3581556,-54.8758195,ardac,1.0,True,49.4178,-55.0729
NL257,Conception Bay South,,Newfoundland and Labrador,CA,47.4907778,-52.9951111,ardac,3.3,True,47.4524,-52.988
NL258,Conception Harbour,,Newfoundland and Labrador,CA,47.438575,-53.2239,ardac,2.2,True,47.5311,-53.0674
NL259,Conche,,Newfoundland and Labrador,CA,50.8955084,-55.8866667,ardac,0.4,True,50.857,-55.8762
NL260,Coney Arm,,Newfoundland and Labrador,CA,49.9622223,-56.7838889,ardac,1.4,True,50.0615,-56.6261
NL261,Conne River,,Newfoundland and Labrador,CA,47.8625,-55.755278,ardac,1.6,True,47.5539,-56.0285
NL262,Cook's Harbour,,Newfoundland and Labrador,CA,51.6078722,-55.863925,ardac,0.6,True,51.5692,-55.8533
NL263,Cooke,,Newfoundland and Labrador,CA,48.9094444,-58.0586111,ardac,7.8,True,48.9625,-58.2578
NL264,Coomb's Cove,,Newfoundland and Labrador,CA,47.458611,-55.621944,ardac,0.9,True,47.4205,-55.6125
NL265,Cooper's Cove,,Newfoundland and Labrador,CA,47.5836111,-54.2025,ardac,1.9,True,47.5454,-54.1943
NL266,Cooperage,,Newfoundland and Labrador,CA,47.6691666,-53.2480555,ardac,4.2,True,47.7618,-53.0908
NL267,Cootes Pond,,Newfoundland and Labrador,CA,46.9541667,-53.5202778,ardac,0.8,True,46.7847,-53.6585
NL268,Coppett,,Newfoundland and Labrador,CA,47.6022222,-57.2508333,ardac,0.5,True,47.5643,-57.2399
NL269,Corbin,,Newfoundland and Labrador,CA,47.5886111,-55.4188889,ardac,0.7,True,47.5505,-55.4096
NL270,Corbin,,Newfoundland and Labrador,CA,46.9605555,-55.24,ardac,0.6,True,46.9225,-55.231
NL271,Cormack,,Newfoundland and Labrador,CA,49.31595,-57.3833639,ardac,28.1,True,49.4627,-57.7964
NL272,Corner Brook,,Newfoundland and Labrador,CA,48.941111,-57.970278,ardac,4.3,True,48.9943,-58.1695
NL273,Cornfield,,Newfoundland and Labrador,CA,47.04,-52.8911111,ardac,1.9,True,47.0017,-52.8842
NL274,Cottlesville,,Newfoundland and Labrador,CA,49.495225,-54.8545583,ardac,1.0,True,49.4568,-54.8454
NL275,Cottlesville,,Newfoundland and Labrador,CA,49.5147223,-54.8752778,ardac,1.6,True,49.4762,-54.8661
NL276,Country Road,,Newfoundland and Labrador,CA,47.5752778,-53.2936111,ardac,3.2,True,47.5369,-53.2862
NL277,Country Road Industrial Park,,Newfoundland and Labrador,CA,48.9263889,-57.9852778,ardac,6.2,True,48.9796,-58.1845
NL278,Cow Head,,Newfoundland and Labrador,CA,49.919725,-57.7694834,ardac,1.1,True,49.8815,-57.7575
NL279,Cox's Cove,,Newfoundland and Labrador,CA,49.1119861,-58.0805139,ardac,2.3,True,49.0739,-58.0685
NL280,Crawley Island,,Newfoundland and Labrador,CA,47.4230555,-53.8575,ardac,1.1,True,47.3848,-53.8496
NL281,Creston,,Newfoundland and Labrador,CA,47.1444444,-55.1922222,ardac,5.1,True,47.2029,-55.3797
NL282,Creston North,,Newfoundland and Labrador,CA,47.1533333,-55.1986111,ardac,5.1,True,47.2118,-55.3861
NL283,Crockers Cove,,Newfoundland and Labrador,CA,47.7425,-53.2002778,ardac,0.4,True,47.8051,-53.3876
NL284,Croque,,Newfoundland and Labrador,CA,51.058333,-55.827778,ardac,1.4,True,51.0197,-55.8173
NL285,Cross Roads,,Newfoundland and Labrador,CA,47.4480556,-53.5494445,ardac,10.2,True,47.5411,-53.3936
NL286,Crossroads,,Newfoundland and Labrador,CA,47.8675,-53.3633334,ardac,0.6,True,47.8291,-53.3558
NL287,Crow Head,,Newfoundland and Labrador,CA,49.67985,-54.7998834,ardac,8.8,True,49.6413,-54.7907
NL288,Cruisers,,Newfoundland and Labrador,CA,48.9797222,-55.5711111,ardac,15.7,True,49.309,-55.4727
NL289,Cul de Sac West,,Newfoundland and Labrador,CA,47.5497222,-56.8416667,ardac,0.8,True,47.4181,-56.6301
NL290,Culls Harbour,,Newfoundland and Labrador,CA,48.6797223,-53.9488889,ardac,0.4,True,48.7739,-53.7894
NL291,Cupids,,Newfoundland and Labrador,CA,47.5478056,-53.2244889,ardac,0.3,True,47.5095,-53.2172
NL292,Cupids Crossing,,Newfoundland and Labrador,CA,47.5283333,-53.2508333,ardac,2.4,True,47.49,-53.2435
NL293,Current Island,,Newfoundland and Labrador,CA,51.1769444,-56.82,ardac,1.9,True,51.1385,-56.8086
NL294,Curzon Village,,Newfoundland and Labrador,CA,49.5105555,-57.9202778,ardac,0.6,True,49.4724,-57.9083
NL295,Cuslett,,Newfoundland and Labrador,CA,46.9605555,-54.1583333,ardac,0.6,True,46.9224,-54.1503
NL296,Cut Throat,,Newfoundland and Labrador,CA,57.4661778,-61.6166305,ardac,2.6,True,57.4277,-61.5976
NL297,Daniel's Cove,,Newfoundland and Labrador,CA,48.1286111,-52.9736111,ardac,2.8,True,48.0902,-52.9664
NL298,Daniel's Harbour,,Newfoundland and Labrador,CA,50.2326473,-57.5818083,ardac,1.3,True,50.1944,-57.5699
NL299,Daniel's Point,,Newfoundland and Labrador,CA,46.7525,-53.3775,ardac,2.0,True,46.8145,-53.5608
NL300,Darbys Harbour,,Newfoundland and Labrador,CA,47.4694444,-54.5413889,ardac,0.3,True,47.3328,-54.3373
NL301,Dark Cove,,Newfoundland and Labrador,CA,48.6605555,-53.7083333,ardac,0.3,True,48.6221,-53.7004
NL302,Davey Hanns Landing,,Newfoundland and Labrador,CA,48.6291666,-53.9380556,ardac,0.5,True,48.7233,-53.7787
NL303,Davidsville,,Newfoundland and Labrador,CA,49.3583334,-54.4325,ardac,1.4,True,49.4188,-54.6289
NL304,Davis Cove,,Newfoundland and Labrador,CA,47.6358333,-54.3441667,ardac,1.9,True,47.4987,-54.14
NL305,Davis House,,Newfoundland and Labrador,CA,51.4686111,-56.8705556,ardac,1.1,True,51.4301,-56.859
NL306,Davis Inlet,,Newfoundland and Labrador,CA,55.8886419,-60.9076539,ardac,1.2,True,55.9366,-61.1503
NL307,Davis Island,,Newfoundland and Labrador,CA,47.2611111,-54.9361111,ardac,3.8,True,47.223,-54.9273
NL308,Dawson's Cove,,Newfoundland and Labrador,CA,47.5347223,-55.9325,ardac,1.4,True,47.4966,-55.9228
NL309,De Grau,,Newfoundland and Labrador,CA,48.4833333,-59.1936111,ardac,3.4,True,48.4455,-59.1807
NL310,Dead Islands,,Newfoundland and Labrador,CA,52.7992839,-55.8329921,ardac,3.1,True,52.7605,-55.822
NL311,Deadmans Cove,,Newfoundland and Labrador,CA,51.2533333,-56.7833333,ardac,0.5,True,51.2148,-56.7719
NL312,Deep Bay,,Newfoundland and Labrador,CA,49.671111,-54.293056,ardac,0.6,True,49.6326,-54.2844
NL313,Deep Cove,,Newfoundland and Labrador,CA,47.4138889,-54.4997222,ardac,0.4,True,47.3757,-54.4913
NL314,Deer Harbour,,Newfoundland and Labrador,CA,48.1375,-53.5688889,ardac,2.5,True,47.9984,-53.3648
NL315,Deer Island,,Newfoundland and Labrador,CA,47.62,-57.3647223,ardac,1.4,True,47.5821,-57.3537
NL316,Deer Island,,Newfoundland and Labrador,CA,48.933333,-53.715833,ardac,7.0,True,48.8948,-53.7078
NL317,Deer Lake,,Newfoundland and Labrador,CA,49.194994,-57.3897,ardac,33.6,True,49.4805,-57.6603
NL318,Delbys Cove,,Newfoundland and Labrador,CA,48.2355556,-53.5372222,ardac,0.5,True,48.0963,-53.3328
NL319,Dennis Hill,,Newfoundland and Labrador,CA,47.6041667,-59.1755556,ardac,3.1,True,47.6546,-59.3701
NL320,Devils Kitchen,,Newfoundland and Labrador,CA,47.06,-52.9366667,ardac,3.1,True,47.0217,-52.9297
NL321,Dildo,,Newfoundland and Labrador,CA,47.5713889,-53.5505556,ardac,0.2,True,47.6333,-53.7376
NL322,Dock Cove,,Newfoundland and Labrador,CA,48.8591666,-53.645,ardac,12.4,True,48.8207,-53.6371
NL323,Doctors Harbour,,Newfoundland and Labrador,CA,47.6619445,-55.3175,ardac,0.5,True,47.5269,-55.1101
NL324,Doctors Harbour,,Newfoundland and Labrador,CA,47.6238889,-57.7761111,ardac,1.1,True,47.586,-57.7647
NL325,Dog Cove,,Newfoundland and Labrador,CA,47.6105555,-57.1363889,ardac,0.6,True,47.5726,-57.1256
NL326,Dogwood,,Newfoundland and Labrador,CA,48.9508333,-57.8369444,ardac,4.2,True,49.0043,-58.0361
NL327,Domino,,Newfoundland and Labrador,CA,53.4664558,-55.7757403,ardac,1.2,True,53.4276,-55.7647
NL328,Donovans,,Newfoundland and Labrador,CA,47.5258333,-52.835,ardac,6.7,True,47.4875,-52.828
NL329,Doting Cove,,Newfoundland and Labrador,CA,49.4427778,-53.9358334,ardac,1.3,True,49.5372,-53.7734
NL330,Dove Brook,,Newfoundland and Labrador,CA,53.6394992,-57.4280217,ardac,1.9,True,53.6462,-57.0209
NL331,Dover,,Newfoundland and Labrador,CA,48.8869639,-53.9537778,ardac,0.7,True,48.8485,-53.9456
NL332,Down Below,,Newfoundland and Labrador,CA,48.641302,-53.729638,ardac,1.0,True,48.6028,-53.7217
NL333,Doyles,,Newfoundland and Labrador,CA,47.8302778,-59.19,ardac,10.6,True,48.0211,-59.2543
NL334,Doyles,,Newfoundland and Labrador,CA,47.4594445,-52.7613889,ardac,5.4,True,47.4211,-52.7545
NL335,Drook,,Newfoundland and Labrador,CA,46.6730556,-53.2469444,ardac,1.2,True,46.6349,-53.2398
NL336,Drylake,,Newfoundland and Labrador,CA,52.6333333,-65.9827778,ardac,258.1,False,50.195,-66.0518
NL337,Duffs,,Newfoundland and Labrador,CA,47.4416667,-53.0977778,ardac,1.7,True,47.534,-52.941
NL338,Dumpling Harbour,,Newfoundland and Labrador,CA,53.841704,-56.9687779,ardac,3.2,True,53.8029,-56.9564
NL339,Dunfield,,Newfoundland and Labrador,CA,48.35,-53.3763889,ardac,1.9,True,48.4431,-53.2169
NL340,Duntara,,Newfoundland and Labrador,CA,48.585975,-53.3810333,ardac,3.3,True,48.5475,-53.3734
NL341,Dunville,,Newfoundland and Labrador,CA,47.27,-53.8975,ardac,4.8,True,47.2318,-53.8896
NL342,Duricle,,Newfoundland and Labrador,CA,47.1122222,-55.0933334,ardac,1.9,True,47.0741,-55.0844
NL343,Durrell,,Newfoundland and Labrador,CA,49.6597222,-54.7344444,ardac,7.3,True,49.6212,-54.7253
NL344,Eagle River,,Newfoundland and Labrador,CA,53.5731642,-57.4322441,ardac,3.0,True,53.5799,-57.0258
NL345,East Bay,,Newfoundland and Labrador,CA,47.7641666,-58.2533333,ardac,1.4,True,47.7263,-58.2415
NL346,East Landing,,Newfoundland and Labrador,CA,46.6602778,-53.0730556,ardac,0.8,True,46.6221,-53.066
NL347,East Meadows,,Newfoundland and Labrador,CA,47.5983334,-52.71,ardac,3.7,True,47.56,-52.7031
NL348,East St Modeste,,Newfoundland and Labrador,CA,51.6347222,-56.6813889,ardac,0.6,True,51.4578,-56.8222
NL349,Eastern Corner,,Newfoundland and Labrador,CA,47.6972222,-53.4783333,ardac,0.3,True,47.7593,-53.6658
NL350,Eastern Cove,,Newfoundland and Labrador,CA,49.533333,-54.215833,ardac,5.2,True,49.4948,-54.2072
NL351,Eastern Tickle,,Newfoundland and Labrador,CA,49.725016,-54.259615,ardac,0.8,True,49.6865,-54.2509
NL352,Eastport,,Newfoundland and Labrador,CA,48.6646722,-53.7676278,ardac,2.4,True,48.6262,-53.7596
NL353,Eddies Cove,,Newfoundland and Labrador,CA,51.415,-56.4608333,ardac,1.3,True,51.4718,-56.6705
NL354,Elliott's Cove,,Newfoundland and Labrador,CA,48.1405556,-53.9041667,ardac,1.1,True,47.9018,-53.5027
NL355,Elliston,,Newfoundland and Labrador,CA,48.6291611,-53.0480361,ardac,2.5,True,48.5907,-53.0407
NL356,Embar,,Newfoundland and Labrador,CA,52.3,-65.6827778,ardac,220.2,False,50.1635,-65.5382
NL357,Embree,,Newfoundland and Labrador,CA,49.3012472,-55.0437028,ardac,1.1,True,49.3605,-55.2408
NL358,Emerald Vale,,Newfoundland and Labrador,CA,47.5069445,-53.2997223,ardac,6.3,True,47.4686,-53.2923
NL359,Emeril,,Newfoundland and Labrador,CA,53.0834057,-66.215989,ardac,308.0,False,50.1944,-66.0306
NL360,Emily Harbour,,Newfoundland and Labrador,CA,54.5388804,-57.184823,ardac,4.4,True,54.5001,-57.1719
NL361,Englee,,Newfoundland and Labrador,CA,50.7657028,-56.0709528,ardac,1.4,True,50.8641,-55.9083
NL362,English Harbour,,Newfoundland and Labrador,CA,48.3722222,-53.2616667,ardac,1.3,True,48.4652,-53.1018
NL363,English Harbour East,,Newfoundland and Labrador,CA,47.64608,-54.892783,ardac,3.0,True,47.5712,-55.2256
NL364,English Harbour West,,Newfoundland and Labrador,CA,47.463056,-55.493889,ardac,2.1,True,47.4249,-55.4846
NL365,English Point,,Newfoundland and Labrador,CA,51.4880555,-56.9291666,ardac,1.4,True,51.4495,-56.9175
NL366,Epworth,,Newfoundland and Labrador,CA,47.0286111,-55.2025,ardac,0.8,True,47.1243,-55.0518
NL367,Esker,,Newfoundland and Labrador,CA,53.883416,-66.415949,ardac,355.7,False,56.2906,-61.8081
NL368,Evergreen Village,,Newfoundland and Labrador,CA,47.5394445,-52.8419444,ardac,5.2,True,47.5011,-52.835
NL369,Exploits,,Newfoundland and Labrador,CA,49.5233333,-55.0675,ardac,4.6,True,49.4849,-55.0581
NL370,Faden,,Newfoundland and Labrador,CA,54.183333,-66.499167,ardac,359.0,False,56.3629,-61.7442
NL371,Fair Haven,,Newfoundland and Labrador,CA,47.5347223,-53.8988889,ardac,0.4,True,47.4964,-53.891
NL372,Fair Island,,Newfoundland and Labrador,CA,48.983333,-53.715833,ardac,2.9,True,48.9448,-53.7078
NL373,Fairbank,,Newfoundland and Labrador,CA,49.5530555,-54.7427778,ardac,0.6,True,49.5146,-54.7337
NL374,Fairbanks East,,Newfoundland and Labrador,CA,49.5538889,-54.7441667,ardac,0.4,True,49.5154,-54.7351
NL375,Felix Cove,,Newfoundland and Labrador,CA,48.5336111,-58.7830555,ardac,3.5,True,48.4957,-58.7705
NL376,Femme,,Newfoundland and Labrador,CA,47.6013889,-54.9844445,ardac,1.6,True,47.5632,-54.9756
NL377,Fermeuse,,Newfoundland and Labrador,CA,46.9802778,-52.9516667,ardac,4.3,True,47.0722,-52.7963
NL378,Fermeuse,,Newfoundland and Labrador,CA,46.9727667,-52.977475,ardac,6.1,True,47.0647,-52.8222
NL379,Ferndale,,Newfoundland and Labrador,CA,47.2633333,-53.9469444,ardac,2.2,True,47.2251,-53.939
NL380,Ferolle Point,,Newfoundland and Labrador,CA,51.016667,-57.099167,ardac,0.8,True,50.9782,-57.0875
NL381,Ferryland,,Newfoundland and Labrador,CA,47.0302389,-52.9056278,ardac,2.9,True,46.992,-52.8987
NL382,Fischells,,Newfoundland and Labrador,CA,48.3169444,-58.7097222,ardac,1.6,True,48.3685,-58.907
NL383,Fischot Islands,,Newfoundland and Labrador,CA,51.1822223,-55.6866667,ardac,2.3,True,51.1436,-55.6763
NL384,Fishing Ships Harbour,,Newfoundland and Labrador,CA,52.6064097,-55.7715556,ardac,1.0,True,52.5676,-55.7607
NL385,Flat Bay West,,Newfoundland and Labrador,CA,48.3988889,-58.6005556,ardac,0.6,True,48.361,-58.5882
NL386,Flat Island,,Newfoundland and Labrador,CA,47.2719445,-54.9225,ardac,3.7,True,47.2338,-54.9137
NL387,Flat Islands,,Newfoundland and Labrador,CA,48.8,-53.6325,ardac,11.2,True,48.7615,-53.6246
NL388,Flat Rock,,Newfoundland and Labrador,CA,47.0138889,-52.9838889,ardac,7.1,True,47.1059,-52.8284
NL389,Flatrock,,Newfoundland and Labrador,CA,47.7572222,-53.1869444,ardac,1.3,True,47.8199,-53.3743
NL390,Flatrock,,Newfoundland and Labrador,CA,47.7049611,-52.7316555,ardac,2.4,True,47.6666,-52.7248
NL391,Fleur de Lys,,Newfoundland and Labrador,CA,50.132925,-56.1570194,ardac,1.6,True,50.0945,-56.1465
NL392,Fleury Bight,,Newfoundland and Labrador,CA,49.523871,-55.295023,ardac,1.4,True,49.4854,-55.2854
NL393,Flower's Cove,,Newfoundland and Labrador,CA,51.29535,-56.7202694,ardac,1.6,True,51.2568,-56.7089
NL394,Fogo,,Newfoundland and Labrador,CA,49.714205,-54.278792,ardac,0.3,True,49.6756,-54.2701
NL395,Fogo Island,,Newfoundland and Labrador,CA,49.658333,-54.1825,ardac,2.3,True,49.6198,-54.1739
NL396,Ford,,Newfoundland and Labrador,CA,56.4663889,-61.1925,ardac,0.6,True,56.428,-61.1745
NL397,Forest Field,,Newfoundland and Labrador,CA,47.1602778,-53.4522222,ardac,4.5,True,47.3221,-53.8308
NL398,Fort Townshend,,Newfoundland and Labrador,CA,47.5675,-52.7113889,ardac,2.2,True,47.5291,-52.7045
NL399,Fort William,,Newfoundland and Labrador,CA,47.5711111,-52.6969445,ardac,1.9,True,47.5327,-52.6901
NL400,Forteau,,Newfoundland and Labrador,CA,51.4915611,-56.9478916,ardac,1.9,True,51.453,-56.9362
NL401,Fortune,,Newfoundland and Labrador,CA,47.0406833,-55.8614917,ardac,2.9,True,47.0027,-55.852
NL402,Fortune Harbour,,Newfoundland and Labrador,CA,49.5094444,-55.2377778,ardac,1.0,True,49.471,-55.2282
NL403,Forward's Cove,,Newfoundland and Labrador,CA,47.266667,-55.899167,ardac,0.3,True,47.2286,-55.8895
NL404,Four Harbour,,Newfoundland and Labrador,CA,51.1822223,-55.7316667,ardac,0.6,True,51.1436,-55.7213
NL405,Fox Cove,,Newfoundland and Labrador,CA,47.0944444,-55.1038889,ardac,1.4,True,47.19,-54.9527
NL406,Fox Cove-Mortier,,Newfoundland and Labrador,CA,47.1023611,-55.1103778,ardac,2.4,True,47.1979,-54.9592
NL407,Fox Harbour,,Newfoundland and Labrador,CA,47.3215,-53.8827166,ardac,2.3,True,47.2833,-53.8749
NL408,Fox Island Harbour,,Newfoundland and Labrador,CA,47.5913889,-57.2855556,ardac,0.4,True,47.5534,-57.2746
NL409,Fox Island River,,Newfoundland and Labrador,CA,48.6922222,-58.6783334,ardac,0.7,True,48.6543,-58.6659
NL410,Fox Marsh,,Newfoundland and Labrador,CA,47.3944444,-53.4091667,ardac,16.9,True,47.4873,-53.2533
NL411,Fox Roost,,Newfoundland and Labrador,CA,47.5711111,-59.0413889,ardac,0.8,True,47.3937,-59.1594
NL412,Foxtrap,,Newfoundland and Labrador,CA,47.5086111,-52.9822222,ardac,2.2,True,47.4703,-52.9751
NL413,Francis Harbour,,Newfoundland and Labrador,CA,52.5639634,-55.7216296,ardac,6.3,True,52.5252,-55.7109
NL414,Frederickton,,Newfoundland and Labrador,CA,49.4261111,-54.3586111,ardac,0.8,True,49.5212,-54.1972
NL415,Frenchman's Cove,,Newfoundland and Labrador,CA,47.161108,-55.41835,ardac,3.4,True,47.2191,-55.6062
NL416,Frenchman's Cove,,Newfoundland and Labrador,CA,49.0558333,-58.1802777,ardac,1.2,True,49.0178,-58.1682
NL417,Frenchmans Island,,Newfoundland and Labrador,CA,53.224757,-55.7361157,ardac,2.1,True,53.1859,-55.7251
NL418,Frenchs Cove,,Newfoundland and Labrador,CA,47.6133334,-53.22,ardac,0.3,True,47.7059,-53.0629
NL419,Freshwater,,Newfoundland and Labrador,CA,47.755029,-53.183343,ardac,1.0,True,47.8177,-53.3707
NL420,Freshwater,,Newfoundland and Labrador,CA,46.8466667,-52.9469445,ardac,1.0,True,46.8084,-52.94
NL421,Freshwater,,Newfoundland and Labrador,CA,47.2591667,-53.9838889,ardac,0.6,True,47.2209,-53.976
NL422,Freshwater,,Newfoundland and Labrador,CA,47.0372222,-52.8861111,ardac,1.6,True,46.9989,-52.8792
NL423,Freshwater,,Newfoundland and Labrador,CA,47.6011111,-53.0083334,ardac,0.9,True,47.5628,-53.0012
NL424,Frog Marsh,,Newfoundland and Labrador,CA,47.5344445,-53.1930556,ardac,1.5,True,47.627,-53.0362
NL425,Furby's Cove,,Newfoundland and Labrador,CA,47.6011111,-55.8361111,ardac,0.6,True,47.563,-55.8265
NL426,Gadds Harbour,,Newfoundland and Labrador,CA,49.5069444,-57.8702777,ardac,0.1,True,49.4688,-57.8583
NL427,Gaff Topsail,,Newfoundland and Labrador,CA,49.1427778,-56.6519445,ardac,47.4,True,49.5556,-55.8487
NL428,Galeville,,Newfoundland and Labrador,CA,49.5519444,-56.8472222,ardac,0.8,True,49.8832,-56.7577
NL429,Gallants,,Newfoundland and Labrador,CA,48.7054861,-58.2388527,ardac,19.7,True,48.7581,-58.4373
NL430,Gallardin Point,,Newfoundland and Labrador,CA,47.26,-53.9733333,ardac,1.0,True,47.2218,-53.9654
NL431,Gallows Cove,,Newfoundland and Labrador,CA,47.4436111,-53.1572222,ardac,0.4,True,47.5062,-53.3432
NL432,Gambo,,Newfoundland and Labrador,CA,48.7970805,-54.2125111,ardac,2.1,True,48.8918,-54.0532
NL433,Gambo Pond,,Newfoundland and Labrador,CA,48.7361111,-54.225,ardac,4.0,True,48.9637,-53.9143
NL434,Gambo South,,Newfoundland and Labrador,CA,48.7675,-54.2247222,ardac,2.0,True,48.8622,-54.0655
NL435,Gander,,Newfoundland and Labrador,CA,48.957189,-54.588561,ardac,34.4,True,48.8536,-54.0246
NL436,Gander Bay,,Newfoundland and Labrador,CA,49.2961112,-54.4816667,ardac,1.4,True,49.3914,-54.321
NL437,Gander Bay South,,Newfoundland and Labrador,CA,49.2797222,-54.4861111,ardac,0.2,True,49.4743,-54.5308
NL438,Gargamelle,,Newfoundland and Labrador,CA,50.6997222,-57.3533333,ardac,1.0,True,50.6614,-57.3415
NL439,Garnish,,Newfoundland and Labrador,CA,47.215406,-55.332653,ardac,3.1,True,47.2736,-55.5206
NL440,Garretts Cove,,Newfoundland and Labrador,CA,47.8541667,-53.7352778,ardac,1.3,True,47.8158,-53.7275
NL441,Gaskiers,,Newfoundland and Labrador,CA,46.8744445,-53.6111111,ardac,0.6,True,46.8363,-53.6036
NL442,Gaskiers-Point La Haye,,Newfoundland and Labrador,CA,46.8841666,-53.605,ardac,1.3,True,46.846,-53.5975
NL443,Gasters,,Newfoundland and Labrador,CA,47.4302778,-53.1463889,ardac,1.4,True,47.4929,-53.3322
NL444,Gaultois,,Newfoundland and Labrador,CA,47.611875,-55.9137583,ardac,0.9,True,47.5738,-55.904
NL445,George's Brook,,Newfoundland and Labrador,CA,48.238333,-53.9599998,ardac,2.1,True,48.565,-53.8508
NL446,Georges Cove,,Newfoundland and Labrador,CA,52.5795616,-55.7536366,ardac,3.7,True,52.5408,-55.7428
NL447,Georges Cove,,Newfoundland and Labrador,CA,49.5594445,-56.835,ardac,0.4,True,49.753,-56.891
NL448,Georges Lake,,Newfoundland and Labrador,CA,48.7369444,-58.1838889,ardac,24.1,True,48.7897,-58.3825
NL449,Georgestown,,Newfoundland and Labrador,CA,47.5688889,-52.7191667,ardac,2.7,True,47.5305,-52.7123
NL450,Georgetown,,Newfoundland and Labrador,CA,48.9525,-58.015,ardac,3.4,True,49.0056,-58.2144
NL451,Gillams,,Newfoundland and Labrador,CA,49.0194944,-58.0683389,ardac,1.4,True,48.9814,-58.0563
NL452,Gillard's Cove,,Newfoundland and Labrador,CA,49.6180555,-54.755,ardac,3.1,True,49.5796,-54.7459
NL453,Gillesport,,Newfoundland and Labrador,CA,49.6686111,-54.7447222,ardac,8.4,True,49.6301,-54.7356
NL454,Gilling,,Newfoundland and Labrador,CA,54.750108,-66.782601,ardac,336.4,False,56.3317,-61.8911
NL455,Gin Cove,,Newfoundland and Labrador,CA,48.1972222,-53.8158333,ardac,0.9,True,48.5236,-53.7056
NL456,Glenburnie,,Newfoundland and Labrador,CA,49.4347222,-57.895,ardac,0.5,True,49.3966,-57.883
NL457,Glenburnie-Birchy Head-Shoal Brook,,Newfoundland and Labrador,CA,49.4507556,-57.9098889,ardac,0.9,True,49.4126,-57.8979
NL458,Glendale,,Newfoundland and Labrador,CA,47.5169444,-52.8122222,ardac,8.6,True,47.4786,-52.8053
NL459,Glendon Cove,,Newfoundland and Labrador,CA,47.7022222,-54.2372222,ardac,3.2,True,47.664,-54.229
NL460,Glenridge Crescent,,Newfoundland and Labrador,CA,47.5791666,-52.7111111,ardac,3.2,True,47.5408,-52.7042
NL461,Glenview,,Newfoundland and Labrador,CA,47.8780556,-53.9705556,ardac,4.2,True,47.7073,-54.11
NL462,Glenvilla Court,,Newfoundland and Labrador,CA,47.61,-52.7136111,ardac,4.4,True,47.5716,-52.7067
NL463,Glenwood,,Newfoundland and Labrador,CA,48.9809139,-54.8820444,ardac,27.2,True,49.4077,-54.9841
NL464,Glovertown,,Newfoundland and Labrador,CA,48.6911305,-54.0352778,ardac,5.5,True,48.7855,-53.8759
NL465,Glovertown South,,Newfoundland and Labrador,CA,48.6716667,-54.0044444,ardac,3.9,True,48.766,-53.8451
NL466,Goblin,,Newfoundland and Labrador,CA,47.719644,-56.095772,ardac,0.1,True,47.5863,-55.8856
NL467,Goddenville,,Newfoundland and Labrador,CA,47.5991667,-53.3455556,ardac,6.5,True,47.5608,-53.3381
NL468,Gold Cove,,Newfoundland and Labrador,CA,49.5705555,-56.8475,ardac,1.7,True,49.7641,-56.9036
NL469,Goobies Siding,,Newfoundland and Labrador,CA,47.9422222,-53.9636111,ardac,9.6,True,47.7714,-54.1033
NL470,Goobies Station,,Newfoundland and Labrador,CA,47.9202777,-53.9488889,ardac,6.9,True,47.7495,-54.0886
NL471,Goose Arm,,Newfoundland and Labrador,CA,49.137591,-57.92124,ardac,1.1,True,49.1909,-58.1214
NL472,Goose Cove,,Newfoundland and Labrador,CA,51.3063889,-55.6336111,ardac,1.0,True,51.2678,-55.6233
NL473,Goose Cove,,Newfoundland and Labrador,CA,48.3638889,-53.3844444,ardac,2.2,True,48.457,-53.2249
NL474,Goose Cove,,Newfoundland and Labrador,CA,47.8602778,-54.1027778,ardac,0.8,True,47.5902,-54.0456
NL475,Goose Cove East,,Newfoundland and Labrador,CA,51.3075,-55.6272222,ardac,0.8,True,51.2689,-55.6169
NL476,Gooseberry Cove,,Newfoundland and Labrador,CA,47.0694444,-54.0913889,ardac,1.3,True,47.0313,-54.0834
NL477,Gooseberry Cove,,Newfoundland and Labrador,CA,48.0327778,-53.6419445,ardac,1.4,True,47.8939,-53.4381
NL478,Gooseberry Island,,Newfoundland and Labrador,CA,48.883333,-53.615833,ardac,15.3,True,48.8448,-53.6079
NL479,Goulds,,Newfoundland and Labrador,CA,47.4786111,-52.7666667,ardac,6.0,True,47.4403,-52.7598
NL480,Grady Harbour,,Newfoundland and Labrador,CA,53.8024268,-56.4250483,ardac,3.8,True,53.7636,-56.4132
NL481,Granby Island,,Newfoundland and Labrador,CA,49.7363889,-56.7236111,ardac,4.2,True,49.6981,-56.7127
NL482,Grand Bank,,Newfoundland and Labrador,CA,47.088906,-55.755111,ardac,2.2,True,47.0509,-55.7457
NL483,Grand Bay East,,Newfoundland and Labrador,CA,47.5861111,-59.1675,ardac,2.0,True,47.5484,-59.1549
NL484,Grand Bay West,,Newfoundland and Labrador,CA,47.5852778,-59.18,ardac,1.1,True,47.5476,-59.1674
NL485,Grand Bruit,,Newfoundland and Labrador,CA,47.671667,-58.226667,ardac,1.6,True,47.6338,-58.2149
NL486,Grand Falls,,Newfoundland and Labrador,CA,48.9330556,-55.6513889,ardac,23.4,True,49.3978,-55.4053
NL487,Grand Falls-Windsor,,Newfoundland and Labrador,CA,48.9640028,-55.6644417,ardac,22.6,True,49.3315,-55.2112
NL488,Grand Jardin,,Newfoundland and Labrador,CA,48.4738889,-59.2186111,ardac,1.3,True,48.4361,-59.2057
NL489,Grand John,,Newfoundland and Labrador,CA,47.4908334,-55.0561111,ardac,0.7,True,47.3553,-54.8503
NL490,Grand Le Pierre,,Newfoundland and Labrador,CA,47.7732861,-54.8056084,ardac,10.1,True,47.6014,-54.9414
NL491,Grandois,,Newfoundland and Labrador,CA,51.1025,-55.7486111,ardac,0.9,True,51.0639,-55.7382
NL492,Grants,,Newfoundland and Labrador,CA,48.7305556,-54.1769444,ardac,4.4,True,48.8252,-54.0178
NL493,Graven Bank,,Newfoundland and Labrador,CA,46.9605555,-53.5319445,ardac,0.8,True,46.7911,-53.6702
NL494,Great Barasway,,Newfoundland and Labrador,CA,47.1275,-54.0627778,ardac,6.1,True,47.0893,-54.0548
NL495,Great Bona,,Newfoundland and Labrador,CA,47.3905555,-54.5291667,ardac,0.8,True,47.3524,-54.5207
NL496,Great Brule,,Newfoundland and Labrador,CA,47.6588889,-54.1341667,ardac,0.6,True,47.6206,-54.126
NL497,Great Harbour,,Newfoundland and Labrador,CA,47.5119444,-55.8441666,ardac,0.7,True,47.4739,-55.8345
NL498,Great Harbour Deep,,Newfoundland and Labrador,CA,50.373333,-56.519444,ardac,2.4,True,50.3349,-56.5085
NL499,Great Jervais,,Newfoundland and Labrador,CA,47.4694444,-55.1522222,ardac,0.9,True,47.5652,-54.9999
NL500,Great Jervis Harbour,,Newfoundland and Labrador,CA,47.660006,-56.161704,ardac,1.2,True,47.4863,-56.2917
NL501,Great Paradise,,Newfoundland and Labrador,CA,47.3513889,-54.5925,ardac,1.0,True,47.3132,-54.584
NL502,Great Salmonier,,Newfoundland and Labrador,CA,47.0686111,-55.2166667,ardac,1.3,True,47.1643,-55.0658
NL503,Greeleytown,,Newfoundland and Labrador,CA,47.5041667,-52.9852778,ardac,2.7,True,47.4658,-52.9782
NL504,Green Cove,,Newfoundland and Labrador,CA,49.6361112,-54.5927778,ardac,0.6,True,49.5976,-54.5838
NL505,Green Island Cove,,Newfoundland and Labrador,CA,51.383375,-56.582365,ardac,6.8,True,51.3448,-56.5711
NL506,Green Point,,Newfoundland and Labrador,CA,49.6822222,-57.9552778,ardac,0.6,True,49.6441,-57.9432
NL507,Greenland,,Newfoundland and Labrador,CA,47.5655556,-53.1872222,ardac,0.6,True,47.5272,-53.1799
NL508,Greenspond,,Newfoundland and Labrador,CA,49.07315,-53.5768027,ardac,0.8,True,49.0346,-53.5689
NL509,Grenfell Heights,,Newfoundland and Labrador,CA,48.9477778,-55.6247222,ardac,20.9,True,49.4125,-55.3783
NL510,Grey Islands Harbour,,Newfoundland and Labrador,CA,50.7022222,-55.5961111,ardac,0.9,True,50.6637,-55.586
NL511,Gripes Nest,,Newfoundland and Labrador,CA,46.9036111,-52.9188889,ardac,1.2,True,46.8654,-52.9119
NL512,Griquet,,Newfoundland and Labrador,CA,51.5291667,-55.4586111,ardac,1.7,True,51.4905,-55.4484
NL513,Groais Island,,Newfoundland and Labrador,CA,50.7256841,-55.587951,ardac,1.2,True,50.6871,-55.5778
NL514,Grole,,Newfoundland and Labrador,CA,47.5219445,-56.1194444,ardac,1.1,True,47.4839,-56.1096
NL515,Gulch,,Newfoundland and Labrador,CA,46.9075,-53.5977778,ardac,0.2,True,46.8693,-53.5902
NL516,Gull Island,,Newfoundland and Labrador,CA,47.9538889,-53.0433333,ardac,0.8,True,47.9155,-53.0361
NL517,Gullbridge,,Newfoundland and Labrador,CA,49.1997222,-56.155,ardac,25.5,True,49.5698,-55.7036
NL518,Gullies,,Newfoundland and Labrador,CA,47.6477778,-53.2863889,ardac,3.6,True,47.7405,-53.1293
NL519,Gulls Marsh,,Newfoundland and Labrador,CA,49.7833333,-57.8838889,ardac,0.9,True,49.7451,-57.8718
NL520,Gunners Cove,,Newfoundland and Labrador,CA,51.5155555,-55.4586111,ardac,1.4,True,51.4769,-55.4484
NL521,Gunridge,,Newfoundland and Labrador,CA,47.3111111,-52.7805556,ardac,0.4,True,47.2728,-52.7737
NL522,Gussetts Cove,,Newfoundland and Labrador,CA,47.8511111,-53.0886111,ardac,1.4,True,47.8127,-53.0814
NL523,Halfway House,,Newfoundland and Labrador,CA,47.8041667,-53.2938889,ardac,8.6,True,47.7658,-53.2865
NL524,Halfway Point,,Newfoundland and Labrador,CA,48.9927778,-58.1,ardac,0.5,True,48.9547,-58.088
NL525,Halfway Tucks,,Newfoundland and Labrador,CA,46.7038889,-53.5980556,ardac,3.1,True,46.6657,-53.5906
NL526,Halls Town,,Newfoundland and Labrador,CA,47.5375,-53.3230555,ardac,5.3,True,47.4992,-53.3157
NL527,Hampden,,Newfoundland and Labrador,CA,49.5396389,-56.8816277,ardac,2.0,True,49.8709,-56.7924
NL528,Hannah Cove,,Newfoundland and Labrador,CA,49.6202777,-56.83,ardac,1.1,True,49.7195,-56.6736
NL529,Hant's Harbour,,Newfoundland and Labrador,CA,47.990422,-53.276714,ardac,2.0,True,48.0833,-53.1183
NL530,Happy Adventure,,Newfoundland and Labrador,CA,48.6351722,-53.7818861,ardac,1.4,True,48.5967,-53.7739
NL531,Happy Valley - Goose Bay,,Newfoundland and Labrador,CA,53.341739,-60.448803,ardac,2.7,True,54.8824,-58.7618
NL532,Harbour Breton,,Newfoundland and Labrador,CA,47.477522,-55.824044,ardac,1.2,True,47.4394,-55.8144
NL533,Harbour Buffett,,Newfoundland and Labrador,CA,47.5275,-54.0866667,ardac,0.4,True,47.4892,-54.0786
NL534,Harbour Deep,,Newfoundland and Labrador,CA,50.369988,-56.51732,ardac,2.6,True,50.3316,-56.5064
NL535,Harbour Grace,,Newfoundland and Labrador,CA,47.6796861,-53.2535888,ardac,5.4,True,47.7724,-53.0963
NL536,Harbour Grace South,,Newfoundland and Labrador,CA,47.6786111,-53.2158333,ardac,2.8,True,47.7712,-53.0585
NL537,Harbour Island,,Newfoundland and Labrador,CA,47.5516667,-54.2602778,ardac,1.1,True,47.5134,-54.252
NL538,Harbour Le Cou,,Newfoundland and Labrador,CA,47.6227778,-58.6869444,ardac,2.7,True,47.585,-58.6748
NL539,Harbour Main,,Newfoundland and Labrador,CA,47.4338889,-53.1611111,ardac,0.5,True,47.5263,-53.0045
NL540,Harbour Main-Chapel's Cove-Lakeview,,Newfoundland and Labrador,CA,47.4118667,-53.1740194,ardac,2.3,True,47.4744,-53.3598
NL541,Harbour Mille,,Newfoundland and Labrador,CA,47.581389,-54.879722,ardac,0.2,True,47.6406,-55.0687
NL542,Harbour Round,,Newfoundland and Labrador,CA,49.9216667,-55.7380555,ardac,1.3,True,49.9796,-55.9391
NL543,Harcourt,,Newfoundland and Labrador,CA,48.1977777,-53.8583334,ardac,0.3,True,48.5242,-53.7484
NL544,Hardy's Cove,,Newfoundland and Labrador,CA,47.6675,-55.6663889,ardac,1.6,True,47.5332,-55.4579
NL545,Hare Bay,,Newfoundland and Labrador,CA,48.8591528,-54.0318361,ardac,2.6,True,48.8207,-54.0236
NL546,Hare Harbour,,Newfoundland and Labrador,CA,53.750866,-56.7315184,ardac,1.1,True,53.8512,-56.5576
NL547,Hare Harbour,,Newfoundland and Labrador,CA,47.5830556,-55.1430556,ardac,0.9,True,47.5449,-55.134
NL548,Harlands Landing,,Newfoundland and Labrador,CA,53.483333,-64.499167,ardac,233.9,False,55.8657,-61.1662
NL549,Harnum Point,,Newfoundland and Labrador,CA,47.5666667,-53.5647222,ardac,1.4,True,47.6285,-53.7518
NL550,Harricott,,Newfoundland and Labrador,CA,47.1738889,-53.5408333,ardac,1.0,True,47.3354,-53.9199
NL551,Harris Point,,Newfoundland and Labrador,CA,49.2808334,-54.4869444,ardac,0.3,True,49.4754,-54.5316
NL552,Harrison,,Newfoundland and Labrador,CA,48.9755556,-57.7838889,ardac,7.4,True,49.1204,-58.1949
NL553,Harrys Brook,,Newfoundland and Labrador,CA,48.666667,-58.265833,ardac,15.1,True,48.7192,-58.4642
NL554,Hatchet Cove,,Newfoundland and Labrador,CA,48.0286111,-53.7997222,ardac,1.0,True,47.89,-53.5954
NL555,Hatchet Harbour,,Newfoundland and Labrador,CA,49.6338889,-54.6227778,ardac,0.6,True,49.5954,-54.6138
NL556,Hawke Harbour,,Newfoundland and Labrador,CA,53.0422686,-55.8097361,ardac,1.2,True,53.0035,-55.7987
NL557,Hawke's Bay,,Newfoundland and Labrador,CA,50.6168083,-57.1846972,ardac,1.6,True,50.7169,-57.0253
NL558,Haystack,,Newfoundland and Labrador,CA,47.6375,-54.0777778,ardac,0.9,True,47.5992,-54.0697
NL559,Hayward Cove,,Newfoundland and Labrador,CA,49.562804,-54.891531,ardac,0.6,True,49.5243,-54.8823
NL560,Haywards Cove,,Newfoundland and Labrador,CA,48.8683333,-53.6477778,ardac,12.7,True,48.8298,-53.6398
NL561,Head Harbour,,Newfoundland and Labrador,CA,49.4961111,-55.6925,ardac,1.8,True,49.5935,-55.5339
NL562,Head of Bay D'Espoir,,Newfoundland and Labrador,CA,47.9294444,-55.7527778,ardac,1.2,True,47.6208,-56.0265
NL563,Heart's Content,,Newfoundland and Labrador,CA,47.8498556,-53.3549306,ardac,2.2,True,47.8115,-53.3474
NL564,Heart's Delight,,Newfoundland and Labrador,CA,47.7747222,-53.4625,ardac,0.5,True,47.7364,-53.4549
NL565,Heart's Delight-Islington,,Newfoundland and Labrador,CA,47.7720722,-53.4437166,ardac,1.8,True,47.7337,-53.4362
NL566,Heart's Desire,,Newfoundland and Labrador,CA,47.8156361,-53.4267777,ardac,1.3,True,47.7773,-53.4192
NL567,Heatherton,,Newfoundland and Labrador,CA,48.2805556,-58.7577778,ardac,1.9,True,48.332,-58.9549
NL568,Hebron,,Newfoundland and Labrador,CA,58.1993175,-62.6258544,ardac,0.4,True,58.3097,-62.4473
NL569,Henley Harbour,,Newfoundland and Labrador,CA,51.9955852,-55.8517801,ardac,1.6,True,51.8596,-55.6195
NL570,Hermitage,,Newfoundland and Labrador,CA,47.55,-55.9325,ardac,2.0,True,47.5119,-55.9228
NL571,Hermitage-Sandyville,,Newfoundland and Labrador,CA,47.546214,-55.924428,ardac,1.7,True,47.5081,-55.9147
NL572,Hibbs Cove,,Newfoundland and Labrador,CA,47.6011111,-53.1847222,ardac,0.9,True,47.6936,-53.0276
NL573,Hickman's Harbour,,Newfoundland and Labrador,CA,48.1086111,-53.7422222,ardac,1.9,True,47.9699,-53.5377
NL574,High Beach,,Newfoundland and Labrador,CA,46.8888889,-55.8902778,ardac,1.3,True,46.8509,-55.8807
NL575,Highlands,,Newfoundland and Labrador,CA,48.1716667,-58.9302778,ardac,3.5,True,48.2736,-58.7842
NL576,Hillgrade,,Newfoundland and Labrador,CA,49.5719444,-54.7052778,ardac,1.0,True,49.5334,-54.6962
NL577,Hillview,,Newfoundland and Labrador,CA,48.033889,-53.917222,ardac,0.5,True,47.7952,-53.5167
NL578,Hodderville,,Newfoundland and Labrador,CA,48.5280556,-53.3013889,ardac,2.4,True,48.4896,-53.2938
NL579,Hogan's Pond,,Newfoundland and Labrador,CA,47.5844445,-52.8638889,ardac,1.0,True,47.5461,-52.8569
NL580,Holiday Hill,,Newfoundland and Labrador,CA,47.4625,-53.5366667,ardac,8.7,True,47.5556,-53.3808
NL581,Holton,,Newfoundland and Labrador,CA,54.574113,-57.2755588,ardac,0.6,True,54.5353,-57.2626
NL582,Holyrood,,Newfoundland and Labrador,CA,47.3458861,-53.1520305,ardac,8.1,True,47.5395,-53.1887
NL583,Hoop Cove,,Newfoundland and Labrador,CA,47.6255555,-55.1061111,ardac,0.5,True,47.5874,-55.0971
NL584,Hooping Harbour,,Newfoundland and Labrador,CA,50.6163889,-56.2655556,ardac,4.9,True,50.5779,-56.2548
NL585,Hopedale,,Newfoundland and Labrador,CA,55.460711,-60.233242,ardac,1.4,True,55.4222,-60.2168
NL586,Hopewell,,Newfoundland and Labrador,CA,47.4783333,-53.0522223,ardac,1.3,True,47.5706,-52.8952
NL587,Horse Islands,,Newfoundland and Labrador,CA,50.2022222,-55.7327778,ardac,0.5,True,50.1637,-55.7226
NL588,Howards,,Newfoundland and Labrador,CA,48.8,-58.149167,ardac,20.8,True,48.9922,-58.2102
NL589,Howley,,Newfoundland and Labrador,CA,49.1572028,-57.0995333,ardac,46.9,True,49.3974,-57.7222
NL590,Hoylestown,,Newfoundland and Labrador,CA,47.5758333,-52.6888889,ardac,1.9,True,47.5375,-52.682
NL591,Hughes Brook,,Newfoundland and Labrador,CA,48.9996805,-57.87935,ardac,2.8,True,49.0531,-58.0788
NL592,Humber Arm South,,Newfoundland and Labrador,CA,49.01565,-58.1677167,ardac,3.9,True,48.9776,-58.1556
NL593,Humber Canal,,Newfoundland and Labrador,CA,49.1883334,-57.3658334,ardac,35.3,True,49.3351,-57.7775
NL594,Humber Village,,Newfoundland and Labrador,CA,48.9891666,-57.7638888,ardac,9.0,True,49.1341,-58.175
NL595,Hydroville,,Newfoundland and Labrador,CA,49.4699328,-56.1903556,ardac,5.9,True,49.472,-55.8238
NL596,Iggiak,,Newfoundland and Labrador,CA,56.2694445,-61.6855555,ardac,1.5,True,56.2311,-61.6671
NL597,Iglosoataliksoak,,Newfoundland and Labrador,CA,55.266667,-60.365833,ardac,1.1,True,55.3731,-60.195
NL598,Iglosuatiliratsuk,,Newfoundland and Labrador,CA,56.8058453,-61.6805575,ardac,0.5,True,56.9146,-61.5062
NL599,Independent,,Newfoundland and Labrador,CA,53.856985,-56.880481,ardac,5.5,True,53.8182,-56.8682
NL600,Indian Bay,,Newfoundland and Labrador,CA,49.0641139,-53.96235,ardac,9.6,True,48.8926,-54.1058
NL601,Indian Burying Place,,Newfoundland and Labrador,CA,49.8283333,-55.74,ardac,1.9,True,49.6931,-55.5203
NL602,Indian Cove (settlement),,Newfoundland and Labrador,CA,52.2605199,-55.64954,ardac,2.8,True,52.3587,-55.4795
NL603,Indian Harbour,,Newfoundland and Labrador,CA,47.643889,-58.423889,ardac,0.8,True,47.6061,-58.412
NL604,Indian Harbour,,Newfoundland and Labrador,CA,53.7977926,-56.9952078,ardac,1.3,True,53.759,-56.9828
NL605,Indian Harbour,,Newfoundland and Labrador,CA,47.4877777,-54.1955556,ardac,2.4,True,47.4495,-54.1874
NL606,Indian Harbour,,Newfoundland and Labrador,CA,54.4464596,-57.2161651,ardac,0.8,True,54.4077,-57.2033
NL607,Indian Islands,,Newfoundland and Labrador,CA,49.533333,-54.2325,ardac,4.6,True,49.4948,-54.2239
NL608,Indian Pond,,Newfoundland and Labrador,CA,47.4597222,-53.0866667,ardac,1.3,True,47.552,-52.9298
NL609,Indian Tickle,,Newfoundland and Labrador,CA,53.5553959,-56.0020012,ardac,1.6,True,53.5165,-55.9907
NL610,Innismara,,Newfoundland and Labrador,CA,49.1037805,-58.2139444,ardac,3.3,True,49.0657,-58.2018
NL611,Iona,,Newfoundland and Labrador,CA,47.4244444,-53.9730555,ardac,4.9,True,47.3862,-53.9651
NL612,Ireland's Bight,,Newfoundland and Labrador,CA,51.333333,-55.765555,ardac,3.5,True,51.2947,-55.7551
NL613,Ireland's Eye,,Newfoundland and Labrador,CA,48.2172222,-53.4955555,ardac,2.6,True,48.0779,-53.2913
NL614,Irishtown,,Newfoundland and Labrador,CA,48.9838889,-57.9361111,ardac,2.1,True,49.0372,-58.1355
NL615,Irishtown,,Newfoundland and Labrador,CA,47.3216667,-52.8158333,ardac,2.0,True,47.2833,-52.8089
NL616,Irishtown-Summerside,,Newfoundland and Labrador,CA,48.987769,-57.954761,ardac,3.5,True,49.041,-58.1542
NL617,Irvine,,Newfoundland and Labrador,CA,47.5302778,-52.8794444,ardac,3.8,True,47.4919,-52.8724
NL618,Island Cove,,Newfoundland and Labrador,CA,48.0030556,-53.7761111,ardac,0.4,True,47.8645,-53.572
NL619,Island Harbour,,Newfoundland and Labrador,CA,49.616111,-54.311944,ardac,1.0,True,49.5776,-54.3032
NL620,Island Harbour,,Newfoundland and Labrador,CA,53.7529055,-56.7844794,ardac,2.0,True,53.8533,-56.6107
NL621,Isle Valen,,Newfoundland and Labrador,CA,47.4775,-54.3877778,ardac,2.8,True,47.4393,-54.3794
NL622,Isle aux Morts,,Newfoundland and Labrador,CA,47.5974223,-58.965975,ardac,1.3,True,47.42,-59.0844
NL623,Islington,,Newfoundland and Labrador,CA,47.7594444,-53.4786111,ardac,0.6,True,47.7211,-53.471
NL624,Ittilliarsuk,,Newfoundland and Labrador,CA,55.250086,-60.065717,ardac,0.6,True,55.2116,-60.0495
NL625,Ivanhoe,,Newfoundland and Labrador,CA,48.2022222,-53.5147222,ardac,0.5,True,48.063,-53.3105
NL626,Jack Ladder,,Newfoundland and Labrador,CA,49.3255555,-57.5327778,ardac,19.3,True,49.3797,-57.7333
NL627,Jackson's Arm,,Newfoundland and Labrador,CA,49.8652223,-56.8048306,ardac,2.7,True,49.8269,-56.7938
NL628,Jackson's Cove,,Newfoundland and Labrador,CA,49.6852778,-55.9936111,ardac,2.5,True,49.5507,-55.7738
NL629,Jacques Fontaine,,Newfoundland and Labrador,CA,47.5230556,-54.9288889,ardac,1.5,True,47.5822,-55.1177
NL630,Jamestown,,Newfoundland and Labrador,CA,48.4427778,-53.7991667,ardac,0.2,True,48.5366,-53.6402
NL631,Jean de Gaunt Island,,Newfoundland and Labrador,CA,47.5261111,-54.2722223,ardac,3.7,True,47.4879,-54.264
NL632,Jeffrey's,,Newfoundland and Labrador,CA,48.2252778,-58.8430555,ardac,0.3,True,48.2765,-59.04
NL633,Jenkins Cove,,Newfoundland and Labrador,CA,49.6688889,-54.7563889,ardac,8.0,True,49.6304,-54.7473
NL634,Jerrys Nose,,Newfoundland and Labrador,CA,48.5163889,-58.9405556,ardac,0.2,True,48.4785,-58.9279
NL635,Jersey Harbour,,Newfoundland and Labrador,CA,47.4858333,-55.7611111,ardac,0.1,True,47.4477,-55.7516
NL636,Jerseyside,,Newfoundland and Labrador,CA,47.2547222,-53.9613889,ardac,0.7,True,47.2165,-53.9535
NL637,Jim Myles Garden,,Newfoundland and Labrador,CA,47.6769445,-54.7127778,ardac,0.5,True,47.6027,-55.0462
NL638,Jim's Cove,,Newfoundland and Labrador,CA,49.5133334,-55.6175,ardac,4.2,True,49.6106,-55.4587
NL639,Job's Cove,,Newfoundland and Labrador,CA,47.9780555,-53.0136111,ardac,1.3,True,47.9396,-53.0064
NL640,Job's Room,,Newfoundland and Labrador,CA,51.4658333,-56.9486111,ardac,0.8,True,51.4273,-56.937
NL641,Joe Batt's Arm,,Newfoundland and Labrador,CA,49.7269444,-54.1725,ardac,0.7,True,49.6884,-54.1639
NL642,Joe Batt's Arm-Barr'd Islands-Shoal Bay,,Newfoundland and Labrador,CA,49.722625,-54.149056,ardac,0.7,True,49.6841,-54.1405
NL643,John's Beach,,Newfoundland and Labrador,CA,49.0230556,-58.1441667,ardac,2.7,True,48.985,-58.1321
NL644,John's Pond,,Newfoundland and Labrador,CA,47.1472222,-53.6177778,ardac,1.3,True,46.9775,-53.7563
NL645,Jordan Town,,Newfoundland and Labrador,CA,47.589597,-53.203572,ardac,0.5,True,47.5513,-53.1963
NL646,Journois,,Newfoundland and Labrador,CA,48.3561111,-58.6811111,ardac,0.4,True,48.4578,-58.5338
NL647,Joyce,,Newfoundland and Labrador,CA,48.3797222,-58.5922222,ardac,2.8,True,48.3418,-58.5799
NL648,Jumpers Brook,,Newfoundland and Labrador,CA,49.0263889,-55.4005556,ardac,2.7,True,49.3556,-55.3006
NL649,Junction Brook,,Newfoundland and Labrador,CA,49.2147222,-57.3991667,ardac,33.0,True,49.3613,-57.8112
NL650,Juniper Stump,,Newfoundland and Labrador,CA,47.5019444,-53.3033333,ardac,6.9,True,47.4636,-53.296
NL651,Kaipokok,,Newfoundland and Labrador,CA,55.066667,-59.5825,ardac,2.1,True,55.1718,-59.4103
NL652,Kamarsuk,,Newfoundland and Labrador,CA,56.2780555,-61.5930555,ardac,1.0,True,56.2397,-61.5747
NL653,Kauk Bight,,Newfoundland and Labrador,CA,56.5,-61.715833,ardac,0.2,True,56.4617,-61.6973
NL654,Keels,,Newfoundland and Labrador,CA,48.6019445,-53.4074445,ardac,2.4,True,48.5635,-53.3998
NL655,Kelligrews,,Newfoundland and Labrador,CA,47.5061111,-53.0058334,ardac,3.4,True,47.4678,-52.9987
NL656,Kenney's Cove,,Newfoundland and Labrador,CA,51.066666,-55.798889,ardac,0.2,True,51.0281,-55.7884
NL657,Kerleys Harbour,,Newfoundland and Labrador,CA,48.2811111,-53.4697223,ardac,1.0,True,48.1417,-53.2653
NL658,Kettle Cove,,Newfoundland and Labrador,CA,49.5966667,-54.7183333,ardac,3.7,True,49.5582,-54.7093
NL659,Kilbride,,Newfoundland and Labrador,CA,47.5280555,-52.7411111,ardac,4.8,True,47.4897,-52.7342
NL660,King's Cove,,Newfoundland and Labrador,CA,48.5589834,-53.3732611,ardac,4.2,True,48.5205,-53.3656
NL661,King's Point,,Newfoundland and Labrador,CA,49.5807861,-56.208,ardac,2.6,True,49.5829,-55.8404
NL662,Kingman's,,Newfoundland and Labrador,CA,46.9652778,-52.9408333,ardac,3.3,True,46.927,-52.9339
NL663,Kings Cove,,Newfoundland and Labrador,CA,52.575182,-55.7417099,ardac,4.6,True,52.5364,-55.7309
NL664,Kings Cove,,Newfoundland and Labrador,CA,49.7105555,-55.9,ardac,0.6,True,49.5757,-55.6804
NL665,Kingston,,Newfoundland and Labrador,CA,47.8252778,-53.1155556,ardac,2.1,True,47.7869,-53.1083
NL666,Kingwell,,Newfoundland and Labrador,CA,47.5494444,-54.1055556,ardac,1.1,True,47.5112,-54.0975
NL667,Kippens,,Newfoundland and Labrador,CA,48.5585444,-58.6339833,ardac,3.0,True,48.5206,-58.6216
NL668,Kirby's Cove,,Newfoundland and Labrador,CA,47.025,-55.1694445,ardac,0.5,True,47.1206,-55.0187
NL669,Kitchuses,,Newfoundland and Labrador,CA,47.4569444,-53.1838889,ardac,0.6,True,47.5195,-53.3699
NL670,Kitty's Brook,,Newfoundland and Labrador,CA,49.1863889,-56.9019445,ardac,40.3,True,49.749,-56.8806
NL671,Knights Cove,,Newfoundland and Labrador,CA,48.5405556,-53.3222222,ardac,1.3,True,48.5021,-53.3146
NL672,Knob Lake Junction,,Newfoundland and Labrador,CA,54.750108,-66.782601,ardac,336.4,False,56.3317,-61.8911
NL673,Koanclikulluk,,Newfoundland and Labrador,CA,55.3,-60.399167,ardac,0.7,True,55.4065,-60.2283
NL674,L'Anse au Loup,,Newfoundland and Labrador,CA,51.525847,-56.8349304,ardac,1.7,True,51.4873,-56.8234
NL675,L'Anse-Amour,,Newfoundland and Labrador,CA,51.4677778,-56.8713889,ardac,1.2,True,51.4293,-56.8598
NL676,L'Anse-au-Clair,,Newfoundland and Labrador,CA,51.4637361,-57.0670944,ardac,4.0,True,51.4252,-57.0553
NL677,L'Anse-au-Diable,,Newfoundland and Labrador,CA,51.5602778,-56.7561111,ardac,0.4,True,51.4265,-56.5233
NL678,L'Anse-au-Loup,,Newfoundland and Labrador,CA,47.0838889,-55.6730555,ardac,1.6,True,47.0459,-55.6637
NL679,L'Anse--l'Eau,,Newfoundland and Labrador,CA,47.01,-55.2038889,ardac,1.3,True,47.1056,-55.0532
NL680,La Manche,,Newfoundland and Labrador,CA,47.6913889,-53.9391667,ardac,1.3,True,47.6531,-53.9312
NL681,La Manche,,Newfoundland and Labrador,CA,47.1677778,-52.8638889,ardac,1.2,True,47.1295,-52.857
NL682,La Manche Siding,,Newfoundland and Labrador,CA,47.7025,-53.9027778,ardac,4.0,True,47.6642,-53.8948
NL683,LaScie,,Newfoundland and Labrador,CA,49.949236,-55.610031,ardac,2.6,True,50.0466,-55.4495
NL684,Labrador City,,Newfoundland and Labrador,CA,52.9605694,-66.9365973,ardac,298.1,False,50.2295,-66.0066
NL685,Ladle Cove,,Newfoundland and Labrador,CA,49.4688889,-54.055,ardac,0.4,True,49.5302,-54.2514
NL686,Lady Cove,,Newfoundland and Labrador,CA,48.0938889,-53.8438889,ardac,1.5,True,47.8549,-53.4432
NL687,Lake Bond,,Newfoundland and Labrador,CA,49.016667,-56.165833,ardac,45.9,True,49.619,-55.7771
NL688,Lake Siding,,Newfoundland and Labrador,CA,49.1583334,-57.4491667,ardac,29.4,True,49.4436,-57.72
NL689,Lakeview,,Newfoundland and Labrador,CA,47.4202778,-53.1397222,ardac,0.9,True,47.5127,-52.9831
NL690,Lally Cove,,Newfoundland and Labrador,CA,47.6552778,-55.3691667,ardac,0.5,True,47.4827,-55.5023
NL691,Lamaline,,Newfoundland and Labrador,CA,46.906572,-55.768875,ardac,4.4,True,46.8686,-55.7594
NL692,Lancaster,,Newfoundland and Labrador,CA,48.66,-53.0669445,ardac,2.2,True,48.6215,-53.0596
NL693,Lance Cove,,Newfoundland and Labrador,CA,47.4666667,-53.0619444,ardac,1.3,True,47.559,-52.905
NL694,Lance Cove,,Newfoundland and Labrador,CA,48.6641667,-53.0863889,ardac,1.7,True,48.6257,-53.079
NL695,Langdon's Cove,,Newfoundland and Labrador,CA,49.6927778,-55.9772222,ardac,1.3,True,49.5581,-55.7574
NL696,Lark Harbour,,Newfoundland and Labrador,CA,49.1055056,-58.3923611,ardac,1.6,True,49.0675,-58.38
NL697,Lawn,,Newfoundland and Labrador,CA,46.93885,-55.539314,ardac,0.5,True,46.9008,-55.5301
NL698,Lawrence Pond,,Newfoundland and Labrador,CA,47.4652778,-53.0436111,ardac,2.2,True,47.5575,-52.8867
NL699,Lead Cove,,Newfoundland and Labrador,CA,48.045,-53.0919444,ardac,0.7,True,48.0066,-53.0847
NL700,Lead Mines,,Newfoundland and Labrador,CA,47.6877777,-53.9383333,ardac,1.0,True,47.6495,-53.9304
NL701,Leading Tickles,,Newfoundland and Labrador,CA,49.481925,-55.4271583,ardac,1.8,True,49.5788,-55.268
NL702,Leading Tickles East,,Newfoundland and Labrador,CA,49.5,-55.415833,ardac,0.9,True,49.5585,-55.6144
NL703,Leading Tickles South,,Newfoundland and Labrador,CA,49.4961111,-55.4513889,ardac,0.5,True,49.5931,-55.2922
NL704,Lears Cove,,Newfoundland and Labrador,CA,46.8502778,-54.1855556,ardac,1.8,True,46.8121,-54.1775
NL705,Lethbridge,,Newfoundland and Labrador,CA,48.3694445,-53.8611111,ardac,0.4,True,48.4634,-53.7026
NL706,Lewin's Cove,,Newfoundland and Labrador,CA,47.0873,-55.2189528,ardac,2.6,True,47.183,-55.0681
NL707,Lewisporte,,Newfoundland and Labrador,CA,49.2418083,-55.0460194,ardac,1.0,True,49.3011,-55.2428
NL708,Little Barasway,,Newfoundland and Labrador,CA,47.1780555,-54.0416667,ardac,0.2,True,47.1399,-54.0337
NL709,Little Bay,,Newfoundland and Labrador,CA,47.1630555,-55.1044444,ardac,1.1,True,47.1249,-55.0955
NL710,Little Bay,,Newfoundland and Labrador,CA,49.5992389,-55.9518361,ardac,1.5,True,49.4646,-55.7326
NL711,Little Bay,,Newfoundland and Labrador,CA,47.61664,-56.03251,ardac,0.7,True,47.5786,-56.0227
NL712,Little Bay East,,Newfoundland and Labrador,CA,47.555833,-54.863889,ardac,0.9,True,47.6151,-55.0527
NL713,Little Bay Islands,,Newfoundland and Labrador,CA,49.6443361,-55.7974221,ardac,5.1,True,49.6059,-55.7873
NL714,Little Bay West,,Newfoundland and Labrador,CA,47.5022222,-55.7191667,ardac,0.7,True,47.4641,-55.7096
NL715,Little Bona,,Newfoundland and Labrador,CA,47.3683334,-54.5663889,ardac,1.4,True,47.3301,-54.5579
NL716,Little Brehat,,Newfoundland and Labrador,CA,51.4513889,-55.4802778,ardac,1.4,True,51.4127,-55.47
NL717,Little Brule,,Newfoundland and Labrador,CA,47.6675,-54.1302778,ardac,0.4,True,47.6292,-54.1221
NL718,Little Burnt Bay,,Newfoundland and Labrador,CA,49.3397167,-55.0820056,ardac,0.8,True,49.3989,-55.2793
NL719,Little Catalina,,Newfoundland and Labrador,CA,48.549469,-53.056886,ardac,2.6,True,48.511,-53.0495
NL720,Little Harbour,,Newfoundland and Labrador,CA,49.1147183,-57.5127225,ardac,25.8,True,49.3998,-57.7837
NL721,Little Harbour,,Newfoundland and Labrador,CA,49.6277778,-54.7111111,ardac,4.1,True,49.5893,-54.702
NL722,Little Harbour,,Newfoundland and Labrador,CA,49.590743,-54.842247,ardac,0.7,True,49.5523,-54.8331
NL723,Little Harbour Deep,,Newfoundland and Labrador,CA,50.2494444,-56.5541667,ardac,3.4,True,50.211,-56.5432
NL724,Little Harbour East,,Newfoundland and Labrador,CA,47.5961111,-54.86,ardac,1.1,True,47.6554,-55.049
NL725,Little Harbour West,,Newfoundland and Labrador,CA,47.383333,-54.799167,ardac,1.2,True,47.2473,-54.5947
NL726,Little Heart's Ease,,Newfoundland and Labrador,CA,48.0086111,-53.6994444,ardac,1.7,True,47.8698,-53.4955
NL727,Little Island Cove,,Newfoundland and Labrador,CA,47.4277778,-53.5505556,ardac,12.5,True,47.5209,-53.3948
NL728,Little Paradise,,Newfoundland and Labrador,CA,47.3602778,-54.5783333,ardac,0.1,True,47.3221,-54.5699
NL729,Little Port,,Newfoundland and Labrador,CA,49.106944,-58.418611,ardac,1.0,True,49.0689,-58.4063
NL730,Little Pumbly Cove,,Newfoundland and Labrador,CA,49.7233333,-56.6961111,ardac,4.2,True,49.7793,-56.8975
NL731,Little Quirpon,,Newfoundland and Labrador,CA,51.5772222,-55.4427778,ardac,1.5,True,51.5385,-55.4325
NL732,Little Salmonier,,Newfoundland and Labrador,CA,47.0691666,-55.1761111,ardac,0.4,True,47.1648,-55.0252
NL733,Little Seldom,,Newfoundland and Labrador,CA,49.5991667,-54.2033333,ardac,0.5,True,49.5606,-54.1947
NL734,Livingston,,Newfoundland and Labrador,CA,53.933417,-66.449282,ardac,357.9,False,56.3422,-61.8371
NL735,Lobster Cove,,Newfoundland and Labrador,CA,49.6125,-57.9525,ardac,0.6,True,49.5743,-57.9404
NL736,Lobster Harbour,,Newfoundland and Labrador,CA,49.6038889,-54.6836111,ardac,1.9,True,49.5654,-54.6746
NL737,Loch Leven,,Newfoundland and Labrador,CA,48.1683334,-58.8638889,ardac,4.9,True,48.3596,-58.9273
NL738,Lock's Cove,,Newfoundland and Labrador,CA,51.3377778,-55.9555555,ardac,1.2,True,51.4362,-55.7902
NL739,Locks Cove,,Newfoundland and Labrador,CA,47.6416666,-56.5091666,ardac,2.2,True,47.6036,-56.4989
NL740,Locks Harbour,,Newfoundland and Labrador,CA,49.450607,-55.510384,ardac,0.8,True,49.5476,-55.3515
NL741,Lockston,,Newfoundland and Labrador,CA,48.3963889,-53.3755555,ardac,1.8,True,48.4895,-53.2159
NL742,Lodges,,Newfoundland and Labrador,CA,47.5575,-53.6286111,ardac,0.3,True,47.6192,-53.8157
NL743,Logy Bay,,Newfoundland and Labrador,CA,47.63,-52.6783333,ardac,3.0,True,47.5916,-52.6715
NL744,Logy Bay-Middle Cove-Outer Cove,,Newfoundland and Labrador,CA,47.6366889,-52.6870083,ardac,2.7,True,47.5983,-52.6802
NL745,Lomond,,Newfoundland and Labrador,CA,49.4605555,-57.7613889,ardac,0.6,True,49.4224,-57.7495
NL746,Lonesome Cove,,Newfoundland and Labrador,CA,51.400043,-56.549031,ardac,4.1,True,51.3615,-56.5378
NL747,Long Beach,,Newfoundland and Labrador,CA,48.4375,-53.5766667,ardac,1.8,True,48.531,-53.4173
NL748,Long Beach,,Newfoundland and Labrador,CA,46.6425,-53.1352778,ardac,1.6,True,46.6043,-53.1282
NL749,Long Beach,,Newfoundland and Labrador,CA,47.9486111,-53.0544445,ardac,1.4,True,47.9102,-53.0472
NL750,Long Beach,,Newfoundland and Labrador,CA,47.9963889,-53.8163889,ardac,1.4,True,47.8579,-53.6122
NL751,Long Cove,,Newfoundland and Labrador,CA,47.0591667,-55.1719445,ardac,0.1,True,47.1548,-55.0211
NL752,Long Cove,,Newfoundland and Labrador,CA,47.5688889,-53.6716667,ardac,0.9,True,47.6305,-53.8589
NL753,Long Grade,,Newfoundland and Labrador,CA,47.6116667,-59.2011111,ardac,3.8,True,47.6621,-59.3957
NL754,Long Harbour,,Newfoundland and Labrador,CA,47.4333333,-53.8152778,ardac,0.6,True,47.3951,-53.8075
NL755,Long Harbour Station,,Newfoundland and Labrador,CA,47.4655556,-53.7319445,ardac,7.0,True,47.527,-53.9188
NL756,Long Harbour-Mount Arlington Heights,,Newfoundland and Labrador,CA,47.4430945,-53.782475,ardac,2.4,True,47.4048,-53.7747
NL757,Long Point,,Newfoundland and Labrador,CA,48.7661111,-58.7894445,ardac,0.7,True,48.7282,-58.7769
NL758,Long Pond,,Newfoundland and Labrador,CA,47.5158333,-52.9705555,ardac,1.2,True,47.4775,-52.9635
NL759,Loran,,Newfoundland and Labrador,CA,52.2480093,-55.6107508,ardac,3.1,True,52.3461,-55.4407
NL760,Lord's Cove,,Newfoundland and Labrador,CA,46.8984417,-55.6587028,ardac,3.5,True,46.8604,-55.6494
NL761,Loreburn,,Newfoundland and Labrador,CA,48.0466667,-53.7144444,ardac,1.0,True,47.9079,-53.5103
NL762,Loretto,,Newfoundland and Labrador,CA,48.502453,-59.150035,ardac,5.5,True,48.4646,-59.1372
NL763,Lories,,Newfoundland and Labrador,CA,46.9011112,-55.9394444,ardac,0.9,True,46.8631,-55.9299
NL764,Lourdes,,Newfoundland and Labrador,CA,48.647823,-59.001605,ardac,3.6,True,48.6099,-58.9889
NL765,Low Point,,Newfoundland and Labrador,CA,48.0597222,-52.9580555,ardac,1.1,True,48.0213,-52.9509
NL766,Lower Coast,,Newfoundland and Labrador,CA,46.7236111,-53.3802778,ardac,0.7,True,46.7856,-53.5635
NL767,Lower Cove,,Newfoundland and Labrador,CA,48.5236112,-59.0038889,ardac,2.2,True,48.4857,-58.9912
NL768,Lower Island Cove,,Newfoundland and Labrador,CA,48.0025,-52.98,ardac,1.0,True,47.9641,-52.9728
NL769,Lucyville,,Newfoundland and Labrador,CA,54.7713889,-58.4352778,ardac,0.7,True,54.8747,-58.2612
NL770,Luke's Arm,,Newfoundland and Labrador,CA,49.5097222,-54.8569444,ardac,0.7,True,49.4712,-54.8478
NL771,Lumsden,,Newfoundland and Labrador,CA,49.2867583,-53.5925417,ardac,2.5,True,49.2482,-53.5846
NL772,Lumsden South,,Newfoundland and Labrador,CA,49.3,-53.582222,ardac,0.9,True,49.2614,-53.5743
NL773,Lushes Bight,,Newfoundland and Labrador,CA,49.5930556,-55.7138889,ardac,0.9,True,49.5547,-55.7039
NL774,Lushes Bight - Beaumont - Beaumont North,,Newfoundland and Labrador,CA,49.612445,-55.699182,ardac,1.1,True,49.574,-55.6892
NL775,Maberly,,Newfoundland and Labrador,CA,48.6197222,-53.015,ardac,1.1,True,48.5812,-53.0077
NL776,Maccles,,Newfoundland and Labrador,CA,48.644136,-54.130291,ardac,13.4,True,48.6385,-53.771
NL777,Maddox Cove,,Newfoundland and Labrador,CA,47.4736111,-52.7013889,ardac,1.3,True,47.4353,-52.6946
NL778,Mahers,,Newfoundland and Labrador,CA,47.3972223,-53.3616667,ardac,13.4,True,47.5908,-53.3993
NL779,Maidstone,,Newfoundland and Labrador,CA,48.2005556,-58.875,ardac,2.2,True,48.2517,-59.0719
NL780,Main Brook,,Newfoundland and Labrador,CA,51.1652528,-55.9875694,ardac,0.6,True,51.03,-55.7597
NL781,Main Point,,Newfoundland and Labrador,CA,49.3372222,-54.4297222,ardac,1.8,True,49.4324,-54.2688
NL782,Makkovik,,Newfoundland and Labrador,CA,55.047394,-59.202842,ardac,2.1,True,55.0088,-59.1876
NL783,Mall Bay,,Newfoundland and Labrador,CA,46.9766666,-53.5872222,ardac,1.0,True,46.8071,-53.7253
NL784,Man of War Cove,,Newfoundland and Labrador,CA,48.5286111,-58.8111111,ardac,2.0,True,48.4907,-58.7986
NL785,Manuels,,Newfoundland and Labrador,CA,47.5230556,-52.9536111,ardac,1.4,True,47.4847,-52.9465
NL786,Manuels Cove,,Newfoundland and Labrador,CA,49.6122222,-54.7347222,ardac,3.8,True,49.5737,-54.7256
NL787,Maple Valley Industrial Park,,Newfoundland and Labrador,CA,48.95,-57.9169444,ardac,1.4,True,49.0033,-58.1162
NL788,Marble Mountain Ski Area,,Newfoundland and Labrador,CA,48.945,-57.8286111,ardac,5.1,True,48.9985,-58.0277
NL789,Marches Point,,Newfoundland and Labrador,CA,48.4972222,-59.135,ardac,4.6,True,48.4594,-59.1222
NL790,Margaree,,Newfoundland and Labrador,CA,47.5733333,-59.0561111,ardac,1.8,True,47.3959,-59.1741
NL791,Marquise,,Newfoundland and Labrador,CA,47.2844444,-53.9966667,ardac,0.4,True,47.2462,-53.9887
NL792,Mary March,,Newfoundland and Labrador,CA,49.0,-56.549167,ardac,56.6,True,49.7942,-56.5886
NL793,Mary's Harbour,,Newfoundland and Labrador,CA,52.3152777,-55.8336001,ardac,0.6,True,52.4137,-55.6638
NL794,Marystown,,Newfoundland and Labrador,CA,47.154975,-55.1644334,ardac,2.7,True,47.2135,-55.3519
NL795,Marystown South,,Newfoundland and Labrador,CA,47.1564,-55.1617,ardac,2.5,True,47.2149,-55.3492
NL796,Masons Cove,,Newfoundland and Labrador,CA,49.3122223,-55.0361111,ardac,1.4,True,49.3715,-55.2332
NL797,Massey Drive,,Newfoundland and Labrador,CA,48.9363861,-57.8927417,ardac,3.5,True,48.9897,-58.0919
NL798,McAndrew,,Newfoundland and Labrador,CA,47.2844444,-53.9791667,ardac,1.6,True,47.2462,-53.9712
NL799,McIver's,,Newfoundland and Labrador,CA,49.0608417,-58.1094667,ardac,1.9,True,49.0228,-58.0974
NL800,McKay's,,Newfoundland and Labrador,CA,48.2311111,-58.8202778,ardac,1.6,True,48.1933,-58.8078
NL801,Meadows,,Newfoundland and Labrador,CA,48.996536,-58.045158,ardac,0.1,True,49.0496,-58.2448
NL802,Melrose,,Newfoundland and Labrador,CA,48.4805556,-53.0727778,ardac,1.9,True,48.4421,-53.0654
NL803,Menihek,,Newfoundland and Labrador,CA,54.4744445,-66.6161111,ardac,344.8,False,56.2804,-61.8679
NL804,Merasheen,,Newfoundland and Labrador,CA,47.4138889,-54.3455555,ardac,1.0,True,47.3757,-54.3373
NL805,Mercer's Cove,,Newfoundland and Labrador,CA,47.2608334,-55.8697222,ardac,0.8,True,47.2228,-55.8601
NL806,Mercer's Cove,,Newfoundland and Labrador,CA,47.6036111,-53.2344444,ardac,0.7,True,47.5653,-53.2271
NL807,Michael's Harbour,,Newfoundland and Labrador,CA,49.2902778,-54.9841667,ardac,0.9,True,49.3864,-54.8247
NL808,Middle Amherst Cove,,Newfoundland and Labrador,CA,48.5644444,-53.2205555,ardac,0.5,True,48.526,-53.2131
NL809,Middle Arm,,Newfoundland and Labrador,CA,49.7030277,-56.1148445,ardac,3.3,True,49.9375,-55.8075
NL810,Middle Arm,,Newfoundland and Labrador,CA,49.8569445,-56.4397222,ardac,1.6,True,49.9135,-56.6414
NL811,Middle Arm,,Newfoundland and Labrador,CA,47.4358333,-53.2008333,ardac,0.4,True,47.4984,-53.3868
NL812,Middle Brook,,Newfoundland and Labrador,CA,48.8022223,-54.2086111,ardac,1.8,True,48.8969,-54.0492
NL813,Middle Cove,,Newfoundland and Labrador,CA,47.6477778,-52.6958334,ardac,1.4,True,47.6094,-52.689
NL814,Middle Gut,,Newfoundland and Labrador,CA,46.7852778,-53.6247223,ardac,1.4,True,46.7471,-53.6172
NL815,Middle House,,Newfoundland and Labrador,CA,54.1925596,-58.5913496,ardac,2.2,True,54.7639,-58.5933
NL816,Miles Cove,,Newfoundland and Labrador,CA,49.5401528,-55.7958777,ardac,2.8,True,49.5018,-55.7858
NL817,Miller's Passage,,Newfoundland and Labrador,CA,47.5180555,-55.6563889,ardac,1.0,True,47.4799,-55.6469
NL818,Millertown,,Newfoundland and Labrador,CA,48.8119444,-56.5430555,ardac,74.9,True,49.5916,-55.6574
NL819,Millertown Junction,,Newfoundland and Labrador,CA,49.0086111,-56.3419444,ardac,49.2,True,49.5154,-55.7466
NL820,Mills Siding,,Newfoundland and Labrador,CA,48.1952778,-53.9663889,ardac,1.8,True,47.9567,-53.5641
NL821,Milltown,,Newfoundland and Labrador,CA,47.9075,-55.760278,ardac,0.6,True,47.5989,-56.0338
NL822,Milltown-Head of Bay d'Espoir,,Newfoundland and Labrador,CA,47.925892,-55.744281,ardac,0.4,True,47.6173,-56.018
NL823,Millville,,Newfoundland and Labrador,CA,47.8513889,-59.3430556,ardac,1.8,True,47.8137,-59.3303
NL824,Milton,,Newfoundland and Labrador,CA,48.2161111,-53.9630556,ardac,2.1,True,48.5427,-53.8539
NL825,Ming's Bight,,Newfoundland and Labrador,CA,49.9747833,-56.0409167,ardac,0.7,True,50.0729,-55.8813
NL826,Mistaken Cove,,Newfoundland and Labrador,CA,51.3155555,-56.7161111,ardac,0.5,True,51.277,-56.7047
NL827,Mitchells Brook,,Newfoundland and Labrador,CA,47.13,-53.5111111,ardac,0.7,True,46.9605,-53.65
NL828,Molliers,,Newfoundland and Labrador,CA,47.1038889,-55.6511111,ardac,0.3,True,47.0658,-55.6417
NL829,Monchy,,Newfoundland and Labrador,CA,48.9711111,-54.7913889,ardac,33.3,True,49.398,-54.8925
NL830,Monkstown,,Newfoundland and Labrador,CA,47.5766666,-54.4327778,ardac,1.9,True,47.4397,-54.2286
NL831,Monroe,,Newfoundland and Labrador,CA,48.2002778,-53.7988889,ardac,0.4,True,48.5267,-53.6885
NL832,Moore's Cove,,Newfoundland and Labrador,CA,49.5011111,-55.3077778,ardac,3.1,True,49.4627,-55.2982
NL833,Moores Harbour,,Newfoundland and Labrador,CA,57.5343291,-61.7606947,ardac,0.9,True,57.4959,-61.7415
NL834,Mooring Cove,,Newfoundland and Labrador,CA,47.1888889,-55.14,ardac,1.4,True,47.2475,-55.3276
NL835,Morleys Siding,,Newfoundland and Labrador,CA,48.3172222,-53.9075,ardac,6.8,True,48.5434,-53.5982
NL836,Morrisville,,Newfoundland and Labrador,CA,47.882844,-55.767158,ardac,1.6,True,47.5742,-56.0405
NL837,Mortier,,Newfoundland and Labrador,CA,47.0886111,-55.1241667,ardac,1.8,True,47.1842,-54.9731
NL838,Mose Ambrose,,Newfoundland and Labrador,CA,47.4658333,-55.5141667,ardac,0.5,True,47.4277,-55.5048
NL839,Mosquito,,Newfoundland and Labrador,CA,46.9861111,-53.6877778,ardac,3.4,True,46.9479,-53.6801
NL840,Mount Arlington Heights,,Newfoundland and Labrador,CA,47.4280556,-53.8547222,ardac,1.3,True,47.3898,-53.8469
NL841,Mount Carmel,,Newfoundland and Labrador,CA,47.1530556,-53.4752778,ardac,2.6,True,47.3148,-53.8539
NL842,Mount Carmel-Mitchells Brook-St. Catherine's,,Newfoundland and Labrador,CA,47.186478,-53.422992,ardac,7.6,True,47.3484,-53.8017
NL843,Mount Cashel,,Newfoundland and Labrador,CA,47.5888889,-52.7111111,ardac,3.5,True,47.5505,-52.7042
NL844,Mount Moriah,,Newfoundland and Labrador,CA,48.9583917,-58.0708694,ardac,2.3,True,49.0114,-58.2703
NL845,Mount Pearl,,Newfoundland and Labrador,CA,47.5195306,-52.8118056,ardac,8.4,True,47.4812,-52.8049
NL846,Mouse Island,,Newfoundland and Labrador,CA,47.5666667,-59.1597222,ardac,0.4,True,47.529,-59.1472
NL847,Mud Lake,,Newfoundland and Labrador,CA,53.3055556,-60.1669444,ardac,0.2,True,54.8416,-58.4699
NL848,Muddy Bay,,Newfoundland and Labrador,CA,53.6530555,-57.0555556,ardac,0.5,True,53.6143,-57.0431
NL849,Muddy Hole,,Newfoundland and Labrador,CA,47.618914,-56.352269,ardac,1.3,True,47.5809,-56.3422
NL850,Murphys Cove,,Newfoundland and Labrador,CA,47.445,-54.4761111,ardac,0.3,True,47.4068,-54.4677
NL851,Musgrave Harbour,,Newfoundland and Labrador,CA,49.4167028,-53.9644222,ardac,3.7,True,49.4782,-54.1605
NL852,Musgravetown,,Newfoundland and Labrador,CA,48.4140306,-53.8921305,ardac,1.2,True,48.508,-53.7335
NL853,Nain,,Newfoundland and Labrador,CA,56.536319,-61.718942,ardac,2.6,True,56.498,-61.7003
NL854,Neddy Harbour,,Newfoundland and Labrador,CA,49.5275,-57.8688889,ardac,0.2,True,49.4893,-57.8569
NL855,New Bonaventure,,Newfoundland and Labrador,CA,48.2841667,-53.4430556,ardac,0.3,True,48.1447,-53.2387
NL856,New Bridge,,Newfoundland and Labrador,CA,47.1361111,-53.4763889,ardac,1.7,True,47.2978,-53.8549
NL857,New Burnt Cove,,Newfoundland and Labrador,CA,48.1725,-53.7197222,ardac,2.1,True,48.0337,-53.515
NL858,New Chelsea,,Newfoundland and Labrador,CA,48.0244444,-53.2183333,ardac,0.8,True,47.986,-53.2109
NL859,New Country Siding,,Newfoundland and Labrador,CA,48.3472222,-53.7372222,ardac,8.0,True,48.5414,-53.7775
NL860,New Ferolle,,Newfoundland and Labrador,CA,51.0183333,-57.0588889,ardac,0.4,True,50.9799,-57.0473
NL861,New Harbour,,Newfoundland and Labrador,CA,47.6036111,-54.9680556,ardac,0.4,True,47.6627,-55.1572
NL862,New Harbour,,Newfoundland and Labrador,CA,47.5994445,-56.6533334,ardac,0.3,True,47.5614,-56.643
NL863,New Melbourne,,Newfoundland and Labrador,CA,48.0452778,-53.1552778,ardac,1.9,True,48.0069,-53.1479
NL864,New Perlican,,Newfoundland and Labrador,CA,47.9069389,-53.3271,ardac,2.0,True,47.9998,-53.1691
NL865,New-Wes-Valley,,Newfoundland and Labrador,CA,49.1531389,-53.6266722,ardac,2.4,True,49.247,-53.4646
NL866,Newport,,Newfoundland and Labrador,CA,49.0441666,-53.6425,ardac,2.5,True,49.0056,-53.6345
NL867,Newton,,Newfoundland and Labrador,CA,47.6597223,-52.7169445,ardac,0.7,True,47.6213,-52.7101
NL868,Newtown,,Newfoundland and Labrador,CA,49.2052778,-53.5219444,ardac,1.3,True,49.2989,-53.3595
NL869,Newtown,,Newfoundland and Labrador,CA,47.3641666,-53.1794445,ardac,7.0,True,47.5578,-53.2163
NL870,Nicholsville,,Newfoundland and Labrador,CA,49.190556,-57.454167,ardac,28.9,True,49.4758,-57.7252
NL871,Nickey's Nose Cove,,Newfoundland and Labrador,CA,49.6921356,-55.970928,ardac,1.1,True,49.5575,-55.7512
NL872,Nippers Harbour,,Newfoundland and Labrador,CA,49.7933334,-55.8702778,ardac,4.6,True,49.6584,-55.6503
NL873,Noels Pond,,Newfoundland and Labrador,CA,48.5636111,-58.5141667,ardac,5.3,True,48.5257,-58.5019
NL874,Norman's Cove,,Newfoundland and Labrador,CA,47.56,-53.6658333,ardac,1.2,True,47.6216,-53.853
NL875,Norman's Cove-Long Cove,,Newfoundland and Labrador,CA,47.5459305,-53.6899055,ardac,2.6,True,47.6075,-53.877
NL876,Normans Bay,,Newfoundland and Labrador,CA,52.937622,-55.909179,ardac,1.5,True,52.8988,-55.8981
NL877,Norris Arm,,Newfoundland and Labrador,CA,49.0773444,-55.2379028,ardac,1.5,True,49.2714,-55.2859
NL878,Norris Point,,Newfoundland and Labrador,CA,49.5186111,-57.8725,ardac,1.0,True,49.4805,-57.8605
NL879,Norris Point,,Newfoundland and Labrador,CA,49.5194444,-57.8725,ardac,0.9,True,49.4813,-57.8605
NL880,North Bay,,Newfoundland and Labrador,CA,47.8041667,-58.3258333,ardac,6.1,True,47.7663,-58.3139
NL881,North Boat Harbour,,Newfoundland and Labrador,CA,51.5902778,-55.9877778,ardac,1.9,True,51.5516,-55.977
NL882,North Cove,,Newfoundland and Labrador,CA,53.783333,-56.482222,ardac,0.7,True,53.7445,-56.4703
NL883,North East Croque,,Newfoundland and Labrador,CA,51.055836,-55.802803,ardac,0.5,True,51.0172,-55.7924
NL884,North Harbour,,Newfoundland and Labrador,CA,47.1502778,-53.665,ardac,1.2,True,47.2118,-53.8504
NL885,North Harbour South,,Newfoundland and Labrador,CA,47.1502778,-53.6511111,ardac,0.4,True,46.9805,-53.7895
NL886,North Pond Heights,,Newfoundland and Labrador,CA,47.6527778,-52.7327778,ardac,2.1,True,47.6144,-52.7259
NL887,North River,,Newfoundland and Labrador,CA,47.54345,-53.3130305,ardac,4.4,True,47.5051,-53.3056
NL888,North River,,Newfoundland and Labrador,CA,53.8190197,-57.1036152,ardac,0.5,True,53.7803,-57.0911
NL889,North Samson Island,,Newfoundland and Labrador,CA,49.5,-54.949167,ardac,5.3,True,49.4615,-54.9399
NL890,North Shore,,Newfoundland and Labrador,CA,48.6897222,-54.0244444,ardac,5.5,True,48.7841,-53.8651
NL891,North Side,,Newfoundland and Labrador,CA,46.9611111,-52.9319445,ardac,2.6,True,46.9229,-52.925
NL892,North Valley,,Newfoundland and Labrador,CA,47.5488889,-53.3030556,ardac,3.5,True,47.5106,-53.2957
NL893,North West Arm,,Newfoundland and Labrador,CA,47.5855556,-53.2822222,ardac,2.3,True,47.5472,-53.2748
NL894,North West Arm,,Newfoundland and Labrador,CA,49.1338889,-53.6241667,ardac,1.0,True,49.2277,-53.4622
NL895,North West Brook - Ivany's Cove,,Newfoundland and Labrador,CA,48.03,-53.957222,ardac,2.5,True,47.7915,-53.5565
NL896,North West River,,Newfoundland and Labrador,CA,53.53545,-60.1440055,ardac,0.0,True,54.7871,-58.7539
NL897,Northeast Arm Harbour Deep,,Newfoundland and Labrador,CA,50.4008333,-56.4911111,ardac,1.3,True,50.3624,-56.4802
NL898,Northeast Crouse,,Newfoundland and Labrador,CA,50.9277778,-55.8516667,ardac,1.1,True,50.8892,-55.8412
NL899,Northeast Harbour Buffett,,Newfoundland and Labrador,CA,47.5363889,-54.0713889,ardac,0.6,True,47.4981,-54.0633
NL900,Northern,,Newfoundland and Labrador,CA,49.1836111,-57.3388889,ardac,37.3,True,49.3305,-57.7504
NL901,Northern Arm,,Newfoundland and Labrador,CA,49.1861222,-55.3862583,ardac,2.2,True,49.3802,-55.435
NL902,Northern Bay,,Newfoundland and Labrador,CA,47.9444444,-53.0655555,ardac,1.6,True,47.906,-53.0583
NL903,Northern Bight,,Newfoundland and Labrador,CA,48.0152778,-54.0008333,ardac,6.1,True,47.777,-53.6
NL904,Northside,,Newfoundland and Labrador,CA,47.6061111,-53.9333334,ardac,0.8,True,47.5678,-53.9254
NL905,Notre Dame Junction,,Newfoundland and Labrador,CA,49.1263889,-55.0847222,ardac,7.3,True,49.4554,-54.9821
NL906,Nuggetville,,Newfoundland and Labrador,CA,47.3372222,-53.5572222,ardac,14.9,True,47.399,-53.7433
NL907,Nutak,,Newfoundland and Labrador,CA,57.4817577,-61.8308122,ardac,1.3,True,57.4434,-61.8116
NL908,O'Brien,,Newfoundland and Labrador,CA,49.0497223,-54.9933333,ardac,16.2,True,49.3785,-54.8901
NL909,O'Regan's,,Newfoundland and Labrador,CA,47.8594445,-59.2297222,ardac,9.0,True,47.9098,-59.4255
NL910,Ocean Pond,,Newfoundland and Labrador,CA,47.4233333,-53.4236111,ardac,16.3,True,47.5162,-53.2676
NL911,Ochre Pit Cove,,Newfoundland and Labrador,CA,47.9094445,-53.0702778,ardac,0.8,True,47.871,-53.063
NL912,Oderin,,Newfoundland and Labrador,CA,47.2930556,-54.7994445,ardac,1.6,True,47.2549,-54.7908
NL913,Okak,,Newfoundland and Labrador,CA,57.5643338,-61.9830346,ardac,1.3,True,57.526,-61.9636
NL914,Old Bonaventure,,Newfoundland and Labrador,CA,48.2875,-53.4291667,ardac,1.2,True,48.148,-53.2248
NL915,Old Mill,,Newfoundland and Labrador,CA,47.76228,-57.2920099,ardac,13.7,True,47.587,-57.4177
NL916,Old Perlican,,Newfoundland and Labrador,CA,48.0871306,-52.9944472,ardac,2.2,True,48.0487,-52.9872
NL917,Open Hall,,Newfoundland and Labrador,CA,48.5483333,-53.4819444,ardac,1.7,True,48.6417,-53.3219
NL918,Opocopa,,Newfoundland and Labrador,CA,53.0417435,-66.6118348,ardac,305.3,False,50.2311,-66.0509
NL919,Oreway,,Newfoundland and Labrador,CA,52.5666667,-65.8827778,ardac,250.8,False,50.1289,-65.9576
NL920,Osmond,,Newfoundland and Labrador,CA,47.6238889,-59.2611111,ardac,1.8,True,47.5862,-59.2484
NL921,Otter's Point,,Newfoundland and Labrador,CA,47.6830639,-58.0171014,ardac,0.5,True,47.6452,-58.0055
NL922,Otterbury,,Newfoundland and Labrador,CA,47.6786111,-53.2502777,ardac,5.2,True,47.7713,-53.093
NL923,Otterbury,,Newfoundland and Labrador,CA,47.5788889,-52.8961111,ardac,0.9,True,47.5405,-52.8891
NL924,Otterbury,,Newfoundland and Labrador,CA,47.5558333,-53.2730556,ardac,1.1,True,47.5175,-53.2657
NL925,Our Harbour,,Newfoundland and Labrador,CA,47.6102777,-57.6094444,ardac,1.7,True,47.5724,-57.5982
NL926,Outer Cove,,Newfoundland and Labrador,CA,47.6466667,-52.6805556,ardac,1.8,True,47.6083,-52.6737
NL927,Packs Harbour,,Newfoundland and Labrador,CA,53.8563597,-56.9843693,ardac,5.0,True,53.8176,-56.9719
NL928,Pacquet,,Newfoundland and Labrador,CA,49.992475,-55.8973083,ardac,3.4,True,49.954,-55.887
NL929,Paddock's Bight,,Newfoundland and Labrador,CA,49.5661111,-55.78,ardac,3.8,True,49.5277,-55.7699
NL930,Paradise,,Newfoundland and Labrador,CA,55.514159,-60.079965,ardac,8.0,True,55.4756,-60.0636
NL931,Paradise,,Newfoundland and Labrador,CA,47.5346416,-52.8839778,ardac,3.2,True,47.4963,-52.877
NL932,Paradise,,Newfoundland and Labrador,CA,49.665801,-54.782202,ardac,7.3,True,49.6273,-54.7731
NL933,Paradise Point,,Newfoundland and Labrador,CA,53.4377778,-57.2991666,ardac,0.3,True,53.5389,-57.1282
NL934,Paradise River,,Newfoundland and Labrador,CA,53.4405556,-57.2730556,ardac,0.5,True,53.5417,-57.102
NL935,Pardy Island,,Newfoundland and Labrador,CA,47.0402778,-55.1444444,ardac,0.3,True,47.1358,-54.9936
NL936,Parkers Cove,,Newfoundland and Labrador,CA,47.3984917,-54.8605778,ardac,1.4,True,47.3603,-54.8518
NL937,Parkview,,Newfoundland and Labrador,CA,49.5244444,-54.7563889,ardac,1.4,True,49.486,-54.7473
NL938,Parson's Pond,,Newfoundland and Labrador,CA,50.0369278,-57.6969917,ardac,0.7,True,49.9987,-57.685
NL939,Parsons Harbour,,Newfoundland and Labrador,CA,47.5997222,-56.6533334,ardac,0.3,True,47.5617,-56.643
NL940,Parsons Point,,Newfoundland and Labrador,CA,49.0422222,-53.8738889,ardac,2.7,True,48.9033,-53.6644
NL941,Pasadena,,Newfoundland and Labrador,CA,49.0119334,-57.5684833,ardac,23.5,True,49.1577,-57.9791
NL942,Pass Island,,Newfoundland and Labrador,CA,47.4897223,-56.1952778,ardac,2.5,True,47.4517,-56.1854
NL943,Pateyville,,Newfoundland and Labrador,CA,51.3566667,-55.5722223,ardac,0.5,True,51.318,-55.5619
NL944,Path End,,Newfoundland and Labrador,CA,46.8955555,-53.5505556,ardac,1.2,True,46.8574,-53.5431
NL945,Path End,,Newfoundland and Labrador,CA,47.8561111,-53.9422222,ardac,1.1,True,47.7179,-53.7383
NL946,Path End,,Newfoundland and Labrador,CA,46.8441667,-52.9477778,ardac,1.1,True,46.8059,-52.9408
NL947,Path End,,Newfoundland and Labrador,CA,47.0472222,-55.1708334,ardac,1.3,True,47.1428,-55.02
NL948,Patrick's Cove,,Newfoundland and Labrador,CA,47.0361111,-54.1130555,ardac,0.8,True,46.9979,-54.105
NL949,Patricks Harbour,,Newfoundland and Labrador,CA,47.680211,-56.008557,ardac,3.0,True,47.6421,-55.9987
NL950,Pays Cove,,Newfoundland and Labrador,CA,47.666666,-54.8325,ardac,2.5,True,47.592,-55.1656
NL951,Peaches Cove,,Newfoundland and Labrador,CA,47.6755556,-54.0811111,ardac,0.7,True,47.6373,-54.073
NL952,Peachytown,,Newfoundland and Labrador,CA,47.5013889,-52.9963889,ardac,3.4,True,47.463,-52.9893
NL953,Penetanguishene,,Newfoundland and Labrador,CA,47.6052778,-52.7516667,ardac,6.9,True,47.5669,-52.7448
NL954,Penguin Arm,,Newfoundland and Labrador,CA,49.165659,-57.987817,ardac,1.4,True,49.1276,-57.9758
NL955,Pentons Heights,,Newfoundland and Labrador,CA,49.717778,-54.134722,ardac,1.7,True,49.6792,-54.1262
NL956,Perry's Cove,,Newfoundland and Labrador,CA,47.8,-53.149167,ardac,1.1,True,47.7616,-53.1419
NL957,Peter's River,,Newfoundland and Labrador,CA,46.7625,-53.6066666,ardac,0.4,True,46.7243,-53.5991
NL958,Peterview,,Newfoundland and Labrador,CA,49.1074583,-55.3388167,ardac,1.7,True,49.3015,-55.3873
NL959,Petit Jardin,,Newfoundland and Labrador,CA,48.4708333,-59.2316666,ardac,0.4,True,48.433,-59.2188
NL960,Petites,,Newfoundland and Labrador,CA,47.618889,-58.633889,ardac,0.8,True,47.5811,-58.6218
NL961,Petries,,Newfoundland and Labrador,CA,48.9594445,-58.0094444,ardac,2.6,True,49.0126,-58.2089
NL962,Petty Harbour,,Newfoundland and Labrador,CA,47.4680555,-52.7086111,ardac,1.4,True,47.4297,-52.7018
NL963,Petty Harbour,,Newfoundland and Labrador,CA,52.4073503,-55.6727083,ardac,0.8,True,52.3686,-55.662
NL964,Petty Harbour-Maddox Cove,,Newfoundland and Labrador,CA,47.4731556,-52.7071833,ardac,1.6,True,47.4348,-52.7003
NL965,Piccadilly,,Newfoundland and Labrador,CA,48.5525,-58.9141667,ardac,1.2,True,48.5146,-58.9015
NL966,Piccadilly Slant,,Newfoundland and Labrador,CA,48.5730556,-58.9091667,ardac,1.1,True,48.5352,-58.8965
NL967,Piccaire,,Newfoundland and Labrador,CA,47.61,-55.9313889,ardac,0.6,True,47.5719,-55.9217
NL968,Pick Eyes,,Newfoundland and Labrador,CA,47.5997222,-53.1833333,ardac,0.7,True,47.6923,-53.0262
NL969,Pigeon Cove,,Newfoundland and Labrador,CA,51.2030556,-56.7844444,ardac,0.5,True,51.1646,-56.773
NL970,Pikes Arm,,Newfoundland and Labrador,CA,49.645,-54.5847222,ardac,1.5,True,49.6065,-54.5758
NL971,Pilley's Island,,Newfoundland and Labrador,CA,49.5277056,-55.7158528,ardac,1.6,True,49.4893,-55.7059
NL972,Pinchards Island,,Newfoundland and Labrador,CA,49.2,-53.4886111,ardac,0.4,True,49.1614,-53.4808
NL973,Pines Cove,,Newfoundland and Labrador,CA,51.366708,-56.599034,ardac,4.9,True,51.3282,-56.5878
NL974,Pinginak,,Newfoundland and Labrador,CA,55.333333,-60.399167,ardac,0.5,True,55.4398,-60.2281
NL975,Pinsent,,Newfoundland and Labrador,CA,49.4338889,-54.0491667,ardac,0.8,True,49.4952,-54.2454
