ID,Name,alt_name,Region,Country,Latitude,Longitude
ON1,10th Line Shore,,Ontario,CA,45.0919,-76.1506
ON2,Aberarder,,Ontario,CA,43.0528,-82.0939
ON3,Aberdeen,,Ontario,CA,44.2128,-80.8619
ON4,Aberdeen,,Ontario,CA,45.4969,-74.6664
ON5,Aberfeldy,,Ontario,CA,42.7571,-81.9375
ON6,Aberfoyle,,Ontario,CA,43.4708,-80.1468
ON7,Abingdon,,Ontario,CA,43.0836,-79.6850
ON8,Abitibi,,Ontario,CA,49.0252,-80.8851
ON9,Abitibi Canyon,,Ontario,CA,49.8778,-81.5711
ON10,Abiwin,,Ontario,CA,48.7444,-91.0664
ON11,Acanthus,,Ontario,CA,46.0307,-78.4044
ON12,Achigan,,Ontario,CA,46.8842,-84.1714
ON13,Achill,,Ontario,CA,44.0164,-79.9158
ON14,Achray,,Ontario,CA,45.8677,-77.7571
ON15,Actinolite,,Ontario,CA,44.5439,-77.3261
ON16,Actons Corners,,Ontario,CA,44.9897,-75.7125
ON17,Adamsdale,,Ontario,CA,46.4894,-80.9078
ON18,Adamsville,,Ontario,CA,44.8599,-81.1636
ON19,Adanac,,Ontario,CA,45.4245,-80.3893
ON20,Adanac,,Ontario,CA,46.9722,-80.0313
ON21,Addison,,Ontario,CA,44.6606,-75.8822
ON22,Adelaide,,Ontario,CA,43.0051,-81.7121
ON23,Adelard,,Ontario,CA,46.2133,-78.0194
ON24,Admaston,,Ontario,CA,45.4752,-76.8103
ON25,Adolphustown,,Ontario,CA,44.0636,-77.0033
ON26,Advance,,Ontario,CA,45.8685,-82.4290
ON27,Agate,,Ontario,CA,48.5227,-82.9636
ON28,Agawa,,Ontario,CA,47.6654,-84.5026
ON29,Agawa Bay,,Ontario,CA,47.3479,-84.6266
ON30,Agerton,,Ontario,CA,43.5556,-79.8078
ON31,Agincourt,,Ontario,CA,43.7926,-79.2839
ON32,Agincourt North,,Ontario,CA,43.8028,-79.2686
ON33,Agonzon,,Ontario,CA,48.9325,-85.9281
ON34,Ahmic Harbour,,Ontario,CA,45.6615,-79.7775
ON35,Ahmic Lake,,Ontario,CA,45.6253,-79.6871
ON36,Aikensville,,Ontario,CA,43.4296,-80.2333
ON37,Ailsa Craig,,Ontario,CA,43.1514,-81.5365
ON38,Airlie,,Ontario,CA,44.2610,-80.0083
ON39,Airy,,Ontario,CA,45.4985,-78.2568
ON40,Ajax,,Ontario,CA,43.8582,-79.0364
ON41,Akron,,Ontario,CA,48.9035,-84.1170
ON42,Alban,,Ontario,CA,46.1051,-80.6226
ON43,Albany Forks,,Ontario,CA,49.1167,-84.1811
ON44,Albert,,Ontario,CA,44.3173,-77.1346
ON45,Alberton,,Ontario,CA,43.1867,-80.0713
ON46,Albion,,Ontario,CA,43.9069,-79.8461
ON47,Albion Falls,,Ontario,CA,43.1972,-79.8183
ON48,Albuna,,Ontario,CA,42.1361,-82.6381
ON49,Albury,,Ontario,CA,44.0793,-77.5282
ON50,Alcona,,Ontario,CA,44.3150,-79.5462
ON51,Alcona,,Ontario,CA,50.0659,-91.7409
ON52,Aldborough,,Ontario,CA,42.5890,-81.6693
ON53,Alden,,Ontario,CA,48.1914,-84.5436
ON54,Alder,,Ontario,CA,44.1836,-79.3837
ON55,Alderdale,,Ontario,CA,46.1004,-79.2611
ON56,Aldershot,,Ontario,CA,43.3088,-79.8410
ON57,Alderslea,,Ontario,CA,44.3226,-79.5373
ON58,Alderville,,Ontario,CA,44.1814,-78.0661
ON59,Alderwood,,Ontario,CA,43.6086,-79.5388
ON60,Aldred's Beach,,Ontario,CA,44.1644,-78.8608
ON61,Alexandria,,Ontario,CA,45.3094,-74.6330
ON62,Alexo,,Ontario,CA,48.6676,-80.8179
ON63,Alfred,,Ontario,CA,45.5561,-74.8878
ON64,Alfred Station,,Ontario,CA,45.5294,-74.8928
ON65,Algo,,Ontario,CA,46.5096,-80.9732
ON66,Algoma Mills,,Ontario,CA,46.1853,-82.8127
ON67,Algonquin,,Ontario,CA,44.7032,-75.6696
ON68,Algonquin Park,,Ontario,CA,45.5517,-78.5958
ON69,Alice,,Ontario,CA,45.7572,-77.2900
ON70,Allan,,Ontario,CA,44.6196,-77.4774
ON71,Allan Mills,,Ontario,CA,44.4083,-77.7222
ON72,Allan Park,,Ontario,CA,44.1672,-80.9325
ON73,Allanburg,,Ontario,CA,43.0763,-79.2082
ON74,Allans Corners,,Ontario,CA,45.6781,-77.0956
ON75,Allanwater Bridge,,Ontario,CA,50.2396,-90.1676
ON76,Allen's Corners,,Ontario,CA,43.1192,-79.5881
ON77,Allenford,,Ontario,CA,44.5363,-81.1778
ON78,Allensville,,Ontario,CA,45.2615,-79.3044
ON79,Allenwood,,Ontario,CA,44.5762,-79.9540
ON80,Allenwood Beach,,Ontario,CA,44.5736,-79.9917
ON81,Allimil,,Ontario,CA,44.1110,-79.7929
ON82,Allisonville,,Ontario,CA,44.0298,-77.3676
ON83,Alliston,,Ontario,CA,44.1536,-79.8642
ON84,Alloa,,Ontario,CA,43.7044,-79.8564
ON85,Allsaw,,Ontario,CA,44.9889,-78.6111
ON86,Alma,,Ontario,CA,43.7303,-80.5024
ON87,Alma Station,,Ontario,CA,43.7250,-80.4950
ON88,Almira,,Ontario,CA,43.9322,-79.3367
ON89,Almonte,,Ontario,CA,45.2249,-76.1951
ON90,Alpine Village,,Ontario,CA,44.5764,-78.4719
ON91,Alpine Village,,Ontario,CA,43.4236,-80.4803
ON92,Alport,,Ontario,CA,45.0224,-79.3535
ON93,Alsace,,Ontario,CA,46.0336,-79.5439
ON94,Alsfeldt,,Ontario,CA,44.0103,-80.9429
ON95,Alsops Beach,,Ontario,CA,44.4472,-79.1575
ON96,Alta Vista,,Ontario,CA,45.3864,-75.6581
ON97,Althorpe,,Ontario,CA,44.7575,-76.4754
ON98,Alton,,Ontario,CA,43.8593,-80.0689
ON99,Altona,,Ontario,CA,43.9764,-79.1969
ON100,Alva,,Ontario,CA,47.0421,-84.0288
ON101,Alvanley,,Ontario,CA,44.5391,-81.1199
ON102,Alvinston,,Ontario,CA,42.8261,-81.8639
ON103,Amaranth Station,,Ontario,CA,43.9028,-80.2356
ON104,Ambassador Beach,,Ontario,CA,42.0131,-82.9855
ON105,Amberley,,Ontario,CA,44.0431,-81.7164
ON106,Ambleside,,Ontario,CA,44.0126,-81.1993
ON107,Ameliasburg,,Ontario,CA,44.0591,-77.4349
ON108,Amesdale,,Ontario,CA,50.0158,-92.9343
ON109,Ameson,,Ontario,CA,49.8061,-84.5678
ON110,Amethyst Harbour,,Ontario,CA,48.5427,-88.8729
ON111,Amherst Pointe,,Ontario,CA,42.0558,-83.1147
ON112,Amherstburg,,Ontario,CA,42.1042,-83.1035
ON113,Amherstburg,,Ontario,CA,42.1172,-83.0442
ON114,Amherstview,,Ontario,CA,44.2233,-76.6454
ON115,Amigari Downs,,Ontario,CA,42.9294,-78.9453
ON116,Amigo Beach,,Ontario,CA,44.6864,-79.3925
ON117,Amulree,,Ontario,CA,43.4250,-80.8383
ON118,Amwri,,Ontario,CA,48.8092,-85.8771
ON119,Amyot,,Ontario,CA,48.4831,-84.9536
ON120,Ancaster,,Ontario,CA,43.2092,-80.0119
ON121,Ancaster Heights,,Ontario,CA,43.2375,-79.9644
ON122,Ancliff,,Ontario,CA,48.7017,-88.5825
ON123,Ancona Point,,Ontario,CA,44.5032,-78.6144
ON124,Anderson,,Ontario,CA,43.3153,-81.2440
ON125,Anderson,,Ontario,CA,44.2022,-76.9282
ON126,Anderson Lake,,Ontario,CA,46.2306,-81.7332
ON127,Anderson Lake Station,,Ontario,CA,46.2264,-81.7115
ON128,Andrewsville,,Ontario,CA,44.9518,-75.8204
ON129,Andy's Corners,,Ontario,CA,42.7631,-80.5939
ON130,Angling Lake,,Ontario,CA,53.8448,-89.5310
ON131,Angus,,Ontario,CA,44.3190,-79.8789
ON132,Anjigami,,Ontario,CA,47.8832,-84.5418
ON133,Annable Settlement,,Ontario,CA,45.1063,-75.3568
ON134,Annan,,Ontario,CA,44.6157,-80.8538
ON135,Annex,,Ontario,CA,48.6194,-90.0081
ON136,Anoma Lea,,Ontario,CA,44.6381,-75.9219
ON137,Ansnorveldt,,Ontario,CA,44.0802,-79.5400
ON138,Anson,,Ontario,CA,44.2981,-77.5975
ON139,Ansonia,,Ontario,CA,46.3166,-83.6095
ON140,Ansonville,,Ontario,CA,48.7564,-80.6861
ON141,Anstice,,Ontario,CA,46.9017,-81.0286
ON142,Anstruther Lake,,Ontario,CA,44.7354,-78.2001
ON143,Anten Mills,,Ontario,CA,44.4822,-79.8292
ON144,Anthony,,Ontario,CA,48.5382,-80.5935
ON145,Antrim,,Ontario,CA,45.3681,-76.2281
ON146,Appelo,,Ontario,CA,47.1983,-81.4019
ON147,Appin,,Ontario,CA,42.7958,-81.6492
ON148,Apple Hill,,Ontario,CA,45.2208,-74.7703
ON149,Appleby,,Ontario,CA,43.3778,-79.7743
ON150,Appledore,,Ontario,CA,42.5219,-82.1433
ON151,Appleton,,Ontario,CA,45.1819,-76.1240
ON152,Applewood Acres,,Ontario,CA,45.3850,-75.6692
ON153,Applewood Acres,,Ontario,CA,43.5922,-79.5781
ON154,Applewood Heights,,Ontario,CA,43.6072,-79.5950
ON155,Applewood Hills,,Ontario,CA,43.6183,-79.6022
ON156,Apsley,,Ontario,CA,44.7550,-78.0867
ON157,Apto,,Ontario,CA,44.5094,-79.8033
ON158,Arbeatha Park,,Ontario,CA,45.3164,-75.8217
ON159,Arbor Vitae,,Ontario,CA,48.8979,-94.2943
ON160,Archer,,Ontario,CA,44.9889,-75.1072
ON161,Ardbeg,,Ontario,CA,45.6408,-80.0800
ON162,Arden,,Ontario,CA,44.7208,-76.9244
ON163,Ardendale,,Ontario,CA,44.7217,-76.9444
ON164,Ardmore Beach,,Ontario,CA,44.7011,-80.0058
ON165,Ardoch,,Ontario,CA,44.9303,-76.9072
ON166,Ardtrea,,Ontario,CA,44.6867,-79.4025
ON167,Argolis,,Ontario,CA,48.6883,-83.4486
ON168,Argon,,Ontario,CA,48.8931,-90.0091
ON169,Argyle,,Ontario,CA,44.4507,-79.0172
ON170,Ariss,,Ontario,CA,43.5753,-80.3650
ON171,Arkell,,Ontario,CA,43.5365,-80.1677
ON172,Arklan,,Ontario,CA,45.0872,-76.3461
ON173,Arkona,,Ontario,CA,43.0831,-81.8261
ON174,Arkwood,,Ontario,CA,42.4813,-82.1218
ON175,Arkwright,,Ontario,CA,44.4531,-81.2158
ON176,Arlington Woods,,Ontario,CA,45.3230,-75.7876
ON177,Armadale,,Ontario,CA,43.8372,-79.2579
ON178,Armbro Heights,,Ontario,CA,43.6703,-79.7468
ON179,Armitage,,Ontario,CA,44.0336,-79.4761
ON180,Armour Heights,,Ontario,CA,43.7433,-79.4300
ON181,Armow,,Ontario,CA,44.1928,-81.5139
ON182,Arms,,Ontario,CA,49.5678,-86.0119
ON183,Armstrong,,Ontario,CA,50.3049,-89.0418
ON184,Armstrong Mills,,Ontario,CA,43.6292,-80.2614
ON185,Armstrong Station,,Ontario,CA,50.3009,-89.0421
ON186,Armstrongs Corners,,Ontario,CA,44.9331,-76.3050
ON187,Arner,,Ontario,CA,42.0319,-82.8239
ON188,Arnott,,Ontario,CA,44.4300,-80.8550
ON189,Arnprior,,Ontario,CA,45.4347,-76.3581
ON190,Arnstein,,Ontario,CA,45.9217,-79.9330
ON191,Aroland,,Ontario,CA,50.2321,-86.9600
ON192,Arpin,,Ontario,CA,48.9294,-80.7236
ON193,Arranvale,,Ontario,CA,44.4526,-81.1455
ON194,Arthur,,Ontario,CA,43.8327,-80.5379
ON195,Arthur's Corners,,Ontario,CA,42.9042,-80.5747
ON196,Arva,,Ontario,CA,43.0500,-81.2936
ON197,Ascalon,,Ontario,CA,46.0742,-78.8053
ON198,Ash,,Ontario,CA,43.4388,-79.8161
ON199,Ashburn,,Ontario,CA,44.0025,-78.9952
ON200,Ashburnham,,Ontario,CA,44.3031,-78.3086
ON201,Ashburton,,Ontario,CA,46.5164,-80.0150
ON202,Ashby Lake,,Ontario,CA,45.0831,-77.2886
ON203,Ashby Mill,,Ontario,CA,44.4677,-77.8255
ON204,Ashdad,,Ontario,CA,45.3500,-76.7517
ON205,Ashdale,,Ontario,CA,45.3000,-75.7000
ON206,Ashgrove,,Ontario,CA,43.6086,-79.8944
ON207,Ashton,,Ontario,CA,45.1572,-76.0319
ON208,Ashton Station,,Ontario,CA,45.1736,-76.0542
ON209,Ashworth,,Ontario,CA,45.3492,-79.4021
ON210,Aspdin,,Ontario,CA,45.2978,-79.3708
ON211,Asselstine,,Ontario,CA,44.2443,-76.7313
ON212,Assumption,,Ontario,CA,44.2708,-78.2678
ON213,Astorville,,Ontario,CA,46.1858,-79.2794
ON214,Atha Road,,Ontario,CA,43.9440,-79.1709
ON215,Athens,,Ontario,CA,44.6316,-75.9463
ON216,Atherley,,Ontario,CA,44.6012,-79.3612
ON217,Atherton,,Ontario,CA,42.8225,-80.4491
ON218,Athlone,,Ontario,CA,44.0354,-79.8869
ON219,Athol,,Ontario,CA,45.3201,-74.8936
ON220,Athol,,Ontario,CA,43.9218,-77.2296
ON221,Atikokan,,Ontario,CA,48.7583,-91.6133
ON222,Atironto,,Ontario,CA,44.9031,-76.0072
ON223,Atkinson,,Ontario,CA,44.3872,-76.2771
ON224,Attawapiskat,,Ontario,CA,52.9225,-82.4253
ON225,Attercliffe,,Ontario,CA,42.9922,-79.5861
ON226,Attercliffe Station,,Ontario,CA,42.9687,-79.5924
ON227,Atwood,,Ontario,CA,43.6692,-81.0189
ON228,Auburn,,Ontario,CA,43.7726,-81.5336
ON229,Auburn Mills,,Ontario,CA,44.3158,-78.3081
ON230,Auden,,Ontario,CA,50.2262,-87.8925
ON231,Auden Park,,Ontario,CA,44.2258,-76.5839
ON232,Audley,,Ontario,CA,43.9031,-79.0117
ON233,Augsburg,,Ontario,CA,45.5283,-77.1832
ON234,Aunor,,Ontario,CA,48.4411,-81.2872
ON235,Aurora,,Ontario,CA,43.9976,-79.4699
ON236,Austin,,Ontario,CA,46.4907,-80.8363
ON237,Avalon Park,,Ontario,CA,42.7625,-80.2419
ON238,Avening,,Ontario,CA,44.3106,-80.0727
ON239,Avery Point,,Ontario,CA,44.6703,-79.1169
ON240,Avon,,Ontario,CA,42.9081,-80.9329
ON241,Avonbank,,Ontario,CA,43.3290,-81.1292
ON242,Avondale,,Ontario,CA,45.2113,-74.6913
ON243,Avonmore,,Ontario,CA,45.1715,-74.9671
ON244,Avonry,,Ontario,CA,42.7522,-82.3522
ON245,Avonton,,Ontario,CA,43.3538,-81.0868
ON246,Axe Lake,,Ontario,CA,45.3959,-79.5301
ON247,Aylen,,Ontario,CA,46.2247,-78.2169
ON248,Aylen Lake,,Ontario,CA,45.5906,-77.8594
ON249,Aylen Lake Station,,Ontario,CA,45.5522,-77.8272
ON250,Aylesworth,,Ontario,CA,44.2844,-76.5411
ON251,Aylmer,,Ontario,CA,42.7826,-80.9826
ON252,Aylmer West,,Ontario,CA,42.7722,-80.9839
ON253,Aylsworth,,Ontario,CA,48.5464,-93.8086
ON254,Ayr,,Ontario,CA,43.2856,-80.4500
ON255,Ayton,,Ontario,CA,44.0544,-80.9282
ON256,Ayton Siding,,Ontario,CA,44.0450,-80.9356
ON257,Azen,,Ontario,CA,46.6342,-80.2515
ON258,Azilda,,Ontario,CA,46.5501,-81.1145
ON259,Baby Point,,Ontario,CA,43.6556,-79.4931
ON260,Babys Point,,Ontario,CA,42.6483,-82.5046
ON261,Baddow,,Ontario,CA,44.6122,-78.7589
ON262,Baden,,Ontario,CA,43.4025,-80.6686
ON263,Badenoch,,Ontario,CA,43.4737,-80.0826
ON264,Badger's Corners,,Ontario,CA,45.3925,-80.0272
ON265,Badjeros,,Ontario,CA,44.2569,-80.2817
ON266,Baelstadt,,Ontario,CA,45.9122,-77.3508
ON267,Bagnall,,Ontario,CA,42.3469,-82.3608
ON268,Baie du Doré,,Ontario,CA,44.3348,-81.5526
ON269,Baie-du-Tonnerre,,Ontario,CA,44.8061,-80.0761
ON270,Bailey Corners,,Ontario,CA,46.6117,-80.8197
ON271,Bailieboro,,Ontario,CA,44.1333,-78.3533
ON272,Bainsville,,Ontario,CA,45.1839,-74.4144
ON273,Baird,,Ontario,CA,48.4242,-89.4253
ON274,Bairds,,Ontario,CA,42.7597,-81.3589
ON275,Bala,,Ontario,CA,45.0176,-79.6172
ON276,Bala Park,,Ontario,CA,45.0136,-79.5850
ON277,Bala Road,,Ontario,CA,45.0329,-79.6233
ON278,Balaclava,,Ontario,CA,45.3906,-76.9489
ON279,Balaclava,,Ontario,CA,44.6831,-80.7789
ON280,Balderson,,Ontario,CA,44.9518,-76.3275
ON281,Baldoon,,Ontario,CA,42.4944,-82.3489
ON282,Baldwin,,Ontario,CA,44.2626,-79.3423
ON283,Baldwins Bridge,,Ontario,CA,45.0044,-75.4117
ON284,Balfour Beach,,Ontario,CA,44.2663,-79.4948
ON285,Ballantrae,,Ontario,CA,44.0356,-79.2986
ON286,Ballinafad,,Ontario,CA,43.6961,-80.0119
ON287,Ballycanoe,,Ontario,CA,44.5339,-75.9067
ON288,Ballycroy,,Ontario,CA,43.9725,-79.8707
ON289,Ballydown Beach,,Ontario,CA,44.2447,-79.5331
ON290,Ballyduff,,Ontario,CA,44.1356,-78.6500
ON291,Ballymote,,Ontario,CA,43.0665,-81.2392
ON292,Balm Beach,,Ontario,CA,44.6981,-80.0003
ON293,Balmertown,,Ontario,CA,51.0573,-93.7432
ON294,Balmoral,,Ontario,CA,42.9140,-79.9630
ON295,Balmoral Park,,Ontario,CA,44.2456,-76.6081
ON296,Balmy Beach,,Ontario,CA,44.6172,-80.9464
ON297,Balsam,,Ontario,CA,43.9881,-79.0606
ON298,Balsam Creek,,Ontario,CA,46.4190,-79.2010
ON299,Balsam Grove,,Ontario,CA,44.2458,-76.5325
ON300,Balsam Hill,,Ontario,CA,45.4885,-76.8240
ON301,Baltics Corners,,Ontario,CA,45.3283,-74.7907
ON302,Baltimore,,Ontario,CA,44.0297,-78.1458
ON303,Balvenie,,Ontario,CA,45.2631,-77.0650
ON304,Bamberg,,Ontario,CA,43.4883,-80.6864
ON305,Banbury,,Ontario,CA,45.4526,-79.5246
ON306,Bancroft,,Ontario,CA,45.0550,-77.7578
ON307,Bancroft,,Ontario,CA,45.0689,-77.8689
ON308,Banda,,Ontario,CA,44.2872,-80.0667
ON309,Bangor Lodge,,Ontario,CA,45.0408,-79.3911
ON310,Bankfield,,Ontario,CA,49.6976,-87.0812
ON311,Banks,,Ontario,CA,44.4847,-80.3510
ON312,Banner,,Ontario,CA,43.0082,-80.9855
ON313,Banning,,Ontario,CA,48.7371,-91.9846
ON314,Bannockburn,,Ontario,CA,44.6431,-77.5504
ON315,Baptiste,,Ontario,CA,45.0936,-77.9794
ON316,Bar Point,,Ontario,CA,42.0528,-83.1125
ON317,Bar River,,Ontario,CA,46.4418,-84.0262
ON318,Barb,,Ontario,CA,45.5169,-74.5392
ON319,Barber's Beach,,Ontario,CA,43.4203,-80.2747
ON320,Barbers Bay,,Ontario,CA,48.6178,-80.9019
ON321,Barclay,,Ontario,CA,44.2997,-79.6133
ON322,Barcovan Beach,,Ontario,CA,44.0272,-77.6269
ON323,Bardsville,,Ontario,CA,45.0982,-79.4310
ON324,Barehead,,Ontario,CA,49.0532,-85.9051
ON325,Barkway,,Ontario,CA,44.9058,-79.1783
ON326,Barlochan,,Ontario,CA,45.0364,-79.4836
ON327,Barnesdale,,Ontario,CA,43.1831,-79.2792
ON328,Barnhart,,Ontario,CA,48.7289,-93.7843
ON329,Barrett Chute,,Ontario,CA,45.2507,-76.7552
ON330,Barretville,,Ontario,CA,42.0992,-82.8539
ON331,Barrhaven,,Ontario,CA,45.2790,-75.7684
ON332,Barrhead,,Ontario,CA,44.3042,-80.6636
ON333,Barrie,,Ontario,CA,44.3712,-79.6770
ON334,Barriefield,,Ontario,CA,44.2418,-76.4620
ON335,Barrillia Park,,Ontario,CA,44.4576,-79.4945
ON336,Barrow Bay,,Ontario,CA,44.9589,-81.2275
ON337,Barry's Bay,,Ontario,CA,45.4885,-77.6806
ON338,Barrydowne,,Ontario,CA,46.5141,-80.9440
ON339,Barrymere,,Ontario,CA,45.3908,-77.6684
ON340,Barryvale,,Ontario,CA,45.2811,-76.7275
ON341,Bartonville,,Ontario,CA,43.2358,-79.8069
ON342,Barwick,,Ontario,CA,48.6448,-93.9843
ON343,Basin Depot,,Ontario,CA,45.7208,-77.7885
ON344,Basin Mines,,Ontario,CA,46.6138,-80.6554
ON345,Basingstoke,,Ontario,CA,43.1033,-79.6200
ON346,Baskin's Beach,,Ontario,CA,45.4786,-76.0103
ON347,Bass Creek,,Ontario,CA,45.8057,-82.0114
ON348,Bass Lake,,Ontario,CA,46.1008,-77.6014
ON349,Bass Lake Park,,Ontario,CA,44.6116,-79.4814
ON350,Basse-ville,,Ontario,CA,45.4322,-75.6939
ON351,Batawa,,Ontario,CA,44.1722,-77.5961
ON352,Batchawana Bay,,Ontario,CA,46.9261,-84.6064
ON353,Batchewana,,Ontario,CA,47.1764,-84.2892
ON354,Bath,,Ontario,CA,44.1828,-76.7767
ON355,Bathurst,,Ontario,CA,44.8689,-76.3844
ON356,Batteaux,,Ontario,CA,44.4656,-80.1736
ON357,Battersea,,Ontario,CA,44.4325,-76.3835
ON358,Bawk,,Ontario,CA,49.9694,-86.6727
ON359,Baxter,,Ontario,CA,44.2453,-79.8383
ON360,Baxters Corners,,Ontario,CA,45.1655,-75.7904
ON361,Bay Beach,,Ontario,CA,42.8681,-79.0719
ON362,Bayfield,,Ontario,CA,43.5599,-81.6993
ON363,Bayfield Inlet,,Ontario,CA,45.6242,-80.4997
ON364,Bayridge,,Ontario,CA,44.2439,-76.5878
ON365,Bayshore,,Ontario,CA,45.3492,-75.8092
ON366,Bayshore Estates,,Ontario,CA,44.3628,-79.6233
ON367,Bayshore Village,,Ontario,CA,44.5554,-79.2848
ON368,Bayside,,Ontario,CA,44.1202,-77.5060
ON369,Baysville,,Ontario,CA,45.1489,-79.1147
ON370,Bayswater,,Ontario,CA,46.0875,-80.7543
ON371,Bayview,,Ontario,CA,44.2143,-76.6662
ON372,Bayview,,Ontario,CA,43.2972,-79.8628
ON373,Bayview,,Ontario,CA,44.6003,-80.6914
ON374,Bayview,,Ontario,CA,46.5273,-84.3807
ON375,Bayview Beach,,Ontario,CA,44.2397,-79.5322
ON376,Bayview Park,,Ontario,CA,44.8583,-79.8175
ON377,Bayview Point,,Ontario,CA,44.6189,-80.9447
ON378,Bayview Village,,Ontario,CA,43.7764,-79.3803
ON379,Baywood Park,,Ontario,CA,44.5168,-79.4381
ON380,Beach O'Pines,,Ontario,CA,43.2934,-81.7893
ON381,Beachburg,,Ontario,CA,45.7315,-76.8552
ON382,Beachville,,Ontario,CA,43.0908,-80.8293
ON383,Beacon Heights,,Ontario,CA,45.4500,-75.6333
ON384,Beacon Hill North,,Ontario,CA,45.4592,-75.6039
ON385,Beacon Hill South,,Ontario,CA,45.4422,-75.5992
ON386,Beaconsfield,,Ontario,CA,43.0458,-80.6147
ON387,Beaconwood,,Ontario,CA,45.4500,-75.6000
ON388,Beales Mills,,Ontario,CA,44.5778,-75.9706
ON389,Bealton,,Ontario,CA,42.9975,-80.2258
ON390,Beamsville,,Ontario,CA,43.1658,-79.4764
ON391,Bear Cave,,Ontario,CA,45.3123,-79.6090
ON392,Bear Island,,Ontario,CA,46.9722,-80.0742
ON393,Bear Lake,,Ontario,CA,45.4572,-79.5858
ON394,Bear Line,,Ontario,CA,42.4482,-82.2924
ON395,Bear Pass,,Ontario,CA,48.7262,-92.9592
ON396,Bear Point,,Ontario,CA,44.3967,-79.5436
ON397,Bear Valley,,Ontario,CA,45.9672,-79.7128
ON398,Bearbrook,,Ontario,CA,45.3883,-75.3336
ON399,Beardmore,,Ontario,CA,49.6008,-87.9561
ON400,Bearskin Lake,,Ontario,CA,53.9248,-90.9695
ON401,Beatrice,,Ontario,CA,45.1574,-79.3820
ON402,Beatty,,Ontario,CA,45.0281,-76.7456
ON403,Beaucage,,Ontario,CA,46.3566,-79.6555
ON404,Beaumaris,,Ontario,CA,45.0718,-79.4931
ON405,Beaumonde Heights,,Ontario,CA,43.7418,-79.5732
ON406,Beaver Dams,,Ontario,CA,43.1053,-79.2147
ON407,Beaver Lake,,Ontario,CA,46.3406,-81.4959
ON408,Beaver Lake,,Ontario,CA,48.1394,-79.6494
ON409,Beaver Meadow,,Ontario,CA,42.7131,-82.2435
ON410,Beaverdale,,Ontario,CA,44.4094,-80.6121
ON411,Beavers Corner,,Ontario,CA,43.0719,-80.0147
ON412,Beaverstone Bay,,Ontario,CA,46.0011,-81.1516
ON413,Beaverton,,Ontario,CA,44.4308,-79.1527
ON414,Becher,,Ontario,CA,42.6537,-82.3552
ON415,Beck,,Ontario,CA,48.6003,-88.8712
ON416,Becker,,Ontario,CA,49.2000,-84.6708
ON417,Becketts Bridge,,Ontario,CA,42.9739,-79.3714
ON418,Becketts Creek,,Ontario,CA,45.5164,-75.3589
ON419,Becketts Landing,,Ontario,CA,45.0512,-75.6857
ON420,Beckstead,,Ontario,CA,45.0458,-75.1767
ON421,Beckwith,,Ontario,CA,45.0753,-76.1017
ON422,Bedell,,Ontario,CA,44.9969,-75.6300
ON423,Bedford,,Ontario,CA,44.6260,-76.5640
ON424,Bedford Mills,,Ontario,CA,44.6025,-76.4058
ON425,Bedford Park,,Ontario,CA,43.7382,-79.4090
ON426,Beech Beach,,Ontario,CA,46.1147,-83.8928
ON427,Beech Corners,,Ontario,CA,44.9463,-77.0554
ON428,Beechmount,,Ontario,CA,45.0663,-77.9662
ON429,Beechwood,,Ontario,CA,43.0717,-81.6029
ON430,Beechwood,,Ontario,CA,43.4644,-80.5322
ON431,Beechwood,,Ontario,CA,43.5566,-81.3010
ON432,Beechwood,,Ontario,CA,42.4781,-81.9050
ON433,Beeton,,Ontario,CA,44.0826,-79.7868
ON434,Behnke Wood,,Ontario,CA,45.9245,-77.3549
ON435,Bekanon,,Ontario,CA,45.8526,-80.5593
ON436,Bel Air Heights,,Ontario,CA,45.3582,-75.7553
ON437,Bel Air Park,,Ontario,CA,45.3590,-75.7650
ON438,Belanger,,Ontario,CA,46.5622,-81.1386
ON439,Belangers Corner,,Ontario,CA,45.4019,-76.7158
ON440,Belcreft Beach,,Ontario,CA,42.0153,-82.9892
ON441,Belfast,,Ontario,CA,43.9181,-81.5507
ON442,Belford,,Ontario,CA,43.8836,-79.1811
ON443,Belfountain,,Ontario,CA,43.7929,-80.0155
ON444,Belgrave,,Ontario,CA,43.8141,-81.3665
ON445,Belhaven,,Ontario,CA,44.2628,-79.4286
ON446,Bell Ewart,,Ontario,CA,44.2714,-79.5419
ON447,Bell Grove,,Ontario,CA,46.4700,-80.9928
ON448,Bell Rapids,,Ontario,CA,45.3878,-77.7954
ON449,Bellamys,,Ontario,CA,44.7044,-75.7932
ON450,Bellamys Mill,,Ontario,CA,44.7231,-76.0211
ON451,Belle Air Beach,,Ontario,CA,44.2875,-79.5375
ON452,Belle River,,Ontario,CA,42.2914,-82.7044
ON453,Belle Vallée,,Ontario,CA,47.6535,-79.5931
ON454,Belle-eau-Claire Beach,,Ontario,CA,44.7286,-80.0542
ON455,Belleview Beach,,Ontario,CA,42.8619,-79.3533
ON456,Belleville,,Ontario,CA,44.2567,-77.3697
ON457,Belleville,,Ontario,CA,44.1708,-77.3828
ON458,Bellevue,,Ontario,CA,46.7044,-84.2257
ON459,Bellheck,,Ontario,CA,44.5204,-76.9638
ON460,Bellingham,,Ontario,CA,46.3931,-83.2860
ON461,Bellrock,,Ontario,CA,44.4752,-76.7632
ON462,Bells Corners,,Ontario,CA,44.9369,-76.3506
ON463,Bells Corners,,Ontario,CA,45.3208,-75.8300
ON464,Bells Corners Station,,Ontario,CA,45.3310,-75.8097
ON465,Bells Crossing,,Ontario,CA,44.7533,-75.8267
ON466,Bells Junction,,Ontario,CA,45.3288,-75.8329
ON467,Bellwood,,Ontario,CA,45.5025,-78.2489
ON468,Bellwood,,Ontario,CA,45.3264,-75.8297
ON469,Belmeade,,Ontario,CA,45.1280,-75.4932
ON470,Belmont,,Ontario,CA,42.8857,-81.0860
ON471,Belmore,,Ontario,CA,43.9581,-81.1867
ON472,Belton,,Ontario,CA,43.1756,-81.1389
ON473,Belwood,,Ontario,CA,43.7921,-80.3228
ON474,Benallen,,Ontario,CA,44.6139,-80.9783
ON475,Bendale,,Ontario,CA,43.7639,-79.2556
ON476,Benmiller,,Ontario,CA,43.7218,-81.6248
ON477,Bennies Corners,,Ontario,CA,45.2510,-76.2664
ON478,Bennington,,Ontario,CA,43.1925,-80.9553
ON479,Bennington Heights,,Ontario,CA,43.6942,-79.3722
ON480,Benny,,Ontario,CA,46.7819,-81.6297
ON481,Benoit,,Ontario,CA,45.3092,-75.1600
ON482,Bensfort Bridge,,Ontario,CA,44.2056,-78.2775
ON483,Bensfort Corners,,Ontario,CA,44.1761,-78.2808
ON484,Bent River,,Ontario,CA,45.2136,-79.5406
ON485,Bentinck,,Ontario,CA,44.2537,-80.8709
ON486,Bentpath,,Ontario,CA,42.7124,-82.1749
ON487,Bergland,,Ontario,CA,48.9518,-94.3871
ON488,Berkeley,,Ontario,CA,44.3663,-80.7278
ON489,Berkshire Village,,Ontario,CA,42.9662,-81.2790
ON490,Berlett's Corners,,Ontario,CA,43.4598,-80.7104
ON491,Berriedale,,Ontario,CA,45.6636,-79.3831
ON492,Berrys,,Ontario,CA,45.4250,-75.9247
ON493,Berryton,,Ontario,CA,44.4615,-76.1970
ON494,Bertrand,,Ontario,CA,48.6941,-85.5765
ON495,Bervie,,Ontario,CA,44.1322,-81.5042
ON496,Berwick,,Ontario,CA,45.1774,-75.1110
ON497,Berylvale,,Ontario,CA,48.9591,-80.9971
ON498,Bessemer,,Ontario,CA,45.0497,-77.6332
ON499,Bethany,,Ontario,CA,44.1792,-77.0311
ON500,Bethany,,Ontario,CA,44.1822,-78.5679
ON501,Bethel,,Ontario,CA,44.0576,-77.2103
ON502,Bethel,,Ontario,CA,44.6456,-75.6739
ON503,Bethel,,Ontario,CA,42.9275,-79.2036
ON504,Bethel,,Ontario,CA,44.3317,-78.4817
ON505,Bethesda,,Ontario,CA,44.2324,-79.6730
ON506,Bethesda,,Ontario,CA,44.1163,-77.1343
ON507,Bethesda,,Ontario,CA,43.9667,-79.3573
ON508,Bethnal,,Ontario,CA,47.7797,-81.8181
ON509,Bethune Bush,,Ontario,CA,45.0575,-75.2444
ON510,Beveridge Locks,,Ontario,CA,44.8758,-76.1335
ON511,Beverley Acres,,Ontario,CA,43.8725,-79.4192
ON512,Beverley Hills,,Ontario,CA,44.1988,-79.4751
ON513,Beverley Isles,,Ontario,CA,44.1986,-79.4806
ON514,Bewdley,,Ontario,CA,44.0878,-78.3214
ON515,Bexley,,Ontario,CA,44.6540,-78.9103
ON516,Bickford,,Ontario,CA,42.7662,-82.4285
ON517,Bidwell,,Ontario,CA,45.8003,-81.9831
ON518,Bieman's Corners,,Ontario,CA,44.0046,-80.9935
ON519,Big Bay,,Ontario,CA,44.7906,-80.9478
ON520,Big Bay Point,,Ontario,CA,44.4000,-79.5169
ON521,Big Beaver House,,Ontario,CA,52.9527,-89.8737
ON522,Big Cedar,,Ontario,CA,44.5786,-78.1769
ON523,Big Cedar Point,,Ontario,CA,44.2997,-79.5267
ON524,Big Chute,,Ontario,CA,44.8847,-79.6772
ON525,Big Fork,,Ontario,CA,48.5218,-93.6721
ON526,Big Lake,,Ontario,CA,45.7464,-82.0552
ON527,Bigelow,,Ontario,CA,47.2961,-79.5175
ON528,Bigwin,,Ontario,CA,45.2428,-79.0233
ON529,Bigwood,,Ontario,CA,46.0333,-80.6003
ON530,Bill's Corners,,Ontario,CA,42.8133,-80.3744
ON531,Bill's Corners,,Ontario,CA,42.9689,-80.2608
ON532,Billings,,Ontario,CA,45.8512,-82.2185
ON533,Billings,,Ontario,CA,45.3872,-75.6725
ON534,Billings Bridge,,Ontario,CA,45.3807,-75.6742
ON535,Binbrook,,Ontario,CA,43.1207,-79.8044
ON536,Bingle,,Ontario,CA,48.9481,-80.4053
ON537,Binkham,,Ontario,CA,43.8113,-80.1017
ON538,Biota,,Ontario,CA,48.9894,-90.3815
ON539,Birch Cliff,,Ontario,CA,43.6889,-79.2732
ON540,Birch Haven,,Ontario,CA,46.3203,-79.4104
ON541,Birch Island,,Ontario,CA,46.0689,-81.7739
ON542,Birch Point,,Ontario,CA,44.5103,-78.5962
ON543,Birchmount Park,,Ontario,CA,43.7106,-79.2697
ON544,Birchwood,,Ontario,CA,43.5269,-79.6283
ON545,Birdell,,Ontario,CA,44.1625,-80.5088
ON546,Birds Creek,,Ontario,CA,45.1079,-77.8755
ON547,Birdsalls,,Ontario,CA,44.2821,-78.0545
ON548,Birge Mills,,Ontario,CA,43.6668,-80.2586
ON549,Birkendale,,Ontario,CA,45.2976,-78.9701
ON550,Birnam,,Ontario,CA,43.0535,-81.8798
ON551,Birr,,Ontario,CA,43.1214,-81.3328
ON552,Biscotasing,,Ontario,CA,47.2994,-82.1042
ON553,Bishop Corners,,Ontario,CA,44.7806,-77.1767
ON554,Bishops Mills,,Ontario,CA,44.8737,-75.7046
ON555,Bishopsgate,,Ontario,CA,43.1075,-80.4072
ON556,Bismarck,,Ontario,CA,43.0419,-79.5035
ON557,Bisseltown,,Ontario,CA,44.6875,-75.6747
ON558,Bissett Creek,,Ontario,CA,46.2242,-78.0678
ON559,Black Bank,,Ontario,CA,44.2296,-80.1534
ON560,Black Bay,,Ontario,CA,45.8742,-77.3606
ON561,Black Bridge,,Ontario,CA,44.9847,-79.2586
ON562,Black Creek,,Ontario,CA,42.9800,-79.0250
ON563,Black Creek,,Ontario,CA,43.9679,-77.0305
ON564,Black Donald,,Ontario,CA,45.2248,-76.9037
ON565,Black Hawk,,Ontario,CA,48.8094,-93.9842
ON566,Black Horse,,Ontario,CA,43.9824,-79.8099
ON567,Black Horse Corner,,Ontario,CA,43.0802,-79.1989
ON568,Black Rapids,,Ontario,CA,44.5083,-76.0933
ON569,Black River,,Ontario,CA,45.0786,-74.8710
ON570,Black Road,,Ontario,CA,45.2758,-79.8900
ON571,Blackburn,,Ontario,CA,45.4364,-75.5469
ON572,Blackburn Hamlet,,Ontario,CA,45.4367,-75.5646
ON573,Blackheath,,Ontario,CA,43.0751,-79.8240
ON574,Blacks Corners,,Ontario,CA,45.1076,-76.1046
ON575,Blacks Corners,,Ontario,CA,44.0027,-80.2368
ON576,Blacks Corners,,Ontario,CA,43.3425,-79.9586
ON577,Blackstock,,Ontario,CA,44.1097,-78.8193
ON578,Blackstone,,Ontario,CA,45.2570,-79.8427
ON579,Blackstone Lake,,Ontario,CA,45.2486,-79.8844
ON580,Blackwater,,Ontario,CA,44.2361,-79.0528
ON581,Blackwater Junction,,Ontario,CA,44.2375,-79.0461
ON582,Blackwell,,Ontario,CA,43.0203,-82.3197
ON583,Blair,,Ontario,CA,43.3833,-80.3882
ON584,Blairhampton,,Ontario,CA,45.0294,-78.6557
ON585,Blairs Settlement,,Ontario,CA,44.6392,-76.4050
ON586,Blairton,,Ontario,CA,44.4643,-77.7626
ON587,Blairton Station,,Ontario,CA,44.4372,-77.8048
ON588,Blake,,Ontario,CA,43.4547,-81.6578
ON589,Blakeney,,Ontario,CA,45.2658,-76.2444
ON590,Blalock,,Ontario,CA,48.7547,-91.3214
ON591,Blanchard's Landing,,Ontario,CA,46.2833,-79.0275
ON592,Blanchards Hill,,Ontario,CA,44.7839,-76.0992
ON593,Blanche,,Ontario,CA,50.0762,-85.7113
ON594,Blandford Station,,Ontario,CA,43.2178,-80.6378
ON595,Blantyre,,Ontario,CA,44.5008,-80.6342
ON596,Blenheim,,Ontario,CA,42.3335,-81.9987
ON597,Blenheim Junction,,Ontario,CA,42.3272,-82.0114
ON598,Blessington,,Ontario,CA,44.2628,-77.2667
ON599,Blezard,,Ontario,CA,44.2958,-78.0994
ON600,Blezard Valley,,Ontario,CA,46.6092,-81.0506
ON601,Blind River,,Ontario,CA,46.1858,-82.9606
ON602,Blind River,,Ontario,CA,46.3023,-82.8780
ON603,Blink Bonnie,,Ontario,CA,43.2979,-80.6490
ON604,Bloomfield,,Ontario,CA,43.9856,-77.2314
ON605,Bloomingdale,,Ontario,CA,43.5078,-80.4622
ON606,Bloomington,,Ontario,CA,44.0054,-79.2647
ON607,Bloomington,,Ontario,CA,45.2603,-74.8828
ON608,Bloomsburg,,Ontario,CA,42.8874,-80.2988
ON609,Bloordale Gardens,,Ontario,CA,43.6379,-79.5674
ON610,Blossom Park,,Ontario,CA,45.3489,-75.6267
ON611,Blount,,Ontario,CA,49.2614,-81.0242
ON612,Blount,,Ontario,CA,43.9642,-80.0239
ON613,Blue Church,,Ontario,CA,44.6803,-75.5589
ON614,Blue Corners,,Ontario,CA,45.5845,-74.8046
ON615,Blue Mountain,,Ontario,CA,44.6749,-77.9450
ON616,Blue Mountains,,Ontario,CA,44.4781,-80.4014
ON617,Blue Springs,,Ontario,CA,43.6185,-80.0968
ON618,Blue Water Beach,,Ontario,CA,43.7176,-81.7221
ON619,Bluevale,,Ontario,CA,43.8542,-81.2514
ON620,Bluevale Siding,,Ontario,CA,43.8460,-81.2573
ON621,Bluewater,,Ontario,CA,43.4767,-81.6029
ON622,Bluewater Beach,,Ontario,CA,44.6258,-79.9903
ON623,Blyth,,Ontario,CA,43.7346,-81.4283
ON624,Blytheswood,,Ontario,CA,42.1212,-82.5949
ON625,Boakview,,Ontario,CA,45.5713,-80.0318
ON626,Bobcaygeon,,Ontario,CA,44.5468,-78.5577
ON627,Bobs Lake,,Ontario,CA,44.6453,-76.6524
ON628,Bogart,,Ontario,CA,44.4983,-77.2489
ON629,Bogarttown,,Ontario,CA,44.0451,-79.4246
ON630,Bogies Beach,,Ontario,CA,43.8139,-81.7219
ON631,Bognor,,Ontario,CA,44.5227,-80.7430
ON632,Boland's Bay,,Ontario,CA,46.6532,-80.7664
ON633,Bolger,,Ontario,CA,45.6802,-80.1195
ON634,Bolger Bridge,,Ontario,CA,45.6806,-80.1222
ON635,Bolingbroke,,Ontario,CA,44.7596,-76.5193
ON636,Bolingbroke Siding,,Ontario,CA,44.7725,-76.5389
ON637,Bolkow,,Ontario,CA,48.1103,-83.9117
ON638,Bolsover,,Ontario,CA,44.5302,-79.0600
ON639,Bolton,,Ontario,CA,43.8804,-79.7381
ON640,Bon Air,,Ontario,CA,46.0169,-80.5710
ON641,Bon Echo,,Ontario,CA,44.8976,-77.1971
ON642,Bon Secours Beach,,Ontario,CA,44.3306,-79.5317
ON643,Bona Vista,,Ontario,CA,45.2612,-79.0763
ON644,Bonarlaw,,Ontario,CA,44.4275,-77.6264
ON645,Bond Head,,Ontario,CA,44.0892,-79.6767
ON646,Bond's Corners,,Ontario,CA,43.1403,-80.6992
ON647,Bondi Village,,Ontario,CA,45.2962,-79.0154
ON648,Bonfield,,Ontario,CA,46.2322,-79.1454
ON649,Bongard,,Ontario,CA,44.0513,-76.9577
ON650,Bongard Corners,,Ontario,CA,44.0561,-76.9279
ON651,Bonheur,,Ontario,CA,49.3125,-91.3300
ON652,Boninville,,Ontario,CA,46.5950,-81.0914
ON653,Bonnechere,,Ontario,CA,45.6461,-77.5733
ON654,Bonnie Beach,,Ontario,CA,44.5639,-79.3022
ON655,Bonville,,Ontario,CA,45.1282,-74.8228
ON656,Bookton,,Ontario,CA,42.9477,-80.5028
ON657,Boon,,Ontario,CA,49.3781,-83.9519
ON658,Booth,,Ontario,CA,46.1942,-79.3306
ON659,Booth Landing,,Ontario,CA,46.1438,-79.2048
ON660,Boothville,,Ontario,CA,44.1415,-80.6261
ON661,Borden,,Ontario,CA,44.2802,-79.8943
ON662,Borden Farm,,Ontario,CA,45.3500,-75.7333
ON663,Bordenwood,,Ontario,CA,44.7153,-77.0471
ON664,Bornholm,,Ontario,CA,43.5312,-81.1446
ON665,Bornish,,Ontario,CA,43.1021,-81.6765
ON666,Borups Corners,,Ontario,CA,49.5833,-92.3225
ON667,Boskung,,Ontario,CA,45.0744,-78.7544
ON668,Boston,,Ontario,CA,43.5536,-79.9164
ON669,Boston,,Ontario,CA,42.9919,-80.2704
ON670,Boston Creek,,Ontario,CA,48.0107,-79.9377
ON671,Boston Mills,,Ontario,CA,43.7694,-79.9258
ON672,Bosworth,,Ontario,CA,43.7867,-80.6461
ON673,Botany,,Ontario,CA,42.4917,-81.9847
ON674,Bothwell,,Ontario,CA,42.6319,-81.8700
ON675,Bothwell Station,,Ontario,CA,42.6446,-81.8959
ON676,Bothwell's Corner,,Ontario,CA,44.5786,-80.8769
ON677,Boucks Hill,,Ontario,CA,44.9863,-75.2187
ON678,Boulter,,Ontario,CA,45.2135,-77.6374
ON679,Bourdages Corner,,Ontario,CA,46.7286,-84.2967
ON680,Bourdeau,,Ontario,CA,45.5043,-79.5441
ON681,Bourget,,Ontario,CA,45.4360,-75.1581
ON682,Bourkes,,Ontario,CA,48.2913,-80.2282
ON683,Bowen Corner,,Ontario,CA,45.0753,-77.6947
ON684,Bowermans,,Ontario,CA,44.0085,-77.3646
ON685,Bowers Beach,,Ontario,CA,44.4817,-80.1469
ON686,Bowesville,,Ontario,CA,45.3240,-75.6630
ON687,Bowker,,Ontario,CA,48.7151,-88.6271
ON688,Bowling Green,,Ontario,CA,43.9439,-80.2594
ON689,Bowmanville,,Ontario,CA,43.9114,-78.6875
ON690,Bowood,,Ontario,CA,43.0808,-81.5303
ON691,Bowser's Corner,,Ontario,CA,45.8435,-82.2184
ON692,Box Alder,,Ontario,CA,48.5621,-93.6738
ON693,Box Grove,,Ontario,CA,43.8581,-79.2306
ON694,Boyds,,Ontario,CA,45.0908,-76.2531
ON695,Boyle,,Ontario,CA,43.0196,-79.4121
ON696,Boyne,,Ontario,CA,43.4872,-79.8350
ON697,Bracebridge,,Ontario,CA,45.0264,-79.1900
ON698,Brackenrig,,Ontario,CA,45.1197,-79.5229
ON699,Bradburn Subdivision,,Ontario,CA,42.8779,-80.7554
ON700,Bradens Bay,,Ontario,CA,44.4586,-79.4931
ON701,Bradford,,Ontario,CA,44.1152,-79.5660
ON702,Bradford West Gwillimbury,,Ontario,CA,44.1374,-79.6173
ON703,Bradley,,Ontario,CA,44.2429,-81.2991
ON704,Bradley,,Ontario,CA,42.3415,-82.4128
ON705,Bradlo,,Ontario,CA,49.6014,-83.6472
ON706,Bradshaw,,Ontario,CA,44.6765,-76.6446
ON707,Bradshaw,,Ontario,CA,42.7509,-82.2779
ON708,Brady Lake,,Ontario,CA,45.0486,-78.8308
ON709,Braeheid Survey,,Ontario,CA,43.3303,-79.9117
ON710,Braemar,,Ontario,CA,43.1953,-80.8475
ON711,Braemar Park,,Ontario,CA,45.3672,-75.7560
ON712,Braeside,,Ontario,CA,45.4628,-76.4050
ON713,Bramalea,,Ontario,CA,43.7251,-79.7174
ON714,Bramalea Woods,,Ontario,CA,43.7144,-79.7350
ON715,Bramley,,Ontario,CA,44.3179,-79.5935
ON716,Brampton,,Ontario,CA,43.6883,-79.7608
ON717,Branchton,,Ontario,CA,43.3098,-80.2607
ON718,Brandy Point,,Ontario,CA,43.4367,-81.2242
ON719,Brant Hills,,Ontario,CA,43.3658,-79.8407
ON720,Brantford,,Ontario,CA,43.1569,-80.2575
ON721,Braund Port,,Ontario,CA,44.2674,-78.3278
ON722,Brawny,,Ontario,CA,45.9047,-77.9511
ON723,Bray Lake,,Ontario,CA,45.8892,-79.4181
ON724,Breadalbane,,Ontario,CA,45.4731,-74.5875
ON725,Brechin,,Ontario,CA,44.5472,-79.1769
ON726,Brechin Beach,,Ontario,CA,44.5316,-79.2041
ON727,Brechin East,,Ontario,CA,44.5451,-79.1805
ON728,Brechin Point,,Ontario,CA,44.5357,-79.2086
ON729,Breezy's Corners,,Ontario,CA,43.3764,-80.0053
ON730,Bremner,,Ontario,CA,48.6706,-85.4761
ON731,Brennan Harbour,,Ontario,CA,46.1876,-82.3860
ON732,Brent,,Ontario,CA,46.0300,-78.4808
ON733,Brentha,,Ontario,CA,47.7839,-79.9089
ON734,Brentwood,,Ontario,CA,44.3454,-79.9381
ON735,Breslau,,Ontario,CA,43.4753,-80.4125
ON736,Brethour,,Ontario,CA,47.7264,-79.5664
ON737,Brewer Lake,,Ontario,CA,44.4017,-76.3275
ON738,Brewers Mills,,Ontario,CA,44.4181,-76.3039
ON739,Briargreen,,Ontario,CA,45.3389,-75.7800
ON740,Briars Park,,Ontario,CA,44.3204,-79.3488
ON741,Brickley,,Ontario,CA,44.2519,-77.9394
ON742,Bridge End,,Ontario,CA,45.2692,-74.4485
ON743,Bridgenorth,,Ontario,CA,44.3829,-78.3849
ON744,Bridgeport,,Ontario,CA,43.4822,-80.4836
ON745,Bridgeview,,Ontario,CA,42.2983,-83.0518
ON746,Bridgeview Survey,,Ontario,CA,43.3033,-79.9028
ON747,Bridlewood,,Ontario,CA,45.2852,-75.8569
ON748,Brient,,Ontario,CA,47.9700,-84.8847
ON749,Brier Hill,,Ontario,CA,44.5523,-76.1685
ON750,Brigden,,Ontario,CA,42.8126,-82.2828
ON751,Bright,,Ontario,CA,43.2697,-80.6567
ON752,Brighton,,Ontario,CA,44.0406,-77.7376
ON753,Brighton,,Ontario,CA,44.1222,-77.7642
ON754,Brighton Beach,,Ontario,CA,42.2744,-83.0894
ON755,Brighton Beach,,Ontario,CA,44.2832,-79.4895
ON756,Brights Grove,,Ontario,CA,43.0308,-82.2521
ON757,Brightside,,Ontario,CA,45.1211,-76.4944
ON758,Brignall,,Ontario,CA,45.2558,-79.8442
ON759,Brimstone,,Ontario,CA,43.8079,-80.0000
ON760,Brindle Crossing,,Ontario,CA,45.9311,-77.3353
ON761,Brinka,,Ontario,CA,50.0032,-94.3067
ON762,Brinklow,,Ontario,CA,44.8975,-77.6988
ON763,Brinkman's Corners,,Ontario,CA,45.1453,-81.3943
ON764,Brinsley,,Ontario,CA,43.2081,-81.5314
ON765,Brinston,,Ontario,CA,44.9397,-75.3594
ON766,Brisbane,,Ontario,CA,43.7444,-80.0775
ON767,Brisson,,Ontario,CA,45.2986,-75.3261
ON768,Britainville,,Ontario,CA,45.7328,-82.4019
ON769,Britannia,,Ontario,CA,45.2961,-79.0744
ON770,Britannia,,Ontario,CA,45.3630,-75.7943
ON771,Britannia,,Ontario,CA,43.6253,-79.6791
ON772,Britannia Bay,,Ontario,CA,45.3688,-75.7998
ON773,Britannia Heights,,Ontario,CA,45.3608,-75.7883
ON774,Britannia Road,,Ontario,CA,45.2713,-79.1778
ON775,Britt,,Ontario,CA,45.7732,-80.5565
ON776,Britt Station,,Ontario,CA,45.7928,-80.5403
ON777,Britton,,Ontario,CA,43.6778,-80.9247
ON778,Broadbent,,Ontario,CA,45.4469,-79.8356
ON779,Broadview Gardens,,Ontario,CA,46.5411,-84.3872
ON780,Brock Gardens,,Ontario,CA,43.2911,-80.0003
ON781,Brock Road,,Ontario,CA,43.8817,-79.0878
ON782,Brockley,,Ontario,CA,42.9156,-81.1967
ON783,Brocks Beach,,Ontario,CA,44.4672,-80.1058
ON784,Brocksden,,Ontario,CA,43.3881,-80.8869
ON785,Brockville,,Ontario,CA,44.5973,-75.6855
ON786,Brodhagen,,Ontario,CA,43.5603,-81.2094
ON787,Brodie,,Ontario,CA,45.4192,-74.5533
ON788,Brodie,,Ontario,CA,46.4894,-80.9711
ON789,Bromley,,Ontario,CA,45.5396,-76.8840
ON790,Bronson,,Ontario,CA,45.0642,-77.7889
ON791,Bronson Station,,Ontario,CA,45.0386,-77.7914
ON792,Bronte,,Ontario,CA,43.3894,-79.7178
ON793,Bronte Station,,Ontario,CA,43.4053,-79.7317
ON794,Brooke,,Ontario,CA,44.5847,-80.9694
ON795,Brooke,,Ontario,CA,44.8561,-76.4306
ON796,Brookfield,,Ontario,CA,46.5328,-84.3908
ON797,Brookfield,,Ontario,CA,42.9607,-79.1606
ON798,Brooklin,,Ontario,CA,43.9583,-78.9597
ON799,Brooks Landing,,Ontario,CA,45.4327,-80.3365
ON800,Brooks Mill,,Ontario,CA,45.4222,-79.0172
ON801,Brooksdale,,Ontario,CA,43.2272,-80.9367
ON802,Brookside,,Ontario,CA,43.9786,-78.0828
ON803,Brookville,,Ontario,CA,43.5317,-80.0456
ON804,Brotherston,,Ontario,CA,43.8193,-80.9622
ON805,Brougham,,Ontario,CA,43.9183,-79.1072
ON806,Broughdale,,Ontario,CA,43.0096,-81.2598
ON807,Broulan Reef,,Ontario,CA,48.5140,-81.1393
ON808,Brouseville,,Ontario,CA,44.8313,-75.4223
ON809,Brower,,Ontario,CA,49.0154,-80.8326
ON810,Brown Hill,,Ontario,CA,44.2226,-79.3294
ON811,Brown House Corner,,Ontario,CA,45.2233,-74.5669
ON812,Brown's Corners,,Ontario,CA,42.9298,-80.5815
ON813,Brown's Corners,,Ontario,CA,43.8497,-79.3586
ON814,Brown's Corners,,Ontario,CA,43.1812,-81.0887
ON815,Browning Island,,Ontario,CA,44.9998,-79.4066
ON816,Brownrigg,,Ontario,CA,49.6819,-81.5219
ON817,Browns Brae,,Ontario,CA,45.2127,-79.0300
ON818,Browns Corners,,Ontario,CA,43.8124,-79.2468
ON819,Brownsville,,Ontario,CA,42.8617,-80.8394
ON820,Brownsville Station,,Ontario,CA,42.8554,-80.8371
ON821,Bruce Farm,,Ontario,CA,45.3333,-75.8000
ON822,Bruce Lake,,Ontario,CA,50.8161,-93.3896
ON823,Bruce Mines,,Ontario,CA,46.3010,-83.7947
ON824,Bruce Station,,Ontario,CA,46.3168,-83.7676
ON825,Brucedale,,Ontario,CA,43.6478,-80.1864
ON826,Brucefield,,Ontario,CA,43.5257,-81.5177
ON827,Bruces,,Ontario,CA,43.2743,-80.2520
ON828,Bruceton,,Ontario,CA,45.2166,-77.3902
ON829,Brudenell,,Ontario,CA,45.4446,-77.3966
ON830,Brumsfield,,Ontario,CA,45.8172,-77.1353
ON831,Brunetville,,Ontario,CA,49.4197,-82.4067
ON832,Brunner,,Ontario,CA,43.5204,-80.9224
ON833,Brunswick,,Ontario,CA,44.2071,-78.5802
ON834,Brussels,,Ontario,CA,43.7428,-81.2508
ON835,Bryanston,,Ontario,CA,43.1256,-81.2692
ON836,Buchanan,,Ontario,CA,43.2347,-79.8936
ON837,Buck Lake,,Ontario,CA,44.5253,-76.4547
ON838,Buckham's Bay,,Ontario,CA,45.4978,-76.1008
ON839,Buckhorn,,Ontario,CA,44.5530,-78.3511
ON840,Buckley,,Ontario,CA,46.5336,-84.3692
ON841,Buckskin,,Ontario,CA,44.8656,-79.6000
ON842,Bucyrus,,Ontario,CA,46.9243,-84.2068
ON843,Buda,,Ontario,CA,48.6639,-89.8153
ON844,Budd Mills,,Ontario,CA,45.6373,-77.2551
ON845,Buena Vista Park,,Ontario,CA,44.7063,-79.3860
ON846,Buffalo Heights,,Ontario,CA,42.8906,-78.9921
ON847,Buffalo Rock,,Ontario,CA,47.0143,-79.3665
ON848,Buffalo-Ankerite,,Ontario,CA,48.4390,-81.2693
ON849,Bulgers Corners,,Ontario,CA,45.5936,-77.0219
ON850,Buller,,Ontario,CA,44.4492,-77.3731
ON851,Buller,,Ontario,CA,44.7968,-78.7537
ON852,Buller Siding,,Ontario,CA,44.4483,-77.3756
ON853,Bullock,,Ontario,CA,45.1039,-76.4700
ON854,Bullocks Corners,,Ontario,CA,43.2785,-79.9857
ON855,Bummers' Roost,,Ontario,CA,45.8158,-79.6256
ON856,Bunessan,,Ontario,CA,44.1908,-80.7153
ON857,Bunker Hill,,Ontario,CA,45.0453,-75.0239
ON858,Bunyan,,Ontario,CA,42.9344,-82.2789
ON859,Bur Creek,,Ontario,CA,44.2969,-76.5603
ON860,Burchell Lake,,Ontario,CA,48.6032,-90.5910
ON861,Burditt Lake,,Ontario,CA,48.9232,-93.8042
ON862,Burford,,Ontario,CA,43.1031,-80.4294
ON863,Burgess Mines,,Ontario,CA,45.2656,-77.7000
ON864,Burgessville,,Ontario,CA,43.0247,-80.6533
ON865,Burgoyne,,Ontario,CA,44.4385,-81.3174
ON866,Burk's Falls,,Ontario,CA,45.6292,-79.4032
ON867,Burke Settlement,,Ontario,CA,44.8592,-76.7303
ON868,Burketon Station,,Ontario,CA,44.0537,-78.7931
ON869,Burleigh Falls,,Ontario,CA,44.5615,-78.2137
ON870,Burlington,,Ontario,CA,43.3701,-79.8140
ON871,Burlington Beach,,Ontario,CA,43.3089,-79.8014
ON872,Burnaby,,Ontario,CA,42.8692,-79.3536
ON873,Burnbrae,,Ontario,CA,44.3224,-77.7079
ON874,Burnhamthorpe,,Ontario,CA,43.6231,-79.5931
ON875,Burnley,,Ontario,CA,44.1597,-78.0031
ON876,Burns,,Ontario,CA,43.6324,-80.8443
ON877,Burnside,,Ontario,CA,44.7526,-79.5187
ON878,Burnstown,,Ontario,CA,45.3878,-76.5794
ON879,Burnt Hills,,Ontario,CA,44.4542,-76.3044
ON880,Burnt Island,,Ontario,CA,45.8203,-82.9492
ON881,Burnt River,,Ontario,CA,44.6750,-78.6978
ON882,Burpee,,Ontario,CA,45.7842,-82.5703
ON883,Burr,,Ontario,CA,44.0422,-77.3800
ON884,Burridge,,Ontario,CA,44.6575,-76.5422
ON885,Burriss,,Ontario,CA,48.6786,-93.6721
ON886,Burritts Rapids,,Ontario,CA,44.9811,-75.7972
ON887,Burtch,,Ontario,CA,43.0611,-80.2674
ON888,Burton,,Ontario,CA,44.1285,-78.7320
ON889,Burton,,Ontario,CA,45.7144,-80.2094
ON890,Burwash,,Ontario,CA,46.2394,-80.8508
ON891,Burys Green,,Ontario,CA,44.6100,-78.6706
ON892,Bush Glen,,Ontario,CA,45.0442,-75.0978
ON893,Bushnell,,Ontario,CA,46.8044,-79.5744
ON894,Buskegau,,Ontario,CA,49.0944,-81.2000
ON895,Busteed,,Ontario,CA,49.7544,-94.7722
ON896,Busy Bee Corners,,Ontario,CA,42.0984,-83.0349
ON897,Butler,,Ontario,CA,49.4645,-91.8169
ON898,Buttermilk Falls,,Ontario,CA,45.0969,-78.7458
ON899,Butternut Bay,,Ontario,CA,44.5199,-75.7807
ON900,Button's Corners,,Ontario,CA,47.4656,-79.8024
ON901,Buttonville,,Ontario,CA,43.8643,-79.3625
ON902,Buzwah,,Ontario,CA,45.7523,-81.7820
ON903,Byersville,,Ontario,CA,44.2866,-78.3505
ON904,Byng,,Ontario,CA,42.8929,-79.6266
ON905,Byng Inlet,,Ontario,CA,45.7691,-80.5532
ON906,Byrnedale,,Ontario,CA,42.2466,-82.6696
ON907,Byron,,Ontario,CA,42.9540,-81.3323
ON908,Cabbagetown,,Ontario,CA,43.6633,-79.3656
ON909,Cache Bay,,Ontario,CA,46.3734,-79.9896
ON910,Cachet,,Ontario,CA,43.8883,-79.3450
ON911,Caderette,,Ontario,CA,46.3795,-80.0388
ON912,Cadmus,,Ontario,CA,44.1199,-78.7692
ON913,Caesarea,,Ontario,CA,44.1586,-78.8317
ON914,Cahore,,Ontario,CA,45.1781,-75.1947
ON915,Cainsville,,Ontario,CA,43.1453,-80.1966
ON916,Caintown,,Ontario,CA,44.5253,-75.8856
ON917,Cairngorm,,Ontario,CA,42.9038,-81.6697
ON918,Cairo,,Ontario,CA,42.7061,-81.8969
ON919,Caistor Centre,,Ontario,CA,43.0707,-79.6515
ON920,Caistorville,,Ontario,CA,43.0511,-79.7153
ON921,Calabogie,,Ontario,CA,45.3047,-76.7169
ON922,Calamity Corners,,Ontario,CA,43.0264,-81.2821
ON923,Calderwood,,Ontario,CA,44.0192,-80.8683
ON924,Caledon,,Ontario,CA,43.8661,-79.8590
ON925,Caledon East,,Ontario,CA,43.8694,-79.8667
ON926,Caledon Village,,Ontario,CA,43.8625,-79.9946
ON927,Caledonia,,Ontario,CA,43.0711,-79.9536
ON928,Caledonia Front,,Ontario,CA,45.5411,-74.7275
ON929,Caledonia Springs,,Ontario,CA,45.5431,-74.8017
ON930,California,,Ontario,CA,44.5450,-76.2761
ON931,California,,Ontario,CA,45.2193,-76.4877
ON932,Caliper Lake,,Ontario,CA,49.0603,-93.8947
ON933,Callander,,Ontario,CA,46.2234,-79.3646
ON934,Callum,,Ontario,CA,46.5155,-80.6276
ON935,Calm Lake,,Ontario,CA,48.7497,-92.1742
ON936,Calong,,Ontario,CA,49.7706,-86.5336
ON937,Calstock,,Ontario,CA,49.7881,-84.1382
ON938,Calton,,Ontario,CA,42.7114,-80.8594
ON939,Calvin Park,,Ontario,CA,44.2328,-76.5241
ON940,Camborne,,Ontario,CA,44.0372,-78.2194
ON941,Cambray,,Ontario,CA,44.4087,-78.8321
ON942,Cambrian Heights,,Ontario,CA,46.5114,-80.9983
ON943,Cambridge,,Ontario,CA,43.3972,-80.3114
ON944,Cambridge Forest Estates,,Ontario,CA,45.3578,-75.2524
ON945,Camden East,,Ontario,CA,44.3350,-76.8319
ON946,Camel Chute,,Ontario,CA,45.1897,-77.1144
ON947,Camelot Beach,,Ontario,CA,42.8797,-79.3025
ON948,Cameron,,Ontario,CA,44.4400,-78.7739
ON949,Cameron,,Ontario,CA,44.3258,-78.0944
ON950,Cameron Falls,,Ontario,CA,49.1524,-88.3455
ON951,Camerons Point,,Ontario,CA,45.0761,-74.5328
ON952,Camilla,,Ontario,CA,43.9996,-80.1165
ON953,Camlachie,,Ontario,CA,43.0365,-82.1629
ON954,Camp Acouchiching,,Ontario,CA,46.8553,-80.0714
ON955,Camp Agamik,,Ontario,CA,46.9800,-80.0243
ON956,Camp Bigwee,,Ontario,CA,47.0125,-80.1147
ON957,Camp Cayuga,,Ontario,CA,47.0061,-80.1142
ON958,Camp Champlain,,Ontario,CA,46.3223,-79.2949
ON959,Camp Chimo,,Ontario,CA,46.9217,-80.0825
ON960,Camp Cochrane,,Ontario,CA,46.9003,-80.0767
ON961,Camp Kagawong,,Ontario,CA,44.5500,-78.8294
ON962,Camp Kenda,,Ontario,CA,47.8344,-81.8786
ON963,Camp Kenogaming,,Ontario,CA,47.9703,-81.9436
ON964,Camp Ketchini,,Ontario,CA,47.8605,-81.8965
ON965,Camp Oconto,,Ontario,CA,44.6963,-76.6853
ON966,Camp Robinson,,Ontario,CA,50.1305,-93.2210
ON967,Camp Wanapitei,,Ontario,CA,47.1631,-80.0650
ON968,Camp White Bear,,Ontario,CA,46.8753,-80.1443
ON969,Camp Wigwasati,,Ontario,CA,46.9228,-80.1122
ON970,Campania,,Ontario,CA,43.9896,-80.3035
ON971,Campbell Maxwell Front,,Ontario,CA,44.3094,-76.2464
ON972,Campbellcroft,,Ontario,CA,44.0647,-78.3736
ON973,Campbellford,,Ontario,CA,44.3087,-77.7949
ON974,Campbells Beach,,Ontario,CA,44.6150,-79.1172
ON975,Campbells Corners,,Ontario,CA,44.9082,-75.5626
ON976,Campbells Cross,,Ontario,CA,43.7838,-79.8668
ON977,Campbellton,,Ontario,CA,42.6810,-81.5843
ON978,Campbelltown,,Ontario,CA,44.2169,-78.2331
ON979,Campbellville,,Ontario,CA,43.4881,-79.9822
ON980,Campden,,Ontario,CA,43.1350,-79.4342
ON981,Camperdown,,Ontario,CA,44.5391,-80.4024
ON982,Canaan,,Ontario,CA,45.4507,-75.2927
ON983,Canal,,Ontario,CA,45.3382,-79.1355
ON984,Canborough,,Ontario,CA,42.9935,-79.6768
ON985,Candyville,,Ontario,CA,42.6940,-80.9851
ON986,Cane,,Ontario,CA,47.6297,-80.0613
ON987,Canfield,,Ontario,CA,42.9753,-79.7514
ON988,Canfield Junction,,Ontario,CA,42.9673,-79.7336
ON989,Cankerville,,Ontario,CA,44.0604,-77.7609
ON990,Cannamore,,Ontario,CA,45.1982,-75.2419
ON991,Cannifton,,Ontario,CA,44.2006,-77.3917
ON992,Canning,,Ontario,CA,43.1958,-80.4681
ON993,Cannington,,Ontario,CA,44.3494,-79.0408
ON994,Canoe Lake,,Ontario,CA,45.5783,-78.7281
ON995,Canonto,,Ontario,CA,45.0619,-76.7750
ON996,Canton,,Ontario,CA,43.9976,-78.3510
ON997,Canyon,,Ontario,CA,49.9800,-93.7415
ON998,Canyon,,Ontario,CA,47.4246,-84.4838
ON999,Cape Chin,,Ontario,CA,45.0645,-81.3173
ON1000,Cape Chin North,,Ontario,CA,45.1242,-81.3192
ON1001,Cape Chin South,,Ontario,CA,45.1067,-81.2807
ON1002,Cape Croker,,Ontario,CA,44.9229,-81.0201
ON1003,Capreol,,Ontario,CA,46.7044,-80.9189
ON1004,Caradoc,,Ontario,CA,42.9174,-81.5207
ON1005,Caramat,,Ontario,CA,49.6182,-86.1279
ON1006,Cardiff,,Ontario,CA,44.9994,-78.0137
ON1007,Cardinal,,Ontario,CA,44.7906,-75.3824
ON1008,Cardinal Heights,,Ontario,CA,45.4408,-75.6094
ON1009,Cardwell,,Ontario,CA,43.9761,-80.0987
ON1010,Cargill,,Ontario,CA,44.1960,-81.2468
ON1011,Cargill Siding,,Ontario,CA,44.1972,-81.2358
ON1012,Carholme,,Ontario,CA,42.7381,-80.5222
ON1013,Caribou Falls,,Ontario,CA,50.2632,-94.9682
ON1014,Carleton Heights,,Ontario,CA,45.3586,-75.7074
ON1015,Carleton Place,,Ontario,CA,45.1381,-76.1422
ON1016,Carleton Square,,Ontario,CA,45.3667,-75.7167
ON1017,Carley,,Ontario,CA,44.6071,-79.6353
ON1018,Carleys Corner,,Ontario,CA,44.8651,-75.8086
ON1019,Carling,,Ontario,CA,45.4072,-80.1660
ON1020,Carlingford,,Ontario,CA,43.3824,-81.1521
ON1021,Carlington,,Ontario,CA,45.3787,-75.7314
ON1022,Carlingwood,,Ontario,CA,45.3761,-75.7692
ON1023,Carlisle,,Ontario,CA,43.1289,-81.4833
ON1024,Carlisle,,Ontario,CA,43.3947,-79.9806
ON1025,Carlow,,Ontario,CA,43.7765,-81.6295
ON1026,Carlsbad Springs,,Ontario,CA,45.3691,-75.4562
ON1027,Carlsruhe,,Ontario,CA,44.1097,-81.0458
ON1028,Carlton Park,,Ontario,CA,43.1928,-79.2125
ON1029,Carluke,,Ontario,CA,43.1456,-79.9860
ON1030,Carlyon,,Ontario,CA,44.7243,-79.4974
ON1031,Carman,,Ontario,CA,44.1141,-77.7243
ON1032,Carmel,,Ontario,CA,44.0908,-77.9961
ON1033,Carmel,,Ontario,CA,44.1128,-78.4267
ON1034,Carmunnock,,Ontario,CA,43.6092,-81.1367
ON1035,Carnarvon,,Ontario,CA,45.0511,-78.6983
ON1036,Carnegie Beach,,Ontario,CA,44.1993,-78.8607
ON1037,Carol Richard Park,,Ontario,CA,46.6236,-81.0122
ON1038,Caroline Village,,Ontario,CA,44.8978,-76.2553
ON1039,Carp,,Ontario,CA,45.3453,-76.0372
ON1040,Carpin Beach,,Ontario,CA,46.5003,-84.4564
ON1041,Carr,,Ontario,CA,46.0146,-79.6639
ON1042,Carr's Landing,,Ontario,CA,46.6605,-80.7604
ON1043,Carrville,,Ontario,CA,43.8472,-79.4592
ON1044,Carry,,Ontario,CA,48.2194,-84.0678
ON1045,Carrying Place,,Ontario,CA,44.0486,-77.5803
ON1046,Carson,,Ontario,CA,46.1643,-81.7436
ON1047,Carson Grove,,Ontario,CA,45.4347,-75.6229
ON1048,Carsonby,,Ontario,CA,45.1731,-75.7172
ON1049,Carss,,Ontario,CA,45.6548,-79.3993
ON1050,Carters Corners,,Ontario,CA,48.3815,-89.4718
ON1051,Carterton,,Ontario,CA,46.1979,-83.9555
ON1052,Carthage,,Ontario,CA,43.6614,-80.8500
ON1053,Carthew Bay,,Ontario,CA,44.5269,-79.4290
ON1054,Cartier,,Ontario,CA,46.7065,-81.5540
ON1055,Cashel,,Ontario,CA,43.9156,-79.3225
ON1056,Cashions Glen,,Ontario,CA,45.1032,-74.6854
ON1057,Cashtown Corners,,Ontario,CA,44.3372,-80.0789
ON1058,Casimir,,Ontario,CA,46.3365,-80.4099
ON1059,Cass Bridge,,Ontario,CA,45.0495,-75.3188
ON1060,Cassburn,,Ontario,CA,45.5858,-74.7008
ON1061,Cassel,,Ontario,CA,43.2817,-80.7647
ON1062,Casselman,,Ontario,CA,45.3115,-75.0857
ON1063,Castile,,Ontario,CA,45.4930,-77.3224
ON1064,Castle Glen Estates,,Ontario,CA,44.4631,-80.3258
ON1065,Castle Green,,Ontario,CA,43.4619,-79.6964
ON1066,Castle Heights,,Ontario,CA,45.4321,-75.6432
ON1067,Castlederg,,Ontario,CA,43.9178,-79.7669
ON1068,Castleford,,Ontario,CA,45.5244,-76.5857
ON1069,Castlemore,,Ontario,CA,43.7910,-79.6897
ON1070,Castleton,,Ontario,CA,44.0932,-77.9387
ON1071,Casummit Lake,,Ontario,CA,51.4827,-92.3560
ON1072,Caswell's Beach,,Ontario,CA,44.7417,-79.7500
ON1073,Cat Lake,,Ontario,CA,51.7211,-91.8216
ON1074,Cataract,,Ontario,CA,43.8239,-80.0228
ON1075,Cataraqui,,Ontario,CA,44.2577,-76.5460
ON1076,Catchacoma,,Ontario,CA,44.7403,-78.3325
ON1077,Cathcart,,Ontario,CA,43.1016,-80.5285
ON1078,Cavan,,Ontario,CA,44.2000,-78.4692
ON1079,Cavan Station,,Ontario,CA,44.2082,-78.4465
ON1080,Cavell,,Ontario,CA,50.2294,-87.0189
ON1081,Caverlys Landing,,Ontario,CA,45.0731,-77.4564
ON1082,Cavers,,Ontario,CA,48.9025,-87.6942
ON1083,Cawaja Beach,,Ontario,CA,44.7107,-79.9955
ON1084,Cayuga,,Ontario,CA,42.9507,-79.8562
ON1085,Cecebe,,Ontario,CA,45.6439,-79.5497
ON1086,Cedar Bay,,Ontario,CA,42.8753,-79.1792
ON1087,Cedar Beach,,Ontario,CA,42.0057,-82.7947
ON1088,Cedar Beach,,Ontario,CA,44.4260,-79.1685
ON1089,Cedar Beach,,Ontario,CA,45.8242,-77.0844
ON1090,Cedar Creek,,Ontario,CA,44.1044,-77.7647
ON1091,Cedar Croft,,Ontario,CA,45.6426,-79.7132
ON1092,Cedar Dale,,Ontario,CA,43.8785,-78.8414
ON1093,Cedar Glen,,Ontario,CA,44.4919,-78.6358
ON1094,Cedar Grove,,Ontario,CA,44.9972,-75.0556
ON1095,Cedar Grove,,Ontario,CA,43.8579,-79.2036
ON1096,Cedar Harbour,,Ontario,CA,44.3167,-79.5327
ON1097,Cedar Heights,,Ontario,CA,46.5447,-84.3117
ON1098,Cedar Hill,,Ontario,CA,45.2714,-76.3139
ON1099,Cedar Lake,,Ontario,CA,44.4200,-76.4036
ON1100,Cedar Mills,,Ontario,CA,43.9269,-79.8031
ON1101,Cedar Mount,,Ontario,CA,44.3921,-79.5540
ON1102,Cedar Nook,,Ontario,CA,44.9114,-79.7553
ON1103,Cedar Point,,Ontario,CA,44.8106,-80.1150
ON1104,Cedar Point,,Ontario,CA,43.1391,-82.0604
ON1105,Cedar Shores,,Ontario,CA,44.1362,-78.9176
ON1106,Cedar Springs,,Ontario,CA,43.4157,-79.9204
ON1107,Cedar Springs,,Ontario,CA,42.2807,-82.0309
ON1108,Cedar Valley,,Ontario,CA,44.0642,-79.3544
ON1109,Cedar Valley,,Ontario,CA,43.7682,-80.1621
ON1110,Cedar Valley,,Ontario,CA,44.1764,-78.4081
ON1111,Cedar Village,,Ontario,CA,45.0516,-79.3892
ON1112,Cedarbrae,,Ontario,CA,44.2470,-79.2843
ON1113,Cedardale,,Ontario,CA,45.3167,-75.7000
ON1114,Cedardale,,Ontario,CA,45.1131,-76.4617
ON1115,Cedarhurst Beach,,Ontario,CA,44.4011,-79.1706
ON1116,Cedarhurst Park,,Ontario,CA,42.0145,-82.7821
ON1117,Cedarmont Beach,,Ontario,CA,44.5418,-79.4084
ON1118,Cedarvale,,Ontario,CA,43.6931,-79.4292
ON1119,Cedarville,,Ontario,CA,43.9961,-79.8769
ON1120,Cedarville,,Ontario,CA,44.0358,-80.5706
ON1121,Centennial,,Ontario,CA,43.7839,-79.1574
ON1122,Central,,Ontario,CA,43.2644,-79.8753
ON1123,Central Park,,Ontario,CA,45.3688,-75.7367
ON1124,Central Patricia,,Ontario,CA,51.4809,-90.1614
ON1125,Centralia,,Ontario,CA,43.2841,-81.4732
ON1126,Centre,,Ontario,CA,44.0814,-77.4242
ON1127,Centre Dummer,,Ontario,CA,44.4725,-78.0219
ON1128,Centre Inn,,Ontario,CA,43.6386,-80.1967
ON1129,Centre Lake Junction,,Ontario,CA,45.9283,-77.5017
ON1130,Centre-ville,,Ontario,CA,45.4153,-75.6964
ON1131,Centrefield,,Ontario,CA,45.5217,-75.0356
ON1132,Centrepointe,,Ontario,CA,45.3397,-75.7662
ON1133,Centreton,,Ontario,CA,44.0839,-78.0422
ON1134,Centretown,,Ontario,CA,45.4153,-75.6964
ON1135,Centreview,,Ontario,CA,45.3636,-77.7406
ON1136,Centreville,,Ontario,CA,44.4067,-76.9050
ON1137,Centreville,,Ontario,CA,44.9508,-81.2778
ON1138,Centreville,,Ontario,CA,43.0564,-80.8589
ON1139,Centreville,,Ontario,CA,43.4312,-80.4287
ON1140,Centreville,,Ontario,CA,44.6228,-80.6178
ON1141,Centurion,,Ontario,CA,45.4057,-79.3174
ON1142,Ceylon,,Ontario,CA,44.2430,-80.5732
ON1143,Chaffeys Locks,,Ontario,CA,44.5808,-76.3172
ON1144,Chalk River,,Ontario,CA,46.0180,-77.4530
ON1145,Chamberlain,,Ontario,CA,47.8567,-79.9050
ON1146,Chambers Corners,,Ontario,CA,42.9446,-79.3789
ON1147,Champlain Park,,Ontario,CA,45.4028,-75.7459
ON1148,Champlain Park,,Ontario,CA,46.2483,-79.4233
ON1149,Chandos Lake,,Ontario,CA,44.7941,-78.0498
ON1150,Chantler,,Ontario,CA,43.0039,-79.3261
ON1151,Chantry,,Ontario,CA,44.6755,-76.1010
ON1152,Chapleau,,Ontario,CA,47.8439,-83.4004
ON1153,Chapman,,Ontario,CA,44.4388,-77.3092
ON1154,Chapman's Landing,,Ontario,CA,46.1069,-79.5344
ON1155,Chaput Hughes,,Ontario,CA,48.1428,-80.0608
ON1156,Charing Cross,,Ontario,CA,42.3325,-82.0978
ON1157,Charlemont,,Ontario,CA,42.6403,-82.2822
ON1158,Charleston,,Ontario,CA,44.5753,-75.9972
ON1159,Charleville,,Ontario,CA,44.7515,-75.6129
ON1160,Charlton,,Ontario,CA,47.8101,-80.0047
ON1161,Charlton and Dack,,Ontario,CA,47.7961,-79.9533
ON1162,Charnwood,,Ontario,CA,43.4592,-79.6600
ON1163,Chartrand Corner,,Ontario,CA,46.1363,-80.3794
ON1164,Chase Corners,,Ontario,CA,44.4703,-77.8114
ON1165,Chatham,,Ontario,CA,42.3999,-82.1898
ON1166,Chatham-Kent,,Ontario,CA,42.4340,-82.1288
ON1167,Chats Haven,,Ontario,CA,45.4349,-76.3429
ON1168,Chatsworth,,Ontario,CA,44.4539,-80.8950
ON1169,Chatterton,,Ontario,CA,44.2461,-77.4786
ON1170,Cheapside,,Ontario,CA,42.8392,-79.9814
ON1171,Cheddar,,Ontario,CA,44.9864,-78.1318
ON1172,Chedoke Park,,Ontario,CA,43.2496,-79.9108
ON1173,Cheeseborough,,Ontario,CA,44.3600,-76.1797
ON1174,Chelmsford,,Ontario,CA,46.5786,-81.1969
ON1175,Chelsea Green,,Ontario,CA,42.9679,-81.2126
ON1176,Cheltenham,,Ontario,CA,43.7521,-79.9212
ON1177,Cheminis,,Ontario,CA,48.1629,-79.5252
ON1178,Chemong Heights,,Ontario,CA,44.3954,-78.3762
ON1179,Chemong Park,,Ontario,CA,44.3747,-78.3882
ON1180,Chenaux,,Ontario,CA,45.5722,-76.7164
ON1181,Cheney,,Ontario,CA,45.4134,-75.2432
ON1182,Chepstow,,Ontario,CA,44.1540,-81.2764
ON1183,Cherry,,Ontario,CA,43.9704,-79.4736
ON1184,Cherry Grove,,Ontario,CA,43.1839,-81.1808
ON1185,Cherry Heights,,Ontario,CA,43.2154,-79.7448
ON1186,Cherry Lane Estates,,Ontario,CA,42.0306,-82.5954
ON1187,Cherry Valley,,Ontario,CA,43.9371,-77.1518
ON1188,Cherrywood,,Ontario,CA,43.8539,-79.1439
ON1189,Cherrywood Acres,,Ontario,CA,43.1085,-79.1024
ON1190,Cherrywood Station,,Ontario,CA,43.8467,-79.1281
ON1191,Chesley,,Ontario,CA,44.2976,-81.0950
ON1192,Chesterfield,,Ontario,CA,43.2953,-80.6672
ON1193,Chesterville,,Ontario,CA,45.1036,-75.2311
ON1194,Chestnut Hills,,Ontario,CA,43.6597,-79.5231
ON1195,Chetwynd,,Ontario,CA,45.6207,-79.3219
ON1196,Chikopi,,Ontario,CA,45.6542,-79.7122
ON1197,Childs Mines,,Ontario,CA,45.0768,-77.6142
ON1198,Chippawa,,Ontario,CA,43.0558,-79.0469
ON1199,Chippawa Hill,,Ontario,CA,44.5134,-81.3336
ON1200,Chippewa,,Ontario,CA,44.4974,-76.8264
ON1201,Chiselhurst,,Ontario,CA,43.4398,-81.4302
ON1202,Chisholm's Mills,,Ontario,CA,44.3536,-77.3097
ON1203,Chiswick,,Ontario,CA,46.1142,-79.1807
ON1204,Christian Island,,Ontario,CA,44.8222,-80.1757
ON1205,Christian Valley,,Ontario,CA,46.0708,-79.4831
ON1206,Christie Beach,,Ontario,CA,44.5931,-80.5142
ON1207,Christie Lake,,Ontario,CA,44.8208,-76.4103
ON1208,Christies Corner,,Ontario,CA,43.2689,-80.0326
ON1209,Christina,,Ontario,CA,42.8626,-81.4879
ON1210,Chudleigh,,Ontario,CA,46.6415,-80.3838
ON1211,Churchill,,Ontario,CA,43.6569,-80.0558
ON1212,Churchill,,Ontario,CA,44.2519,-79.6014
ON1213,Churchill Heights,,Ontario,CA,45.0672,-74.7759
ON1214,Churchville,,Ontario,CA,43.6300,-79.7556
ON1215,Churchville,,Ontario,CA,42.5647,-81.6178
ON1216,Chute-à-Blondeau,,Ontario,CA,45.5881,-74.4703
ON1217,City View,,Ontario,CA,45.3514,-75.7431
ON1218,Clachan,,Ontario,CA,42.5800,-81.8006
ON1219,Claireville,,Ontario,CA,43.7500,-79.6367
ON1220,Clairlea,,Ontario,CA,43.7156,-79.2939
ON1221,Clanbrassil,,Ontario,CA,42.9669,-79.9506
ON1222,Clandeboye,,Ontario,CA,43.1981,-81.4503
ON1223,Clappison's Corners,,Ontario,CA,43.3122,-79.9175
ON1224,Clara Belle,,Ontario,CA,46.5008,-81.0569
ON1225,Claraday,,Ontario,CA,44.2897,-78.3122
ON1226,Clardon Beach,,Ontario,CA,44.2336,-79.4681
ON1227,Clare,,Ontario,CA,43.9903,-80.6353
ON1228,Claremont,,Ontario,CA,43.9724,-79.1291
ON1229,Clarence,,Ontario,CA,45.5640,-75.2482
ON1230,Clarence Creek,,Ontario,CA,45.5053,-75.2171
ON1231,Clarence-Rockland,,Ontario,CA,45.4881,-75.2149
ON1232,Clarendon Station,,Ontario,CA,44.8729,-76.6975
ON1233,Clarina,,Ontario,CA,44.5556,-78.0622
ON1234,Clarington,,Ontario,CA,43.9947,-78.6750
ON1235,Clarkdon,,Ontario,CA,49.7777,-91.2442
ON1236,Clarke,,Ontario,CA,43.9651,-78.5471
ON1237,Clarke's Corners,,Ontario,CA,45.0256,-81.3740
ON1238,Clarkes Hollow,,Ontario,CA,43.8700,-79.1314
ON1239,Clarks Church,,Ontario,CA,44.1122,-81.5758
ON1240,Clarks Corners,,Ontario,CA,43.7947,-79.3031
ON1241,Clarksburg,,Ontario,CA,44.5458,-80.4615
ON1242,Clarksdale,,Ontario,CA,43.3532,-79.8138
ON1243,Clarkson,,Ontario,CA,43.5190,-79.6339
ON1244,Claude,,Ontario,CA,43.7925,-79.9044
ON1245,Clavering,,Ontario,CA,44.6811,-81.1369
ON1246,Clay Bank,,Ontario,CA,45.3892,-76.4171
ON1247,Clay Hills,,Ontario,CA,44.9028,-81.0442
ON1248,Clay Valley,,Ontario,CA,45.4269,-76.4410
ON1249,Clayton,,Ontario,CA,45.1922,-76.3258
ON1250,Clear Creek,,Ontario,CA,42.5814,-80.5914
ON1251,Clear Lake,,Ontario,CA,45.0081,-79.0157
ON1252,Clear Lake,,Ontario,CA,45.5033,-79.2677
ON1253,Cleardale,,Ontario,CA,42.9411,-81.2525
ON1254,Clearview,,Ontario,CA,43.5036,-79.6686
ON1255,Clearview,,Ontario,CA,45.3275,-75.7044
ON1256,Clearview Estates,,Ontario,CA,43.2279,-79.9982
ON1257,Clearview Heights,,Ontario,CA,43.9235,-79.5230
ON1258,Clearville,,Ontario,CA,42.4692,-81.7108
ON1259,Clearwater Bay,,Ontario,CA,49.7121,-94.8089
ON1260,Clearwater Beach,,Ontario,CA,44.8515,-79.9125
ON1261,Cliffcrest,,Ontario,CA,43.7242,-79.2257
ON1262,Clifford,,Ontario,CA,43.9692,-80.9792
ON1263,Cliffside,,Ontario,CA,43.7075,-79.2547
ON1264,Clifton,,Ontario,CA,43.1264,-79.0956
ON1265,Clinton,,Ontario,CA,43.6167,-81.5397
ON1266,Clontarf,,Ontario,CA,45.4116,-77.1359
ON1267,Cloud Bay,,Ontario,CA,48.1307,-89.4298
ON1268,Cloudslee,,Ontario,CA,46.3235,-83.7053
ON1269,Clover Valley,,Ontario,CA,44.0139,-81.5928
ON1270,Clover Valley,,Ontario,CA,45.7136,-81.8136
ON1271,Cloverdale,,Ontario,CA,45.1178,-75.4006
ON1272,Cloyne,,Ontario,CA,44.8164,-77.1856
ON1273,Clute,,Ontario,CA,49.1897,-81.0736
ON1274,Clyde,,Ontario,CA,43.3843,-80.2283
ON1275,Clyde Forks,,Ontario,CA,45.1314,-76.6764
ON1276,Clydesville,,Ontario,CA,45.0387,-76.3932
ON1277,Coatsworth,,Ontario,CA,42.1695,-82.3549
ON1278,Cobalt,,Ontario,CA,47.3992,-79.6806
ON1279,Cobble Hill,,Ontario,CA,43.1197,-81.0928
ON1280,Cobden,,Ontario,CA,45.6267,-76.8819
ON1281,Coboconk,,Ontario,CA,44.6582,-78.7986
ON1282,Cobourg,,Ontario,CA,43.9631,-78.1647
ON1283,Cochenour,,Ontario,CA,51.0756,-93.8094
ON1284,Cochrane,,Ontario,CA,49.1747,-81.0631
ON1285,Cochrane,,Ontario,CA,49.0706,-81.0206
ON1286,Codes Corner,,Ontario,CA,44.2987,-76.4240
ON1287,Codrington,,Ontario,CA,44.1619,-77.8006
ON1288,Cody's Corners,,Ontario,CA,43.1237,-80.8684
ON1289,Coe Hill,,Ontario,CA,44.8619,-77.8364
ON1290,Cognashene,,Ontario,CA,44.9264,-79.9219
ON1291,Coins Gratton,,Ontario,CA,45.6125,-74.9253
ON1292,Colbeck,,Ontario,CA,43.9911,-80.3619
ON1293,Colborne,,Ontario,CA,42.8616,-80.3128
ON1294,Colborne,,Ontario,CA,44.0058,-77.8881
ON1295,Colchester,,Ontario,CA,41.9864,-82.9347
ON1296,Cold Springs,,Ontario,CA,44.0653,-78.2092
ON1297,Cold Springs,,Ontario,CA,45.8622,-82.1072
ON1298,Coldsprings,,Ontario,CA,44.2855,-78.3054
ON1299,Coldstream,,Ontario,CA,43.0192,-81.4997
ON1300,Coldwater,,Ontario,CA,44.7097,-79.6419
ON1301,Coldwell,,Ontario,CA,48.7624,-86.5287
ON1302,Cole Lake,,Ontario,CA,44.5806,-76.6706
ON1303,Cole Wharf,,Ontario,CA,44.1422,-77.0678
ON1304,Colebrook,,Ontario,CA,44.3886,-76.7700
ON1305,Coleman,,Ontario,CA,47.3936,-79.7031
ON1306,Coleman's Shore,,Ontario,CA,45.0531,-76.1614
ON1307,Colemans,,Ontario,CA,43.2338,-79.1240
ON1308,Coleraine,,Ontario,CA,43.8203,-79.6797
ON1309,Colgan,,Ontario,CA,44.0279,-79.8469
ON1310,Colinville,,Ontario,CA,42.8622,-82.3403
ON1311,Collingwood,,Ontario,CA,44.5014,-80.2407
ON1312,Collins,,Ontario,CA,50.2952,-89.4460
ON1313,Collins Bay,,Ontario,CA,44.2457,-76.6130
ON1314,Collins Inlet,,Ontario,CA,46.0019,-81.1992
ON1315,Collison Heights,,Ontario,CA,44.2786,-78.3131
ON1316,Colpoy's Bay,,Ontario,CA,44.7825,-81.1283
ON1317,Colquhoun,,Ontario,CA,45.0149,-75.1396
ON1318,Columbus,,Ontario,CA,43.9829,-78.9109
ON1319,Colwell,,Ontario,CA,44.3419,-79.7897
ON1320,Comber,,Ontario,CA,42.2310,-82.5527
ON1321,Combermere,,Ontario,CA,45.3642,-77.6247
ON1322,Comet,,Ontario,CA,42.0132,-82.9857
ON1323,Commanda,,Ontario,CA,45.9510,-79.6066
ON1324,Community Beach,,Ontario,CA,43.2382,-79.7327
ON1325,Concord,,Ontario,CA,43.8083,-79.4689
ON1326,Concord Point,,Ontario,CA,44.5392,-79.2106
ON1327,Conestogo,,Ontario,CA,43.5414,-80.5042
ON1328,Confederation Heights,,Ontario,CA,45.3767,-75.6871
ON1329,Coningsby,,Ontario,CA,43.7436,-80.1253
ON1330,Coniston,,Ontario,CA,46.4906,-80.8479
ON1331,Conmee,,Ontario,CA,48.5388,-89.6415
ON1332,Conn,,Ontario,CA,43.9982,-80.5680
ON1333,Connaught,,Ontario,CA,45.6389,-77.0053
ON1334,Connaught,,Ontario,CA,45.1456,-75.2133
ON1335,Connaught,,Ontario,CA,48.6186,-80.9368
ON1336,Connaught Hill,,Ontario,CA,48.4709,-81.2054
ON1337,Connaught Shore,,Ontario,CA,44.4458,-78.3742
ON1338,Connellys,,Ontario,CA,44.3567,-77.8261
ON1339,Connor,,Ontario,CA,43.9858,-79.9250
ON1340,Conover,,Ontario,CA,44.1906,-80.2131
ON1341,Conroy,,Ontario,CA,43.2933,-81.0486
ON1342,Consecon,,Ontario,CA,43.9956,-77.5221
ON1343,Constance Bay,,Ontario,CA,45.4867,-76.0756
ON1344,Constance Lake (Achikamii/Achikamaw),,Ontario,CA,49.8050,-84.1348
ON1345,Constant Creek,,Ontario,CA,45.4146,-77.0126
ON1346,Convent Glen,,Ontario,CA,45.4667,-75.5333
ON1347,Conway,,Ontario,CA,44.1121,-76.9148
ON1348,Cooke's Shore,,Ontario,CA,45.0450,-76.2108
ON1349,Cooks Mills,,Ontario,CA,46.4045,-79.4671
ON1350,Cooks Mills,,Ontario,CA,42.9964,-79.1789
ON1351,Cookstown,,Ontario,CA,44.1903,-79.7019
ON1352,Cooksville,,Ontario,CA,43.5803,-79.6158
ON1353,Cooper,,Ontario,CA,44.6453,-77.4746
ON1354,Cooper's Trailer Park,,Ontario,CA,44.3149,-78.1993
ON1355,Coopers Falls,,Ontario,CA,44.7872,-79.2333
ON1356,Cootes Paradise,,Ontario,CA,43.2675,-79.9456
ON1357,Copeland Park,,Ontario,CA,45.3636,-75.7478
ON1358,Copenhagen,,Ontario,CA,42.6774,-80.9853
ON1359,Copetown,,Ontario,CA,43.2438,-80.0557
ON1360,Copp,,Ontario,CA,45.4686,-77.4517
ON1361,Coppell,,Ontario,CA,49.5360,-83.8292
ON1362,Copper Cliff,,Ontario,CA,46.4767,-81.0681
ON1363,Copperhead,,Ontario,CA,45.1557,-80.1315
ON1364,Copperkettle,,Ontario,CA,44.6487,-81.0053
ON1365,Coppin's Corners,,Ontario,CA,44.0458,-79.1472
ON1366,Coral,,Ontario,CA,50.2171,-81.6787
ON1367,Corbeil,,Ontario,CA,46.2608,-79.2906
ON1368,Corbett,,Ontario,CA,43.2453,-81.6914
ON1369,Corbetton,,Ontario,CA,44.1388,-80.3270
ON1370,Corbyville,,Ontario,CA,44.2158,-77.3828
ON1371,Cordova Mines,,Ontario,CA,44.5418,-77.7828
ON1372,Corinth,,Ontario,CA,42.8217,-80.8332
ON1373,Coristine,,Ontario,CA,46.0910,-78.8905
ON1374,Corkery,,Ontario,CA,45.2833,-76.1019
ON1375,Corktown,,Ontario,CA,43.2492,-79.8669
ON1376,Cormac,,Ontario,CA,45.4633,-77.2942
ON1377,Cornell,,Ontario,CA,42.9043,-80.6265
ON1378,Cornwall,,Ontario,CA,45.0264,-74.7264
ON1379,Cornwall Centre,,Ontario,CA,45.0479,-74.8012
ON1380,Cornwall Island,,Ontario,CA,45.0114,-74.6811
ON1381,Coronation Gardens,,Ontario,CA,43.9572,-79.0086
ON1382,Coronation Park,,Ontario,CA,42.9693,-82.3721
ON1383,Corsons,,Ontario,CA,44.6292,-78.8919
ON1384,Corunna,,Ontario,CA,42.8856,-82.4483
ON1385,Corwhin,,Ontario,CA,43.5097,-80.1050
ON1386,Corwin Crescent,,Ontario,CA,43.0842,-79.1036
ON1387,Cosy Cove,,Ontario,CA,44.4908,-77.2808
ON1388,Cotieville,,Ontario,CA,45.4799,-76.7171
ON1389,Cotnam Island,,Ontario,CA,45.7989,-77.0319
ON1390,Cotswold,,Ontario,CA,43.8694,-80.7906
ON1391,Cottam,,Ontario,CA,42.1296,-82.7443
ON1392,Cottesloe,,Ontario,CA,44.4067,-78.0806
ON1393,Coughlin,,Ontario,CA,48.8882,-88.3836
ON1394,Coulson,,Ontario,CA,44.5763,-79.6157
ON1395,Coulson's Hill,,Ontario,CA,44.1634,-79.5769
ON1396,Coulterville,,Ontario,CA,43.8319,-80.0297
ON1397,Country Hills,,Ontario,CA,43.4150,-80.4739
ON1398,Country Place,,Ontario,CA,45.3217,-75.7072
ON1399,County of Brant,,Ontario,CA,43.1392,-80.2814
ON1400,Courtice,,Ontario,CA,43.9117,-78.7782
ON1401,Courtland,,Ontario,CA,42.8425,-80.6333
ON1402,Courtland Park,,Ontario,CA,45.3713,-75.7121
ON1403,Courtright,,Ontario,CA,42.8186,-82.4689
ON1404,Coutnac Beach,,Ontario,CA,44.8299,-79.9171
ON1405,Couttsville,,Ontario,CA,47.6675,-79.6944
ON1406,Cove Beach,,Ontario,CA,44.7472,-80.1136
ON1407,Cove Beach,,Ontario,CA,43.9217,-77.1776
ON1408,Cove Inlet,,Ontario,CA,49.3528,-88.1319
ON1409,Coventry,,Ontario,CA,43.9042,-79.7308
ON1410,Coverdale,,Ontario,CA,43.9611,-78.1443
ON1411,Cowan's Bay,,Ontario,CA,44.3358,-78.5433
ON1412,Coxvale,,Ontario,CA,44.8797,-76.8703
ON1413,Coyle,,Ontario,CA,42.9809,-79.2707
ON1414,Cozy Corners,,Ontario,CA,48.9431,-94.2947
ON1415,Craig Henry,,Ontario,CA,45.3325,-75.7683
ON1416,Craig Shore,,Ontario,CA,45.0417,-76.1678
ON1417,Craighurst,,Ontario,CA,44.5291,-79.7257
ON1418,Craigleith,,Ontario,CA,44.5246,-80.3296
ON1419,Craigmawr Beach,,Ontario,CA,44.2387,-79.4729
ON1420,Craigmont,,Ontario,CA,45.2958,-77.6350
ON1421,Craigsholme,,Ontario,CA,43.7817,-80.2769
ON1422,Crampton,,Ontario,CA,42.9446,-80.9423
ON1423,Cranberry,,Ontario,CA,45.9117,-80.5728
ON1424,Cranbrook,,Ontario,CA,43.7035,-81.1940
ON1425,Cranston,,Ontario,CA,42.9994,-79.9292
ON1426,Crathie,,Ontario,CA,43.0290,-81.6304
ON1427,Crawford,,Ontario,CA,44.2618,-80.9322
ON1428,Crawford's Grove,,Ontario,CA,44.2764,-78.3339
ON1429,Crean Hill,,Ontario,CA,46.4272,-81.3515
ON1430,Crediton,,Ontario,CA,43.3006,-81.5485
ON1431,Creditville,,Ontario,CA,43.1522,-80.6100
ON1432,Cree,,Ontario,CA,49.2110,-84.7088
ON1433,Creek Bank,,Ontario,CA,43.7051,-80.5360
ON1434,Creemore,,Ontario,CA,44.3264,-80.1058
ON1435,Creighton,,Ontario,CA,44.6192,-79.5917
ON1436,Creighton,,Ontario,CA,46.4581,-81.1806
ON1437,Creighton Heights,,Ontario,CA,44.0177,-78.1467
ON1438,Creosote,,Ontario,CA,46.4729,-81.0238
ON1439,Crerar,,Ontario,CA,46.6315,-80.5480
ON1440,Crescent Bay,,Ontario,CA,42.7903,-80.1219
ON1441,Crescent Beach,,Ontario,CA,42.8840,-78.9688
ON1442,Crescent Beach,,Ontario,CA,44.3106,-79.4414
ON1443,Crescent Harbour,,Ontario,CA,44.3724,-79.5317
ON1444,Crescent Park,,Ontario,CA,42.8951,-78.9650
ON1445,Crescent Town,,Ontario,CA,43.6978,-79.2939
ON1446,Cresswell,,Ontario,CA,44.2875,-78.9706
ON1447,Cressy,,Ontario,CA,44.0911,-76.8786
ON1448,Crestview,,Ontario,CA,45.3422,-75.7364
ON1449,Crewe,,Ontario,CA,43.9008,-81.6417
ON1450,Crewsons Corners,,Ontario,CA,43.6301,-80.0864
ON1451,Crieff,,Ontario,CA,43.4242,-80.1515
ON1452,Crilly,,Ontario,CA,48.7504,-92.2773
ON1453,Crinan,,Ontario,CA,42.6500,-81.6661
ON1454,Crofton,,Ontario,CA,44.0686,-77.3117
ON1455,Cromar,,Ontario,CA,42.7875,-82.2617
ON1456,Cromarty,,Ontario,CA,43.4272,-81.3506
ON1457,Crombies,,Ontario,CA,44.0181,-80.1890
ON1458,Crooked Bay,,Ontario,CA,44.9223,-79.7671
ON1459,Crooked Creek,,Ontario,CA,43.9738,-78.5115
ON1460,Crooks,,Ontario,CA,48.0792,-89.5229
ON1461,Crookston,,Ontario,CA,44.4303,-77.4486
ON1462,Crosby,,Ontario,CA,44.6539,-76.2586
ON1463,Cross Lake,,Ontario,CA,45.4114,-77.9218
ON1464,Crosshill,,Ontario,CA,43.5304,-80.7428
ON1465,Crossland,,Ontario,CA,44.5339,-79.9139
ON1466,Crossley Hunter,,Ontario,CA,42.8536,-81.0344
ON1467,Croton,,Ontario,CA,42.6124,-82.0438
ON1468,Crow Lake,,Ontario,CA,49.1732,-93.9290
ON1469,Crow Lake,,Ontario,CA,44.7320,-76.6065
ON1470,Crowe Bridge,,Ontario,CA,44.3833,-77.7550
ON1471,Crowes Landing,,Ontario,CA,44.5628,-78.0648
ON1472,Crowland,,Ontario,CA,42.9832,-79.2527
ON1473,Crown Hill,,Ontario,CA,44.4339,-79.6419
ON1474,Croydon,,Ontario,CA,44.4209,-76.9779
ON1475,Crozier,,Ontario,CA,48.6145,-93.5374
ON1476,Cruickshank,,Ontario,CA,44.5961,-81.0428
ON1477,Crumlin,,Ontario,CA,43.0127,-81.1443
ON1478,Cryderman Subdivision,,Ontario,CA,46.6753,-80.7478
ON1479,Crysler,,Ontario,CA,45.2167,-75.1522
ON1480,Crystal,,Ontario,CA,44.7922,-75.9044
ON1481,Crystal Bay,,Ontario,CA,45.3550,-75.8400
ON1482,Crystal Beach,,Ontario,CA,45.3483,-75.8331
ON1483,Crystal Beach,,Ontario,CA,42.8675,-79.0592
ON1484,Crystal Falls,,Ontario,CA,46.4543,-79.8849
ON1485,Crystal Rock,,Ontario,CA,44.7965,-75.4940
ON1486,Crystal Springs,,Ontario,CA,44.2257,-78.3172
ON1487,Culloden,,Ontario,CA,42.8894,-80.8472
ON1488,Cultus,,Ontario,CA,42.6347,-80.6142
ON1489,Cumberland,,Ontario,CA,45.5182,-75.4076
ON1490,Cumberland,,Ontario,CA,45.4333,-75.4333
ON1491,Cumberland Beach,,Ontario,CA,44.7029,-79.3856
ON1492,Cumnock,,Ontario,CA,43.7597,-80.4569
ON1493,Cundles,,Ontario,CA,44.4053,-79.7036
ON1494,Cunningham's Corners,,Ontario,CA,44.3371,-78.6904
ON1495,Curran,,Ontario,CA,45.4953,-74.9947
ON1496,Curries,,Ontario,CA,43.0617,-80.7169
ON1497,Curry Hill,,Ontario,CA,45.2072,-74.3924
ON1498,Curve Lake,,Ontario,CA,44.4607,-78.3711
ON1499,Cushendall,,Ontario,CA,44.3272,-76.3853
ON1500,Cutler,,Ontario,CA,46.2017,-82.4615
ON1501,Cyrville,,Ontario,CA,45.4247,-75.6342
ON1502,Côte-de-Sable,,Ontario,CA,45.4252,-75.6786
ON1503,Dacre,,Ontario,CA,45.3707,-76.9660
ON1504,Dagmar,,Ontario,CA,44.0022,-79.0375
ON1505,Dahlia,,Ontario,CA,45.7834,-77.5518
ON1506,Dain City,,Ontario,CA,42.9458,-79.2433
ON1507,Dale,,Ontario,CA,43.9869,-78.2911
ON1508,Dalhousie Lake,,Ontario,CA,44.9586,-76.6003
ON1509,Dalhousie Mills,,Ontario,CA,45.3173,-74.4711
ON1510,Dalkeith,,Ontario,CA,45.4456,-74.5731
ON1511,Dalmeny,,Ontario,CA,45.1461,-75.5308
ON1512,Dalrymple,,Ontario,CA,44.6408,-79.1039
ON1513,Dalston,,Ontario,CA,44.4818,-79.6832
ON1514,Dalton,,Ontario,CA,48.1544,-84.0336
ON1515,Dalton Mills,,Ontario,CA,48.1217,-84.0711
ON1516,Damascus,,Ontario,CA,43.9164,-80.4821
ON1517,Dana,,Ontario,CA,48.8392,-84.1442
ON1518,Dancaster Courts,,Ontario,CA,43.2125,-79.9886
ON1519,Dance,,Ontario,CA,48.7678,-93.6703
ON1520,Dane,,Ontario,CA,48.0722,-80.0314
ON1521,Danforth Station,,Ontario,CA,43.6861,-79.2997
ON1522,Darbyville,,Ontario,CA,43.5450,-80.0644
ON1523,Darling,,Ontario,CA,44.9578,-79.6319
ON1524,Darling Road,,Ontario,CA,42.9669,-79.6996
ON1525,Darlingside,,Ontario,CA,44.3675,-75.9708
ON1526,Darlington,,Ontario,CA,43.8783,-78.7854
ON1527,Darrell,,Ontario,CA,42.4781,-82.1828
ON1528,Dartford,,Ontario,CA,44.2222,-77.9389
ON1529,Dashwood,,Ontario,CA,43.3460,-81.6354
ON1530,Daventry,,Ontario,CA,46.0610,-78.6685
ON1531,Davidson's Corners,,Ontario,CA,44.0243,-78.3016
ON1532,Davidsons Beach,,Ontario,CA,44.3647,-76.5492
ON1533,Davis Lock,,Ontario,CA,44.5647,-76.2889
ON1534,Davis Mills,,Ontario,CA,45.7564,-77.2039
ON1535,Davisville,,Ontario,CA,43.7019,-79.3889
ON1536,Dawn Mills,,Ontario,CA,42.5847,-82.1294
ON1537,Dawn Valley,,Ontario,CA,42.6578,-82.2275
ON1538,Day Mills,,Ontario,CA,46.2950,-83.3528
ON1539,Dayton,,Ontario,CA,46.2519,-83.3533
ON1540,Daytonia Beach,,Ontario,CA,44.4803,-78.7314
ON1541,Daytown,,Ontario,CA,44.6311,-76.1086
ON1542,De Grassi Point,,Ontario,CA,44.2552,-79.5295
ON1543,DeCew Falls,,Ontario,CA,43.1097,-79.2653
ON1544,DeWitts Corners,,Ontario,CA,44.8449,-76.3623
ON1545,Deacon,,Ontario,CA,45.6021,-77.3799
ON1546,Dealtown,,Ontario,CA,42.2481,-82.0982
ON1547,Dean Lake,,Ontario,CA,46.2150,-83.1550
ON1548,Deanlea Beach,,Ontario,CA,44.6150,-79.9969
ON1549,Deans,,Ontario,CA,45.9071,-79.3546
ON1550,Dearlock,,Ontario,CA,48.8408,-94.0956
ON1551,Decewsville,,Ontario,CA,42.9369,-79.9114
ON1552,Decker Hollow,,Ontario,CA,44.0127,-78.4693
ON1553,Deckers Hill,,Ontario,CA,43.8646,-79.0811
ON1554,Dee Bank,,Ontario,CA,45.1797,-79.5231
ON1555,Deemerton,,Ontario,CA,44.0483,-81.0778
ON1556,Deep Bay,,Ontario,CA,44.8532,-78.7993
ON1557,Deep River,,Ontario,CA,46.0503,-77.4178
ON1558,Deer Bay,,Ontario,CA,44.5432,-78.2780
ON1559,Deer Lake,,Ontario,CA,45.0558,-78.0806
ON1560,Deer Lake,,Ontario,CA,52.6475,-94.1975
ON1561,Deer Park,,Ontario,CA,43.6797,-79.4111
ON1562,Deerbrook,,Ontario,CA,42.2942,-82.6231
ON1563,Deerhurst,,Ontario,CA,44.1829,-79.5812
ON1564,Dejong,,Ontario,CA,43.0038,-81.7668
ON1565,Del Ray,,Ontario,CA,43.7036,-79.4832
ON1566,Delamere,,Ontario,CA,46.1732,-80.7115
ON1567,Delaware,,Ontario,CA,42.9097,-81.4211
ON1568,Delaware West,,Ontario,CA,42.9033,-81.4303
ON1569,Delhi,,Ontario,CA,42.8494,-80.4917
ON1570,Delisle's Corners,,Ontario,CA,42.1850,-83.0175
ON1571,Delmer,,Ontario,CA,42.8711,-80.7958
ON1572,Delnite,,Ontario,CA,48.4361,-81.2997
ON1573,Deloro,,Ontario,CA,44.5116,-77.6235
ON1574,Delrex,,Ontario,CA,43.6444,-79.9153
ON1575,Delta,,Ontario,CA,44.6088,-76.1230
ON1576,Demorestville,,Ontario,CA,44.0921,-77.2098
ON1577,Denbigh,,Ontario,CA,45.1390,-77.2731
ON1578,Denfield,,Ontario,CA,43.1282,-81.4323
ON1579,Denison,,Ontario,CA,48.6142,-85.4317
ON1580,Departure Lake,,Ontario,CA,49.2877,-81.7979
ON1581,Depew,,Ontario,CA,48.5467,-85.2034
ON1582,Depot Harbour,,Ontario,CA,45.3171,-80.0995
ON1583,Dereham Centre,,Ontario,CA,42.9259,-80.8116
ON1584,Derland,,Ontario,CA,46.2233,-79.3478
ON1585,Dermid,,Ontario,CA,48.6788,-93.7380
ON1586,Derry West,,Ontario,CA,43.6461,-79.7058
ON1587,Derrynane,,Ontario,CA,43.9454,-80.5895
ON1588,Derryville,,Ontario,CA,44.3247,-79.0886
ON1589,Derwent,,Ontario,CA,42.9243,-81.0983
ON1590,Desbarats,,Ontario,CA,46.3476,-83.9242
ON1591,Desboro,,Ontario,CA,44.3989,-80.9889
ON1592,Deseronto,,Ontario,CA,44.1966,-77.0510
ON1593,Desert Lake,,Ontario,CA,44.5128,-76.5969
ON1594,Desmond,,Ontario,CA,44.3956,-76.8403
ON1595,Detlor,,Ontario,CA,45.0338,-77.7359
ON1596,Deux-Rivières,,Ontario,CA,46.2492,-78.2935
ON1597,Devizes,,Ontario,CA,43.1694,-81.2280
ON1598,Devlin,,Ontario,CA,48.6186,-93.6721
ON1599,Devon,,Ontario,CA,47.7633,-83.3694
ON1600,Devonshire,,Ontario,CA,48.8194,-80.8246
ON1601,Dewars,,Ontario,CA,45.4767,-76.4778
ON1602,Dexter,,Ontario,CA,42.6739,-81.1283
ON1603,Diamond Lake,,Ontario,CA,48.1125,-79.7525
ON1604,Dickson Hill,,Ontario,CA,43.9431,-79.2775
ON1605,Dicksons Corners,,Ontario,CA,43.0465,-80.9496
ON1606,Dill Siding,,Ontario,CA,46.4256,-80.8389
ON1607,Dillon,,Ontario,CA,45.4250,-80.3219
ON1608,Dinner Point Depot,,Ontario,CA,45.9926,-81.7340
ON1609,Dinorwic,,Ontario,CA,49.6917,-92.4956
ON1610,Dirleton,,Ontario,CA,45.4953,-76.1428
ON1611,Dishnish,,Ontario,CA,48.8552,-83.7174
ON1612,Diver,,Ontario,CA,46.7186,-79.5019
ON1613,Dixie,,Ontario,CA,43.5975,-79.6014
ON1614,Dixie,,Ontario,CA,43.8576,-79.1210
ON1615,Dixon,,Ontario,CA,45.0875,-74.9764
ON1616,Dixons Corners,,Ontario,CA,44.9236,-75.3511
ON1617,Dobbinton,,Ontario,CA,44.3908,-81.1331
ON1618,Dobie,,Ontario,CA,48.1331,-79.8215
ON1619,Dock Siding,,Ontario,CA,45.1914,-79.7824
ON1620,Dockmure,,Ontario,CA,45.2994,-79.9572
ON1621,Doe Lake,,Ontario,CA,45.5532,-79.4264
ON1622,Dogs Nest,,Ontario,CA,42.8050,-80.1642
ON1623,Doherty,,Ontario,CA,46.9747,-79.7425
ON1624,Dokis,,Ontario,CA,46.1309,-80.0313
ON1625,Dome,,Ontario,CA,48.4644,-81.2428
ON1626,Dome Extension,,Ontario,CA,48.4625,-81.2331
ON1627,Dominionville,,Ontario,CA,45.2594,-74.8314
ON1628,Domville,,Ontario,CA,44.7611,-75.5558
ON1629,Don Lita,,Ontario,CA,46.5181,-80.9192
ON1630,Don Mills,,Ontario,CA,43.7358,-79.3419
ON1631,Don Vale,,Ontario,CA,43.6728,-79.3656
ON1632,Donald,,Ontario,CA,44.9819,-78.5319
ON1633,Donaldson,,Ontario,CA,44.9842,-76.7381
ON1634,Donegal,,Ontario,CA,43.6299,-80.9622
ON1635,Donegal,,Ontario,CA,45.5024,-77.1369
ON1636,Dongola,,Ontario,CA,44.7432,-78.7570
ON1637,Donnybrook,,Ontario,CA,43.8364,-81.4819
ON1638,Donwood,,Ontario,CA,44.3281,-78.2831
ON1639,Doon,,Ontario,CA,43.3918,-80.4121
ON1640,Dorchester,,Ontario,CA,42.9865,-81.0581
ON1641,Dorion,,Ontario,CA,48.7945,-88.5415
ON1642,Dorion Landing,,Ontario,CA,48.7831,-88.5286
ON1643,Dorking,,Ontario,CA,43.6481,-80.7546
ON1644,Dorland,,Ontario,CA,44.0836,-77.0072
ON1645,Dorland,,Ontario,CA,43.1114,-80.7932
ON1646,Dornie,,Ontario,CA,45.3162,-74.7115
ON1647,Dornoch,,Ontario,CA,44.3113,-80.8565
ON1648,Dorset,,Ontario,CA,45.2447,-78.8928
ON1649,Dorset Park,,Ontario,CA,43.7525,-79.2806
ON1650,Dorset Park,,Ontario,CA,43.5269,-79.8775
ON1651,Doré Bay,,Ontario,CA,45.6437,-77.2290
ON1652,Douglas,,Ontario,CA,45.5097,-76.9391
ON1653,Douglas,,Ontario,CA,45.4917,-76.9208
ON1654,Douglastown,,Ontario,CA,42.9706,-79.0246
ON1655,Douro,,Ontario,CA,44.3767,-78.1936
ON1656,Dover Centre,,Ontario,CA,42.4899,-82.3179
ON1657,Dover Heights,,Ontario,CA,45.0142,-74.7603
ON1658,Dowling,,Ontario,CA,46.5911,-81.3392
ON1659,Downard,,Ontario,CA,48.9864,-80.9396
ON1660,Downers Corners,,Ontario,CA,44.2906,-78.2967
ON1661,Downeys,,Ontario,CA,43.4788,-80.2279
ON1662,Downeyville,,Ontario,CA,44.3725,-78.5932
ON1663,Downsview,,Ontario,CA,43.7307,-79.4906
ON1664,Doyles,,Ontario,CA,42.3363,-82.1652
ON1665,Dracon,,Ontario,CA,43.8193,-80.3821
ON1666,Dranoel,,Ontario,CA,44.1650,-78.5333
ON1667,Drayton,,Ontario,CA,43.7546,-80.6715
ON1668,Drefal,,Ontario,CA,47.2631,-82.0528
ON1669,Dresden,,Ontario,CA,42.5903,-82.1815
ON1670,Drew,,Ontario,CA,43.9789,-80.8883
ON1671,Driftwood,,Ontario,CA,49.1414,-81.3828
ON1672,Drocourt,,Ontario,CA,45.7719,-80.3492
ON1673,Dromore,,Ontario,CA,44.1174,-80.6669
ON1674,Drumbo,,Ontario,CA,43.2360,-80.5534
ON1675,Drummond,,Ontario,CA,44.2562,-78.2256
ON1676,Drummond Centre,,Ontario,CA,44.9956,-76.2311
ON1677,Drummond Heights,,Ontario,CA,43.0688,-79.1032
ON1678,Drumquin,,Ontario,CA,43.5358,-79.7811
ON1679,Drury,,Ontario,CA,46.3808,-81.5056
ON1680,Dryden,,Ontario,CA,43.8150,-80.8861
ON1681,Dryden,,Ontario,CA,49.7800,-92.8339
ON1682,Dryden,,Ontario,CA,49.7833,-92.7653
ON1683,Dryden's Corner,,Ontario,CA,45.7127,-82.2713
ON1684,Drysdale,,Ontario,CA,43.4503,-81.7013
ON1685,Duart,,Ontario,CA,42.5019,-81.7518
ON1686,Dublin,,Ontario,CA,48.9369,-87.9219
ON1687,Dublin,,Ontario,CA,43.5042,-81.2861
ON1688,Duclos Point,,Ontario,CA,44.3512,-79.2496
ON1689,Dudley,,Ontario,CA,45.0462,-79.6190
ON1690,Duff Corners,,Ontario,CA,44.3989,-77.2914
ON1691,Duff's Corners,,Ontario,CA,43.1950,-80.0222
ON1692,Dufferin,,Ontario,CA,42.9778,-79.9767
ON1693,Dufferin Bridge,,Ontario,CA,45.4731,-79.6819
ON1694,Duffy,,Ontario,CA,42.9347,-78.9672
ON1695,Duffy,,Ontario,CA,45.0809,-79.7090
ON1696,Dugwal,,Ontario,CA,48.5797,-81.0149
ON1697,Duke Crossing,,Ontario,CA,45.9614,-77.3669
ON1698,Dulcemaine,,Ontario,CA,44.4479,-76.0506
ON1699,Duluth Junction,,Ontario,CA,48.6196,-93.3838
ON1700,Dunbar,,Ontario,CA,45.0442,-75.2314
ON1701,Dunbarton,,Ontario,CA,43.8285,-79.1207
ON1702,Dunblane,,Ontario,CA,44.3858,-81.3015
ON1703,Dunboyne,,Ontario,CA,42.7125,-80.9849
ON1704,Duncan,,Ontario,CA,44.4222,-80.4764
ON1705,Dunchurch,,Ontario,CA,45.6486,-79.8512
ON1706,Duncrief,,Ontario,CA,43.0705,-81.4623
ON1707,Dundalk,,Ontario,CA,44.1704,-80.3935
ON1708,Dundas,,Ontario,CA,43.2729,-79.9422
ON1709,Dundela,,Ontario,CA,44.9404,-75.3060
ON1710,Dundonald,,Ontario,CA,44.0679,-77.8610
ON1711,Dundurn,,Ontario,CA,42.9611,-80.3019
ON1712,Dunedin,,Ontario,CA,44.2974,-80.1747
ON1713,Dungannon,,Ontario,CA,43.8543,-81.5993
ON1714,Dunkeld,,Ontario,CA,44.1636,-81.2132
ON1715,Dunkerron,,Ontario,CA,44.0408,-79.6633
ON1716,Dunlop,,Ontario,CA,43.7769,-81.6994
ON1717,Dunn's Corner,,Ontario,CA,43.0778,-80.8934
ON1718,Dunnet's Corner,,Ontario,CA,46.3778,-80.3525
ON1719,Dunnette Landing,,Ontario,CA,44.1933,-78.1031
ON1720,Dunning,,Ontario,CA,49.0444,-80.8319
ON1721,Dunns Valley,,Ontario,CA,46.4666,-83.6247
ON1722,Dunnville,,Ontario,CA,42.9000,-79.6167
ON1723,Dunrankin,,Ontario,CA,48.5782,-83.1167
ON1724,Dunrobin,,Ontario,CA,45.4215,-76.0200
ON1725,Dunrobin Shore,,Ontario,CA,45.4573,-75.9654
ON1726,Dunsford,,Ontario,CA,44.4519,-78.6428
ON1727,Duntroon,,Ontario,CA,44.3992,-80.1947
ON1728,Dunvegan,,Ontario,CA,45.3636,-74.8188
ON1729,Durham,,Ontario,CA,44.1779,-80.8175
ON1730,Dutch Line,,Ontario,CA,44.8618,-78.6239
ON1731,Duthill,,Ontario,CA,42.6919,-82.3907
ON1732,Dutton,,Ontario,CA,42.6647,-81.5021
ON1733,Duttona Beach,,Ontario,CA,42.5850,-81.4689
ON1734,Dwight,,Ontario,CA,45.3300,-79.0125
ON1735,Dwyer Hill,,Ontario,CA,45.1257,-75.9470
ON1736,Dyer,,Ontario,CA,45.2703,-74.9142
ON1737,Dyer's Bay,,Ontario,CA,45.1631,-81.3389
ON1738,Dyment,,Ontario,CA,49.6156,-92.3150
ON1739,Dymond,,Ontario,CA,47.5375,-79.6719
ON1740,Dynes,,Ontario,CA,43.3450,-79.7854
ON1741,Désaulniers,,Ontario,CA,46.5522,-80.1097
ON1742,Eabamet Lake,,Ontario,CA,51.5560,-87.9873
ON1743,Eades,,Ontario,CA,48.9387,-79.8804
ON1744,Eads Bush,,Ontario,CA,45.9336,-81.9367
ON1745,Eady,,Ontario,CA,44.6537,-79.6178
ON1746,Eagle,,Ontario,CA,42.5678,-81.5619
ON1747,Eagle Lake,,Ontario,CA,45.1274,-78.5099
ON1748,Eagle Lake,,Ontario,CA,45.7947,-79.4786
ON1749,Eagle Mountain,,Ontario,CA,49.0525,-88.6078
ON1750,Eagle Place,,Ontario,CA,43.1322,-80.2721
ON1751,Eagle River,,Ontario,CA,49.7919,-93.1947
ON1752,Eagles Nest,,Ontario,CA,45.7158,-81.9192
ON1753,Eaglesons Corners,,Ontario,CA,45.3043,-75.8758
ON1754,Eamers Corners,,Ontario,CA,45.0598,-74.7652
ON1755,Ear Falls,,Ontario,CA,50.6384,-93.2366
ON1756,Earlton,,Ontario,CA,47.7102,-79.8212
ON1757,Earnscliffe,,Ontario,CA,44.1353,-80.0642
ON1758,East Colborne,,Ontario,CA,44.0107,-77.8676
ON1759,East Creighton,,Ontario,CA,46.4631,-81.1760
ON1760,East Gwillimbury,,Ontario,CA,44.1392,-79.4239
ON1761,East Harrow,,Ontario,CA,42.0350,-82.8908
ON1762,East Hungerford,,Ontario,CA,44.5025,-77.1539
ON1763,East Korah,,Ontario,CA,46.5656,-84.3500
ON1764,East Linton,,Ontario,CA,44.6467,-80.9385
ON1765,East McKirdy,,Ontario,CA,49.2736,-88.1333
ON1766,East Oakland,,Ontario,CA,43.0322,-80.2842
ON1767,East Oro,,Ontario,CA,44.5307,-79.4962
ON1768,East Oxford,,Ontario,CA,44.9189,-75.6506
ON1769,East Preston,,Ontario,CA,43.3881,-80.3422
ON1770,East Windsor,,Ontario,CA,42.3200,-82.9883
ON1771,East York,,Ontario,CA,43.7039,-79.3404
ON1772,Eastbourne,,Ontario,CA,44.2940,-79.4832
ON1773,Eastford,,Ontario,CA,49.2539,-81.1031
ON1774,Eastons Corners,,Ontario,CA,44.8388,-75.8843
ON1775,Eastside,,Ontario,CA,46.5233,-84.2689
ON1776,Eastview,,Ontario,CA,44.2596,-76.3813
ON1777,Eastview,,Ontario,CA,46.3221,-79.4379
ON1778,Eastview,,Ontario,CA,49.4240,-82.4135
ON1779,Eastway Gardens,,Ontario,CA,45.4180,-75.6443
ON1780,Eastwood,,Ontario,CA,43.1425,-80.6672
ON1781,Eatonville,,Ontario,CA,42.3650,-81.8833
ON1782,Eau Claire,,Ontario,CA,46.2489,-78.8900
ON1783,Eau Claire Station,,Ontario,CA,46.2735,-78.9183
ON1784,Ebbs Shore,,Ontario,CA,45.0425,-76.1942
ON1785,Ebenezer,,Ontario,CA,43.7722,-79.6633
ON1786,Ebenezer,,Ontario,CA,44.3861,-76.0474
ON1787,Ebenezer,,Ontario,CA,44.3204,-77.1032
ON1788,Ebenezer,,Ontario,CA,44.6889,-79.8158
ON1789,Eberts,,Ontario,CA,42.5018,-82.1815
ON1790,Echo,,Ontario,CA,44.6017,-76.7531
ON1791,Echo Bay,,Ontario,CA,46.4854,-84.0673
ON1792,Echo Beach,,Ontario,CA,45.1947,-79.4590
ON1793,Echo Place,,Ontario,CA,43.1469,-80.2153
ON1794,Echo River,,Ontario,CA,46.5097,-84.0375
ON1795,Eddystone,,Ontario,CA,44.0559,-78.0192
ON1796,Eden,,Ontario,CA,42.7933,-80.7460
ON1797,Eden Grove,,Ontario,CA,44.4014,-76.0947
ON1798,Eden Grove,,Ontario,CA,44.2157,-81.2406
ON1799,Eden Mills,,Ontario,CA,43.5786,-80.1433
ON1800,Edenhurst,,Ontario,CA,44.9191,-81.2610
ON1801,Edenvale,,Ontario,CA,44.4508,-79.9019
ON1802,Edgar,,Ontario,CA,44.5084,-79.6212
ON1803,Edgars,,Ontario,CA,42.1556,-82.9089
ON1804,Edge Hill,,Ontario,CA,44.2294,-80.7981
ON1805,Edgeley,,Ontario,CA,43.7914,-79.5203
ON1806,Edgewater Beach,,Ontario,CA,42.1509,-83.1124
ON1807,Edgewood Park,,Ontario,CA,44.2778,-78.4358
ON1808,Edgewood Park,,Ontario,CA,42.9049,-78.9852
ON1809,Edison,,Ontario,CA,49.8120,-93.5299
ON1810,Edmison Heights,,Ontario,CA,44.3388,-78.3205
ON1811,Edmore Beach,,Ontario,CA,44.6006,-80.0081
ON1812,Edville,,Ontario,CA,44.0586,-77.8231
ON1813,Edwards,,Ontario,CA,45.3225,-75.4664
ON1814,Edys Mills,,Ontario,CA,42.7388,-82.1230
ON1815,Effingham,,Ontario,CA,43.0744,-79.3072
ON1816,Egan Creek,,Ontario,CA,45.0488,-77.7111
ON1817,Egan Creek,,Ontario,CA,44.9657,-77.7286
ON1818,Eganville,,Ontario,CA,45.5408,-77.0997
ON1819,Egbert,,Ontario,CA,44.2338,-79.7610
ON1820,Egerton,,Ontario,CA,44.0081,-80.5213
ON1821,Egmondville,,Ontario,CA,43.5447,-81.4029
ON1822,Egypt,,Ontario,CA,44.2700,-79.3046
ON1823,Eight Mile Point,,Ontario,CA,44.5139,-79.4281
ON1824,Ekfrid,,Ontario,CA,42.7597,-81.6019
ON1825,Elba,,Ontario,CA,44.0542,-80.1319
ON1826,Elcho,,Ontario,CA,43.0149,-79.5545
ON1827,Elco Beach,,Ontario,CA,42.8792,-79.1539
ON1828,Eldee,,Ontario,CA,46.6500,-79.0872
ON1829,Elder,,Ontario,CA,44.0719,-80.0497
ON1830,Elder Mills,,Ontario,CA,43.8067,-79.6308
ON1831,Elder Station,,Ontario,CA,43.8089,-79.6333
ON1832,Eldon,,Ontario,CA,44.5094,-79.0136
ON1833,Eldorado,,Ontario,CA,44.5878,-77.5194
ON1834,Eldorado Park,,Ontario,CA,43.6464,-79.7727
ON1835,Electric,,Ontario,CA,42.5177,-82.3521
ON1836,Eley,,Ontario,CA,46.2224,-83.2371
ON1837,Elford,,Ontario,CA,42.1053,-82.8178
ON1838,Elfrida,,Ontario,CA,43.1744,-79.7811
ON1839,Elgin,,Ontario,CA,44.6078,-76.2211
ON1840,Elgin Mills,,Ontario,CA,43.8942,-79.4431
ON1841,Elginburg,,Ontario,CA,44.3192,-76.5419
ON1842,Elginfield,,Ontario,CA,43.1673,-81.3559
ON1843,Elimere Point,,Ontario,CA,44.7533,-79.8485
ON1844,Elimville,,Ontario,CA,43.3331,-81.4011
ON1845,Elizabeth,,Ontario,CA,48.7350,-91.8392
ON1846,Elizabeth Bay,,Ontario,CA,45.8206,-82.7002
ON1847,Elizabeth Gardens,,Ontario,CA,43.3713,-79.7381
ON1848,Elizabeth Park,,Ontario,CA,45.3350,-75.6732
ON1849,Elizabethville,,Ontario,CA,44.0424,-78.4634
ON1850,Elk Lake,,Ontario,CA,47.7308,-80.3344
ON1851,Ellengowan,,Ontario,CA,44.2585,-81.2407
ON1852,Ellesmere,,Ontario,CA,43.7661,-79.2844
ON1853,Elliot Lake,,Ontario,CA,46.3811,-82.6572
ON1854,Elliott,,Ontario,CA,44.8381,-76.4019
ON1855,Elliotts Corners,,Ontario,CA,44.7114,-79.8119
ON1856,Ellis,,Ontario,CA,48.5639,-89.7046
ON1857,Ellisville,,Ontario,CA,44.4895,-76.1562
ON1858,Ellsmere Village,,Ontario,CA,46.5764,-79.6386
ON1859,Ellwood,,Ontario,CA,45.3667,-75.6642
ON1860,Elm,,Ontario,CA,45.3558,-76.0936
ON1861,Elm Tree,,Ontario,CA,44.6866,-77.0166
ON1862,Elm Tree Corners,,Ontario,CA,44.3139,-78.7886
ON1863,Elma,,Ontario,CA,45.0158,-75.2331
ON1864,Elmbrook,,Ontario,CA,44.0559,-77.1416
ON1865,Elmdale,,Ontario,CA,42.0428,-82.4806
ON1866,Elmgrove,,Ontario,CA,44.1928,-79.8206
ON1867,Elmgrove,,Ontario,CA,44.8321,-76.2083
ON1868,Elmhedge,,Ontario,CA,44.5531,-80.6806
ON1869,Elmhurst Beach,,Ontario,CA,44.2167,-79.4683
ON1870,Elmira,,Ontario,CA,43.5933,-80.5624
ON1871,Elmstead,,Ontario,CA,42.2889,-82.8460
ON1872,Elmvale,,Ontario,CA,44.5839,-79.8669
ON1873,Elmvale Acres,,Ontario,CA,45.3965,-75.6321
ON1874,Elmview,,Ontario,CA,46.6494,-80.9917
ON1875,Elmwood,,Ontario,CA,44.2292,-76.6283
ON1876,Elmwood,,Ontario,CA,44.2429,-81.0563
ON1877,Eloida,,Ontario,CA,44.6793,-75.9667
ON1878,Elora,,Ontario,CA,43.6850,-80.4271
ON1879,Elphin,,Ontario,CA,44.9228,-76.6168
ON1880,Elsas,,Ontario,CA,48.5216,-82.9045
ON1881,Elsinore,,Ontario,CA,44.5236,-81.2431
ON1882,Elzevir,,Ontario,CA,44.6406,-77.2736
ON1883,Embro,,Ontario,CA,43.1552,-80.9006
ON1884,Embrun,,Ontario,CA,45.2750,-75.2767
ON1885,Emerald,,Ontario,CA,44.1472,-76.7756
ON1886,Emery,,Ontario,CA,44.3849,-76.1393
ON1887,Emery,,Ontario,CA,43.7525,-79.5442
ON1888,Emeryville,,Ontario,CA,42.2962,-82.7605
ON1889,Emo,,Ontario,CA,48.6322,-93.8372
ON1890,Empey Hill,,Ontario,CA,44.2568,-77.0691
ON1891,Empire Corners,,Ontario,CA,43.0419,-79.7994
ON1892,Emsdale,,Ontario,CA,45.5279,-79.3168
ON1893,Ena Lake,,Ontario,CA,49.9721,-94.5228
ON1894,Enfield,,Ontario,CA,44.0200,-78.8357
ON1895,Englehart,,Ontario,CA,47.8232,-79.8735
ON1896,English Line,,Ontario,CA,44.2761,-77.7342
ON1897,English River,,Ontario,CA,49.1742,-90.8614
ON1898,English River,,Ontario,CA,49.2268,-90.9657
ON1899,Ennisclare Park,,Ontario,CA,43.4658,-79.6533
ON1900,Enniskerry,,Ontario,CA,45.2023,-75.5685
ON1901,Enniskillen,,Ontario,CA,44.0156,-78.7700
ON1902,Ennismore,,Ontario,CA,44.4094,-78.4322
ON1903,Ennotville,,Ontario,CA,43.6568,-80.3294
ON1904,Enterprise,,Ontario,CA,44.4608,-76.8786
ON1905,Epping,,Ontario,CA,44.4581,-80.5550
ON1906,Epsom,,Ontario,CA,44.0948,-79.0374
ON1907,Eramosa,,Ontario,CA,43.6181,-80.2147
ON1908,Erbsville,,Ontario,CA,43.4805,-80.6043
ON1909,Erie,,Ontario,CA,42.9003,-80.0044
ON1910,Erie Beach,,Ontario,CA,42.8940,-78.9290
ON1911,Erie Beach,,Ontario,CA,42.2656,-82.0006
ON1912,Erie Curve,,Ontario,CA,42.0406,-82.6008
ON1913,Erie Rest,,Ontario,CA,42.6632,-81.2330
ON1914,Erie View,,Ontario,CA,42.5964,-80.5156
ON1915,Erieau,,Ontario,CA,42.2607,-81.9224
ON1916,Erin,,Ontario,CA,43.7425,-80.1242
ON1917,Erin,,Ontario,CA,43.7692,-80.0669
ON1918,Erin Mills,,Ontario,CA,43.5400,-79.6849
ON1919,Erindale,,Ontario,CA,43.5446,-79.6513
ON1920,Erindale Woodlands,,Ontario,CA,43.5583,-79.6546
ON1921,Eringate,,Ontario,CA,43.6603,-79.5867
ON1922,Erinsville,,Ontario,CA,44.4849,-77.0510
ON1923,Ernestown,,Ontario,CA,44.2181,-76.7517
ON1924,Errettsville,,Ontario,CA,47.8313,-79.8674
ON1925,Errol,,Ontario,CA,43.0468,-82.1925
ON1926,Escott,,Ontario,CA,44.4444,-75.9258
ON1927,Esher,,Ontario,CA,47.8514,-83.5606
ON1928,Esmonde,,Ontario,CA,45.3914,-77.0556
ON1929,Espanola,,Ontario,CA,46.2420,-81.7573
ON1930,Essa,,Ontario,CA,44.3442,-79.8269
ON1931,Essex,,Ontario,CA,42.0942,-82.9008
ON1932,Essex,,Ontario,CA,42.1731,-82.8189
ON1933,Essonville,,Ontario,CA,45.0035,-78.3073
ON1934,Estaire,,Ontario,CA,46.3106,-80.7953
ON1935,Ethel,,Ontario,CA,43.7226,-81.1382
ON1936,Ethel Park,,Ontario,CA,44.4374,-79.1606
ON1937,Ethel Siding,,Ontario,CA,43.7126,-81.1471
ON1938,Etobicoke,,Ontario,CA,43.6486,-79.5776
ON1939,Etobicoke,,Ontario,CA,43.6928,-79.5581
ON1940,Eton,,Ontario,CA,47.5097,-84.4875
ON1941,Eton Court,,Ontario,CA,43.0423,-82.2107
ON1942,Eton-Rugby,,Ontario,CA,49.8802,-93.0091
ON1943,Etonia,,Ontario,CA,43.1733,-80.4744
ON1944,Ettrick,,Ontario,CA,43.0348,-81.3510
ON1945,Ettyville,,Ontario,CA,45.4276,-75.0924
ON1946,Etwell,,Ontario,CA,45.3425,-79.3539
ON1947,Eugenia,,Ontario,CA,44.3116,-80.5189
ON1948,Eureka,,Ontario,CA,47.2017,-81.9921
ON1949,Evans Corner,,Ontario,CA,44.7411,-79.8186
ON1950,Evansville,,Ontario,CA,46.3889,-79.8997
ON1951,Evansville,,Ontario,CA,45.8149,-82.5759
ON1952,Evanturel,,Ontario,CA,45.6134,-74.7910
ON1953,Evelyn,,Ontario,CA,43.0627,-81.0826
ON1954,Everard,,Ontario,CA,48.9013,-88.3634
ON1955,Everett,,Ontario,CA,44.1914,-79.9403
ON1956,Eversley,,Ontario,CA,43.9523,-79.5091
ON1957,Everton,,Ontario,CA,43.6643,-80.1573
ON1958,Ewan,,Ontario,CA,44.7957,-78.4805
ON1959,Exeter,,Ontario,CA,43.3549,-81.4807
ON1960,Exton,,Ontario,CA,50.1878,-86.7987
ON1961,Eyre Corners,,Ontario,CA,44.6928,-76.1201
ON1962,Facer,,Ontario,CA,43.1764,-79.2239
ON1963,Fair Valley,,Ontario,CA,44.6486,-79.5949
ON1964,Fairbairn Meadows,,Ontario,CA,44.3264,-78.3572
ON1965,Fairbank,,Ontario,CA,43.6906,-79.4543
ON1966,Faircrest,,Ontario,CA,45.3969,-75.6647
ON1967,Fairfax,,Ontario,CA,44.4206,-76.0717
ON1968,Fairfield,,Ontario,CA,44.6588,-75.7310
ON1969,Fairfield East,,Ontario,CA,44.6700,-75.7114
ON1970,Fairfield Heights,,Ontario,CA,45.3505,-75.8006
ON1971,Fairfield Plain,,Ontario,CA,43.0553,-80.4092
ON1972,Fairground,,Ontario,CA,42.6492,-80.6597
ON1973,Fairhaven,,Ontario,CA,43.7003,-79.5428
ON1974,Fairholme,,Ontario,CA,45.5658,-79.9183
ON1975,Fairholme Park,,Ontario,CA,44.8997,-76.2578
ON1976,Fairloch,,Ontario,CA,49.4678,-88.1225
ON1977,Fairmont,,Ontario,CA,42.9808,-81.1828
ON1978,Fairmount,,Ontario,CA,44.4903,-80.5619
ON1979,Fairmount,,Ontario,CA,44.2454,-78.4414
ON1980,Fairmount,,Ontario,CA,44.3142,-76.4636
ON1981,Fairplay,,Ontario,CA,42.2612,-82.8963
ON1982,Fairport,,Ontario,CA,43.8241,-79.0801
ON1983,Fairport Beach,,Ontario,CA,43.8150,-79.1036
ON1984,Fairview,,Ontario,CA,43.1700,-80.2839
ON1985,Fairview,,Ontario,CA,43.2825,-80.9658
ON1986,Fairview,,Ontario,CA,43.5862,-79.6315
ON1987,Fairview,,Ontario,CA,45.7869,-77.1308
ON1988,Fairview,,Ontario,CA,42.7300,-80.8836
ON1989,Fairview Island,,Ontario,CA,45.2248,-79.0687
ON1990,Falconbridge,,Ontario,CA,42.8978,-81.5362
ON1991,Falconbridge,,Ontario,CA,46.5767,-80.8103
ON1992,Falding,,Ontario,CA,45.3014,-79.9108
ON1993,Falgarwood,,Ontario,CA,43.4797,-79.6819
ON1994,Falkenburg Station,,Ontario,CA,45.0996,-79.3489
ON1995,Falkland,,Ontario,CA,43.1700,-80.4300
ON1996,Fallbrook,,Ontario,CA,44.9578,-76.3914
ON1997,Fallowfield,,Ontario,CA,45.2681,-75.8290
ON1998,Fallowfield Station,,Ontario,CA,45.2622,-75.7719
ON1999,Falls View,,Ontario,CA,43.0786,-79.0864
ON2000,Fanshawe,,Ontario,CA,43.0431,-81.2261
ON2001,Faraday,,Ontario,CA,44.9126,-77.9079
ON2002,Farewell,,Ontario,CA,43.9133,-80.7225
ON2003,Fargo,,Ontario,CA,42.3542,-82.0658
ON2004,Farlain Lake,,Ontario,CA,44.8107,-79.9618
ON2005,Farlane,,Ontario,CA,50.0079,-94.2024
ON2006,Farleys Corners,,Ontario,CA,45.9847,-79.6583
ON2007,Farlinger,,Ontario,CA,49.4582,-88.1337
ON2008,Farmington,,Ontario,CA,43.9308,-80.1803
ON2009,Farnham,,Ontario,CA,43.5296,-80.1807
ON2010,Farquhar,,Ontario,CA,43.3757,-81.3584
ON2011,Farrell Corners,,Ontario,CA,44.4511,-77.1344
ON2012,Farrington,,Ontario,CA,48.7713,-92.8219
ON2013,Fassifern,,Ontario,CA,45.3548,-74.6768
ON2014,Fauquier,,Ontario,CA,49.3103,-82.0349
ON2015,Favel,,Ontario,CA,49.9909,-93.9483
ON2016,Favourable Lake,,Ontario,CA,53.0500,-93.3333
ON2017,Fawcettville,,Ontario,CA,44.0217,-77.1373
ON2018,Fawn Bay,,Ontario,CA,44.6370,-79.3532
ON2019,Featherstone,,Ontario,CA,42.8243,-79.8446
ON2020,Federal,,Ontario,CA,45.3435,-75.7029
ON2021,Fee Spur,,Ontario,CA,50.2609,-89.7736
ON2022,Fee's Landing,,Ontario,CA,44.3451,-78.5364
ON2023,Feeder,,Ontario,CA,42.9519,-79.3168
ON2024,Feir Mill,,Ontario,CA,44.2762,-78.6204
ON2025,Felix,,Ontario,CA,47.2057,-81.4086
ON2026,Fell,,Ontario,CA,44.5967,-78.7233
ON2027,Felton,,Ontario,CA,45.2061,-75.3272
ON2028,Fenaghvale,,Ontario,CA,45.4756,-74.8221
ON2029,Fenella,,Ontario,CA,44.1501,-78.0892
ON2030,Fenelon Falls,,Ontario,CA,44.5371,-78.7373
ON2031,Fennell,,Ontario,CA,44.2136,-79.5889
ON2032,Fenwick,,Ontario,CA,43.0248,-79.3610
ON2033,Fenwood Gardens,,Ontario,CA,44.1100,-77.3896
ON2034,Fergus,,Ontario,CA,43.7030,-80.3798
ON2035,Fergus Hill Estate,,Ontario,CA,44.5778,-79.4708
ON2036,Ferguslea,,Ontario,CA,45.4349,-76.7428
ON2037,Ferguson Corners,,Ontario,CA,45.0839,-77.2885
ON2038,Fergusons Beach,,Ontario,CA,45.5176,-76.5713
ON2039,Fergusons Falls,,Ontario,CA,45.0517,-76.2853
ON2040,Fergusonvale,,Ontario,CA,44.5314,-79.8189
ON2041,Ferland,,Ontario,CA,50.3144,-88.4286
ON2042,Fermoy,,Ontario,CA,44.6406,-76.5194
ON2043,Fern Glen,,Ontario,CA,45.4751,-79.3699
ON2044,Fernbank,,Ontario,CA,43.6060,-80.8126
ON2045,Fernbank,,Ontario,CA,44.5571,-75.7236
ON2046,Ferndale,,Ontario,CA,45.1331,-79.5956
ON2047,Ferndale,,Ontario,CA,44.9725,-81.2883
ON2048,Ferndale,,Ontario,CA,43.7721,-79.9225
ON2049,Ferndell,,Ontario,CA,42.6194,-81.6772
ON2050,Fernhill,,Ontario,CA,43.0496,-81.5727
ON2051,Fernlee,,Ontario,CA,45.8569,-82.8071
ON2052,Fernleigh,,Ontario,CA,44.9044,-76.9878
ON2053,Feronia,,Ontario,CA,46.3621,-79.3185
ON2054,Ferris,,Ontario,CA,46.2871,-79.4471
ON2055,Fesserton,,Ontario,CA,44.7378,-79.6764
ON2056,Feversham,,Ontario,CA,44.3392,-80.3739
ON2057,Ficko,,Ontario,CA,45.2811,-75.6275
ON2058,Field,,Ontario,CA,46.5233,-80.0258
ON2059,Fielding,,Ontario,CA,48.6531,-80.8713
ON2060,Fife's Bay,,Ontario,CA,44.3464,-78.4208
ON2061,Filey Beach,,Ontario,CA,44.3172,-79.4081
ON2062,Finch,,Ontario,CA,45.1439,-75.0856
ON2063,Finchley,,Ontario,CA,45.7596,-76.9896
ON2064,Fingal,,Ontario,CA,42.7131,-81.3111
ON2065,Fingerboard,,Ontario,CA,44.2328,-78.9156
ON2066,Finland,,Ontario,CA,48.8568,-93.9154
ON2067,Finmark,,Ontario,CA,48.5817,-89.7557
ON2068,Finntown,,Ontario,CA,48.4834,-81.2221
ON2069,Fire River,,Ontario,CA,48.7663,-83.5990
ON2070,Firth's Corners,,Ontario,CA,44.7361,-79.9061
ON2071,Fisher Glen,,Ontario,CA,45.3509,-75.7110
ON2072,Fisher Heights,,Ontario,CA,45.3661,-75.7202
ON2073,Fisher Mills,,Ontario,CA,43.4356,-80.3358
ON2074,Fisher Park,,Ontario,CA,45.3973,-75.7370
ON2075,Fishers Glen,,Ontario,CA,42.7206,-80.2936
ON2076,Fisherville,,Ontario,CA,43.7867,-79.4707
ON2077,Fisherville,,Ontario,CA,42.8811,-79.9036
ON2078,Fiskes Corners,,Ontario,CA,45.3846,-74.7662
ON2079,Fitzroy,,Ontario,CA,45.4589,-76.2014
ON2080,Fitzroy Harbour,,Ontario,CA,45.4711,-76.2143
ON2081,Five Corners,,Ontario,CA,44.3647,-78.2408
ON2082,Flake,,Ontario,CA,46.6143,-81.0325
ON2083,Flamboro,,Ontario,CA,43.4056,-79.9653
ON2084,Flamboro Centre,,Ontario,CA,43.3601,-79.9350
ON2085,Flamborough,,Ontario,CA,43.3358,-80.0636
ON2086,Flanders,,Ontario,CA,48.7346,-92.0875
ON2087,Flanders Heights,,Ontario,CA,44.6136,-75.7053
ON2088,Flannigan Corners,,Ontario,CA,43.3345,-80.9618
ON2089,Fleetwood,,Ontario,CA,44.2236,-78.6242
ON2090,Fleming's Landing,,Ontario,CA,45.8947,-80.1525
ON2091,Flemingdon Park,,Ontario,CA,43.7181,-79.3322
ON2092,Flesherton,,Ontario,CA,44.2630,-80.5504
ON2093,Flesherton Station,,Ontario,CA,44.2458,-80.5706
ON2094,Fletcher,,Ontario,CA,42.2942,-82.2967
ON2095,Flett,,Ontario,CA,48.6046,-89.7662
ON2096,Flindt Landing,,Ontario,CA,50.2451,-90.4444
ON2097,Flint,,Ontario,CA,48.3392,-89.6797
ON2098,Flintdale,,Ontario,CA,50.0565,-85.5899
ON2099,Flinton,,Ontario,CA,44.6901,-77.2103
ON2100,Flinton Corner,,Ontario,CA,44.7089,-77.1583
ON2101,Flood's Landing,,Ontario,CA,44.4356,-78.4824
ON2102,Floradale,,Ontario,CA,43.6353,-80.5797
ON2103,Floral Park,,Ontario,CA,44.7158,-79.3389
ON2104,Florence,,Ontario,CA,42.6578,-82.0081
ON2105,Florida,,Ontario,CA,44.3339,-76.6844
ON2106,Florida,,Ontario,CA,49.1026,-80.8442
ON2107,Flour Mill,,Ontario,CA,46.5035,-80.9917
ON2108,Flower Station,,Ontario,CA,45.1578,-76.6860
ON2109,Fluorite,,Ontario,CA,46.9761,-81.8158
ON2110,Flynns Turn,,Ontario,CA,44.6142,-78.3825
ON2111,Foldens,,Ontario,CA,43.0364,-80.8028
ON2112,Foleyet,,Ontario,CA,48.2440,-82.4396
ON2113,Folger,,Ontario,CA,45.0675,-76.7219
ON2114,Fontaine's Landing,,Ontario,CA,49.8111,-83.7694
ON2115,Fontainebleau,,Ontario,CA,42.3029,-82.9749
ON2116,Fonthill,,Ontario,CA,43.0439,-79.2875
