id,name,alt_name,region,country,latitude,longitude,tags,km_distance_to_ocean,is_coastal
ON1,10th Line Shore,,Ontario,CA,45.0919,-76.1506,ardac,116.2,False
ON2,Aberarder,,Ontario,CA,43.0528,-82.0939,ardac,641.8,False
ON3,Aberdeen,,Ontario,CA,44.2128,-80.8619,ardac,506.5,False
ON4,Aberdeen,,Ontario,CA,45.4969,-74.6664,ardac,23.9,True
ON5,Aberfeldy,,Ontario,CA,42.7571,-81.9375,ardac,642.6,False
ON6,Aberfoyle,,Ontario,CA,43.4708,-80.1468,ardac,474.4,False
ON7,Abingdon,,Ontario,CA,43.0836,-79.685,ardac,458.1,False
ON8,Abitibi,,Ontario,CA,49.0252,-80.8851,ardac,218.7,False
ON9,Abitibi Canyon,,Ontario,CA,49.8778,-81.5711,ardac,132.4,False
ON10,Abiwin,,Ontario,CA,48.7444,-91.0664,ardac,758.5,False
ON11,Acanthus,,Ontario,CA,46.0307,-78.4044,ardac,315.0,False
ON12,Achigan,,Ontario,CA,46.8842,-84.1714,ardac,512.2,False
ON13,Achill,,Ontario,CA,44.0164,-79.9158,ardac,436.6,False
ON14,Achray,,Ontario,CA,45.8677,-77.7571,ardac,260.9,False
ON15,Actinolite,,Ontario,CA,44.5439,-77.3261,ardac,217.2,False
ON16,Actons Corners,,Ontario,CA,44.9897,-75.7125,ardac,80.6,True
ON17,Adamsdale,,Ontario,CA,46.4894,-80.9078,ardac,480.0,False
ON18,Adamsville,,Ontario,CA,44.8599,-81.1636,ardac,520.6,False
ON19,Adanac,,Ontario,CA,45.4245,-80.3893,ardac,457.7,False
ON20,Adanac,,Ontario,CA,46.9722,-80.0313,ardac,415.9,False
ON21,Addison,,Ontario,CA,44.6606,-75.8822,ardac,101.5,False
ON22,Adelaide,,Ontario,CA,43.0051,-81.7121,ardac,614.3,False
ON23,Adelard,,Ontario,CA,46.2133,-78.0194,ardac,294.5,False
ON24,Admaston,,Ontario,CA,45.4752,-76.8103,ardac,176.0,False
ON25,Adolphustown,,Ontario,CA,44.0636,-77.0033,ardac,212.2,False
ON26,Advance,,Ontario,CA,45.8685,-82.429,ardac,575.0,False
ON27,Agate,,Ontario,CA,48.5227,-82.9636,ardac,310.5,False
ON28,Agawa,,Ontario,CA,47.6654,-84.5026,ardac,450.7,False
ON29,Agawa Bay,,Ontario,CA,47.3479,-84.6266,ardac,485.1,False
ON30,Agerton,,Ontario,CA,43.5556,-79.8078,ardac,444.9,False
ON31,Agincourt,,Ontario,CA,43.7926,-79.2839,ardac,395.1,False
ON32,Agincourt North,,Ontario,CA,43.8028,-79.2686,ardac,393.5,False
ON33,Agonzon,,Ontario,CA,48.9325,-85.9281,ardac,424.4,False
ON34,Ahmic Harbour,,Ontario,CA,45.6615,-79.7775,ardac,411.6,False
ON35,Ahmic Lake,,Ontario,CA,45.6253,-79.6871,ardac,404.0,False
ON36,Aikensville,,Ontario,CA,43.4296,-80.2333,ardac,482.8,False
ON37,Ailsa Craig,,Ontario,CA,43.1514,-81.5365,ardac,594.6,False
ON38,Airlie,,Ontario,CA,44.261,-80.0083,ardac,437.2,False
ON39,Airy,,Ontario,CA,45.4985,-78.2568,ardac,289.2,False
ON40,Ajax,,Ontario,CA,43.8582,-79.0364,ardac,373.5,False
ON41,Akron,,Ontario,CA,48.9035,-84.117,ardac,325.1,False
ON42,Alban,,Ontario,CA,46.1051,-80.6226,ardac,485.8,False
ON43,Albany Forks,,Ontario,CA,49.1167,-84.1811,ardac,311.6,False
ON44,Albert,,Ontario,CA,44.3173,-77.1346,ardac,210.0,False
ON45,Alberton,,Ontario,CA,43.1867,-80.0713,ardac,481.5,False
ON46,Albion,,Ontario,CA,43.9069,-79.8461,ardac,434.6,False
ON47,Albion Falls,,Ontario,CA,43.1972,-79.8183,ardac,462.1,False
ON48,Albuna,,Ontario,CA,42.1361,-82.6381,ardac,726.0,False
ON49,Albury,,Ontario,CA,44.0793,-77.5282,ardac,249.8,False
ON50,Alcona,,Ontario,CA,44.315,-79.5462,ardac,399.1,False
ON51,Alcona,,Ontario,CA,50.0659,-91.7409,ardac,695.4,False
ON52,Aldborough,,Ontario,CA,42.589,-81.6693,ardac,630.4,False
ON53,Alden,,Ontario,CA,48.1914,-84.5436,ardac,405.5,False
ON54,Alder,,Ontario,CA,44.1836,-79.3837,ardac,389.6,False
ON55,Alderdale,,Ontario,CA,46.1004,-79.2611,ardac,381.6,False
ON56,Aldershot,,Ontario,CA,43.3088,-79.841,ardac,458.4,False
ON57,Alderslea,,Ontario,CA,44.3226,-79.5373,ardac,398.2,False
ON58,Alderville,,Ontario,CA,44.1814,-78.0661,ardac,286.5,False
ON59,Alderwood,,Ontario,CA,43.6086,-79.5388,ardac,422.1,False
ON60,Aldred's Beach,,Ontario,CA,44.1644,-78.8608,ardac,349.0,False
ON61,Alexandria,,Ontario,CA,45.3094,-74.633,ardac,20.3,True
ON62,Alexo,,Ontario,CA,48.6676,-80.8179,ardac,251.3,False
ON63,Alfred,,Ontario,CA,45.5561,-74.8878,ardac,40.5,True
ON64,Alfred Station,,Ontario,CA,45.5294,-74.8928,ardac,41.1,True
ON65,Algo,,Ontario,CA,46.5096,-80.9732,ardac,479.1,False
ON66,Algoma Mills,,Ontario,CA,46.1853,-82.8127,ardac,547.6,False
ON67,Algonquin,,Ontario,CA,44.7032,-75.6696,ardac,83.7,True
ON68,Algonquin Park,,Ontario,CA,45.5517,-78.5958,ardac,316.8,False
ON69,Alice,,Ontario,CA,45.7572,-77.29,ardac,222.0,False
ON70,Allan,,Ontario,CA,44.6196,-77.4774,ardac,227.4,False
ON71,Allan Mills,,Ontario,CA,44.4083,-77.7222,ardac,252.2,False
ON72,Allan Park,,Ontario,CA,44.1672,-80.9325,ardac,513.2,False
ON73,Allanburg,,Ontario,CA,43.0763,-79.2082,ardac,424.0,False
ON74,Allans Corners,,Ontario,CA,45.6781,-77.0956,ardac,204.5,False
ON75,Allanwater Bridge,,Ontario,CA,50.2396,-90.1676,ardac,618.2,False
ON76,Allen's Corners,,Ontario,CA,43.1192,-79.5881,ardac,449.1,False
ON77,Allenford,,Ontario,CA,44.5363,-81.1778,ardac,525.6,False
ON78,Allensville,,Ontario,CA,45.2615,-79.3044,ardac,370.0,False
ON79,Allenwood,,Ontario,CA,44.5762,-79.954,ardac,426.5,False
ON80,Allenwood Beach,,Ontario,CA,44.5736,-79.9917,ardac,429.6,False
ON81,Allimil,,Ontario,CA,44.111,-79.7929,ardac,424.1,False
ON82,Allisonville,,Ontario,CA,44.0298,-77.3676,ardac,240.3,False
ON83,Alliston,,Ontario,CA,44.1536,-79.8642,ardac,428.5,False
ON84,Alloa,,Ontario,CA,43.7044,-79.8564,ardac,442.7,False
ON85,Allsaw,,Ontario,CA,44.9889,-78.6111,ardac,314.1,False
ON86,Alma,,Ontario,CA,43.7303,-80.5024,ardac,492.0,False
ON87,Alma Station,,Ontario,CA,43.725,-80.495,ardac,491.6,False
ON88,Almira,,Ontario,CA,43.9322,-79.3367,ardac,394.0,False
ON89,Almonte,,Ontario,CA,45.2249,-76.1951,ardac,121.7,False
ON90,Alpine Village,,Ontario,CA,44.5764,-78.4719,ardac,307.6,False
ON91,Alpine Village,,Ontario,CA,43.4236,-80.4803,ardac,502.0,False
ON92,Alport,,Ontario,CA,45.0224,-79.3535,ardac,373.8,False
ON93,Alsace,,Ontario,CA,46.0336,-79.5439,ardac,401.2,False
ON94,Alsfeldt,,Ontario,CA,44.0103,-80.9429,ardac,518.1,False
ON95,Alsops Beach,,Ontario,CA,44.4472,-79.1575,ardac,365.1,False
ON96,Alta Vista,,Ontario,CA,45.3864,-75.6581,ardac,86.8,True
ON97,Althorpe,,Ontario,CA,44.7575,-76.4754,ardac,144.8,False
ON98,Alton,,Ontario,CA,43.8593,-80.0689,ardac,453.6,False
ON99,Altona,,Ontario,CA,43.9764,-79.1969,ardac,381.5,False
ON100,Alva,,Ontario,CA,47.0421,-84.0288,ardac,491.8,False
ON101,Alvanley,,Ontario,CA,44.5391,-81.1199,ardac,520.9,False
ON102,Alvinston,,Ontario,CA,42.8261,-81.8639,ardac,633.9,False
ON103,Amaranth Station,,Ontario,CA,43.9028,-80.2356,ardac,465.3,False
ON104,Ambassador Beach,,Ontario,CA,42.0131,-82.9855,ardac,758.3,False
ON105,Amberley,,Ontario,CA,44.0431,-81.7164,ardac,578.9,False
ON106,Ambleside,,Ontario,CA,44.0126,-81.1993,ardac,538.5,False
ON107,Ameliasburg,,Ontario,CA,44.0591,-77.4349,ardac,243.8,False
ON108,Amesdale,,Ontario,CA,50.0158,-92.9343,ardac,752.5,False
ON109,Ameson,,Ontario,CA,49.8061,-84.5678,ardac,288.5,False
ON110,Amethyst Harbour,,Ontario,CA,48.5427,-88.8729,ardac,633.4,False
ON111,Amherst Pointe,,Ontario,CA,42.0558,-83.1147,ardac,765.8,False
ON112,Amherstburg,,Ontario,CA,42.1042,-83.1035,ardac,762.5,False
ON113,Amherstburg,,Ontario,CA,42.1172,-83.0442,ardac,757.4,False
ON114,Amherstview,,Ontario,CA,44.2233,-76.6454,ardac,178.1,False
ON115,Amigari Downs,,Ontario,CA,42.9294,-78.9453,ardac,414.1,False
ON116,Amigo Beach,,Ontario,CA,44.6864,-79.3925,ardac,379.7,False
ON117,Amulree,,Ontario,CA,43.425,-80.8383,ardac,529.5,False
ON118,Amwri,,Ontario,CA,48.8092,-85.8771,ardac,429.3,False
ON119,Amyot,,Ontario,CA,48.4831,-84.9536,ardac,401.4,False
ON120,Ancaster,,Ontario,CA,43.2092,-80.0119,ardac,475.9,False
ON121,Ancaster Heights,,Ontario,CA,43.2375,-79.9644,ardac,471.0,False
ON122,Ancliff,,Ontario,CA,48.7017,-88.5825,ardac,606.0,False
ON123,Ancona Point,,Ontario,CA,44.5032,-78.6144,ardac,320.5,False
ON124,Anderson,,Ontario,CA,43.3153,-81.244,ardac,565.3,False
ON125,Anderson,,Ontario,CA,44.2022,-76.9282,ardac,199.7,False
ON126,Anderson Lake,,Ontario,CA,46.2306,-81.7332,ardac,525.3,False
ON127,Anderson Lake Station,,Ontario,CA,46.2264,-81.7115,ardac,525.2,False
ON128,Andrewsville,,Ontario,CA,44.9518,-75.8204,ardac,89.4,True
ON129,Andy's Corners,,Ontario,CA,42.7631,-80.5939,ardac,541.6,False
ON130,Angling Lake,,Ontario,CA,53.8448,-89.531,ardac,269.7,False
ON131,Angus,,Ontario,CA,44.319,-79.8789,ardac,425.5,False
ON132,Anjigami,,Ontario,CA,47.8832,-84.5418,ardac,432.6,False
ON133,Annable Settlement,,Ontario,CA,45.1063,-75.3568,ardac,53.1,True
ON134,Annan,,Ontario,CA,44.6157,-80.8538,ardac,498.4,False
ON135,Annex,,Ontario,CA,48.6194,-90.0081,ardac,702.5,False
ON136,Anoma Lea,,Ontario,CA,44.6381,-75.9219,ardac,105.4,False
ON137,Ansnorveldt,,Ontario,CA,44.0802,-79.54,ardac,405.0,False
ON138,Anson,,Ontario,CA,44.2981,-77.5975,ardac,246.2,False
ON139,Ansonia,,Ontario,CA,46.3166,-83.6095,ardac,552.1,False
ON140,Ansonville,,Ontario,CA,48.7564,-80.6861,ardac,238.3,False
ON141,Anstice,,Ontario,CA,46.9017,-81.0286,ardac,438.8,False
ON142,Anstruther Lake,,Ontario,CA,44.7354,-78.2001,ardac,283.2,False
ON143,Anten Mills,,Ontario,CA,44.4822,-79.8292,ardac,418.1,False
ON144,Anthony,,Ontario,CA,48.5382,-80.5935,ardac,258.0,False
ON145,Antrim,,Ontario,CA,45.3681,-76.2281,ardac,128.1,False
ON146,Appelo,,Ontario,CA,47.1983,-81.4019,ardac,417.1,False
ON147,Appin,,Ontario,CA,42.7958,-81.6492,ardac,618.9,False
ON148,Apple Hill,,Ontario,CA,45.2208,-74.7703,ardac,21.6,True
ON149,Appleby,,Ontario,CA,43.3778,-79.7743,ardac,450.2,False
ON150,Appledore,,Ontario,CA,42.5219,-82.1433,ardac,669.4,False
ON151,Appleton,,Ontario,CA,45.1819,-76.124,ardac,115.2,False
ON152,Applewood Acres,,Ontario,CA,45.385,-75.6692,ardac,87.5,True
ON153,Applewood Acres,,Ontario,CA,43.5922,-79.5781,ardac,425.8,False
ON154,Applewood Heights,,Ontario,CA,43.6072,-79.595,ardac,426.5,False
ON155,Applewood Hills,,Ontario,CA,43.6183,-79.6022,ardac,426.6,False
ON156,Apsley,,Ontario,CA,44.755,-78.0867,ardac,273.8,False
ON157,Apto,,Ontario,CA,44.5094,-79.8033,ardac,415.6,False
ON158,Arbeatha Park,,Ontario,CA,45.3164,-75.8217,ardac,95.5,True
ON159,Arbor Vitae,,Ontario,CA,48.8979,-94.2943,ardac,893.3,False
ON160,Archer,,Ontario,CA,44.9889,-75.1072,ardac,31.8,True
ON161,Ardbeg,,Ontario,CA,45.6408,-80.08,ardac,435.2,False
ON162,Arden,,Ontario,CA,44.7208,-76.9244,ardac,181.2,False
ON163,Ardendale,,Ontario,CA,44.7217,-76.9444,ardac,182.8,False
ON164,Ardmore Beach,,Ontario,CA,44.7011,-80.0058,ardac,428.9,False
ON165,Ardoch,,Ontario,CA,44.9303,-76.9072,ardac,177.1,False
ON166,Ardtrea,,Ontario,CA,44.6867,-79.4025,ardac,380.5,False
ON167,Argolis,,Ontario,CA,48.6883,-83.4486,ardac,313.2,False
ON168,Argon,,Ontario,CA,48.8931,-90.0091,ardac,684.6,False
ON169,Argyle,,Ontario,CA,44.4507,-79.0172,ardac,353.8,False
ON170,Ariss,,Ontario,CA,43.5753,-80.365,ardac,487.0,False
ON171,Arkell,,Ontario,CA,43.5365,-80.1677,ardac,473.3,False
ON172,Arklan,,Ontario,CA,45.0872,-76.3461,ardac,131.8,False
ON173,Arkona,,Ontario,CA,43.0831,-81.8261,ardac,619.8,False
ON174,Arkwood,,Ontario,CA,42.4813,-82.1218,ardac,669.8,False
ON175,Arkwright,,Ontario,CA,44.4531,-81.2158,ardac,530.0,False
ON176,Arlington Woods,,Ontario,CA,45.323,-75.7876,ardac,93.2,True
ON177,Armadale,,Ontario,CA,43.8372,-79.2579,ardac,391.4,False
ON178,Armbro Heights,,Ontario,CA,43.6703,-79.7468,ardac,435.5,False
ON179,Armitage,,Ontario,CA,44.0336,-79.4761,ardac,401.4,False
ON180,Armour Heights,,Ontario,CA,43.7433,-79.43,ardac,408.3,False
ON181,Armow,,Ontario,CA,44.1928,-81.5139,ardac,559.2,False
ON182,Arms,,Ontario,CA,49.5678,-86.0119,ardac,393.8,False
ON183,Armstrong,,Ontario,CA,50.3049,-89.0418,ardac,544.3,False
ON184,Armstrong Mills,,Ontario,CA,43.6292,-80.2614,ardac,476.9,False
ON185,Armstrong Station,,Ontario,CA,50.3009,-89.0421,ardac,544.5,False
ON186,Armstrongs Corners,,Ontario,CA,44.9331,-76.305,ardac,128.6,False
ON187,Arner,,Ontario,CA,42.0319,-82.8239,ardac,745.3,False
ON188,Arnott,,Ontario,CA,44.43,-80.855,ardac,501.5,False
ON189,Arnprior,,Ontario,CA,45.4347,-76.3581,ardac,140.2,False
ON190,Arnstein,,Ontario,CA,45.9217,-79.933,ardac,428.5,False
ON191,Aroland,,Ontario,CA,50.2321,-86.96,ardac,417.6,False
ON192,Arpin,,Ontario,CA,48.9294,-80.7236,ardac,222.3,False
ON193,Arranvale,,Ontario,CA,44.4526,-81.1455,ardac,524.4,False
ON194,Arthur,,Ontario,CA,43.8327,-80.5379,ardac,491.4,False
ON195,Arthur's Corners,,Ontario,CA,42.9042,-80.5747,ardac,532.9,False
ON196,Arva,,Ontario,CA,43.05,-81.2936,ardac,580.3,False
ON197,Ascalon,,Ontario,CA,46.0742,-78.8053,ardac,346.5,False
ON198,Ash,,Ontario,CA,43.4388,-79.8161,ardac,450.6,False
ON199,Ashburn,,Ontario,CA,44.0025,-78.9952,ardac,364.9,False
ON200,Ashburnham,,Ontario,CA,44.3031,-78.3086,ardac,301.4,False
ON201,Ashburton,,Ontario,CA,46.5164,-80.015,ardac,451.8,False
ON202,Ashby Lake,,Ontario,CA,45.0831,-77.2886,ardac,207.6,False
ON203,Ashby Mill,,Ontario,CA,44.4677,-77.8255,ardac,258.7,False
ON204,Ashdad,,Ontario,CA,45.35,-76.7517,ardac,168.1,False
ON205,Ashdale,,Ontario,CA,45.3,-75.7,ardac,85.8,True
ON206,Ashgrove,,Ontario,CA,43.6086,-79.8944,ardac,449.4,False
ON207,Ashton,,Ontario,CA,45.1572,-76.0319,ardac,107.5,False
ON208,Ashton Station,,Ontario,CA,45.1736,-76.0542,ardac,109.5,False
ON209,Ashworth,,Ontario,CA,45.3492,-79.4021,ardac,378.4,False
ON210,Aspdin,,Ontario,CA,45.2978,-79.3708,ardac,375.5,False
ON211,Asselstine,,Ontario,CA,44.2443,-76.7313,ardac,183.2,False
ON212,Assumption,,Ontario,CA,44.2708,-78.2678,ardac,299.2,False
ON213,Astorville,,Ontario,CA,46.1858,-79.2794,ardac,385.7,False
ON214,Atha Road,,Ontario,CA,43.944,-79.1709,ardac,380.6,False
ON215,Athens,,Ontario,CA,44.6316,-75.9463,ardac,107.5,False
ON216,Atherley,,Ontario,CA,44.6012,-79.3612,ardac,378.5,False
ON217,Atherton,,Ontario,CA,42.8225,-80.4491,ardac,527.8,False
ON218,Athlone,,Ontario,CA,44.0354,-79.8869,ardac,433.7,False
ON219,Athol,,Ontario,CA,45.3201,-74.8936,ardac,35.8,True
ON220,Athol,,Ontario,CA,43.9218,-77.2296,ardac,236.0,False
ON221,Atikokan,,Ontario,CA,48.7583,-91.6133,ardac,791.6,False
ON222,Atironto,,Ontario,CA,44.9031,-76.0072,ardac,104.9,False
ON223,Atkinson,,Ontario,CA,44.3872,-76.2771,ardac,143.2,False
ON224,Attawapiskat,,Ontario,CA,52.9225,-82.4253,ardac,9.8,True
ON225,Attercliffe,,Ontario,CA,42.9922,-79.5861,ardac,455.8,False
ON226,Attercliffe Station,,Ontario,CA,42.9687,-79.5924,ardac,457.5,False
ON227,Atwood,,Ontario,CA,43.6692,-81.0189,ardac,534.6,False
ON228,Auburn,,Ontario,CA,43.7726,-81.5336,ardac,571.9,False
ON229,Auburn Mills,,Ontario,CA,44.3158,-78.3081,ardac,301.0,False
ON230,Auden,,Ontario,CA,50.2262,-87.8925,ardac,475.1,False
ON231,Auden Park,,Ontario,CA,44.2258,-76.5839,ardac,173.6,False
ON232,Audley,,Ontario,CA,43.9031,-79.0117,ardac,369.8,False
ON233,Augsburg,,Ontario,CA,45.5283,-77.1832,ardac,206.2,False
ON234,Aunor,,Ontario,CA,48.4411,-81.2872,ardac,283.8,False
ON235,Aurora,,Ontario,CA,43.9976,-79.4699,ardac,402.1,False
ON236,Austin,,Ontario,CA,46.4907,-80.8363,ardac,478.6,False
ON237,Avalon Park,,Ontario,CA,42.7625,-80.2419,ardac,515.9,False
ON238,Avening,,Ontario,CA,44.3106,-80.0727,ardac,441.2,False
ON239,Avery Point,,Ontario,CA,44.6703,-79.1169,ardac,357.8,False
ON240,Avon,,Ontario,CA,42.9081,-80.9329,ardac,559.5,False
ON241,Avonbank,,Ontario,CA,43.329,-81.1292,ardac,555.9,False
ON242,Avondale,,Ontario,CA,45.2113,-74.6913,ardac,17.3,True
ON243,Avonmore,,Ontario,CA,45.1715,-74.9671,ardac,27.7,True
ON244,Avonry,,Ontario,CA,42.7522,-82.3522,ardac,674.6,False
ON245,Avonton,,Ontario,CA,43.3538,-81.0868,ardac,551.6,False
ON246,Axe Lake,,Ontario,CA,45.3959,-79.5301,ardac,388.9,False
ON247,Aylen,,Ontario,CA,46.2247,-78.2169,ardac,309.1,False
ON248,Aylen Lake,,Ontario,CA,45.5906,-77.8594,ardac,260.1,False
ON249,Aylen Lake Station,,Ontario,CA,45.5522,-77.8272,ardac,256.7,False
ON250,Aylesworth,,Ontario,CA,44.2844,-76.5411,ardac,167.5,False
ON251,Aylmer,,Ontario,CA,42.7826,-80.9826,ardac,569.4,False
ON252,Aylmer West,,Ontario,CA,42.7722,-80.9839,ardac,570.0,False
ON253,Aylsworth,,Ontario,CA,48.5464,-93.8086,ardac,919.9,False
ON254,Ayr,,Ontario,CA,43.2856,-80.45,ardac,505.5,False
ON255,Ayton,,Ontario,CA,44.0544,-80.9282,ardac,515.8,False
ON256,Ayton Siding,,Ontario,CA,44.045,-80.9356,ardac,516.6,False
ON257,Azen,,Ontario,CA,46.6342,-80.2515,ardac,454.8,False
ON258,Azilda,,Ontario,CA,46.5501,-81.1145,ardac,477.6,False
ON259,Baby Point,,Ontario,CA,43.6556,-79.4931,ardac,416.7,False
ON260,Babys Point,,Ontario,CA,42.6483,-82.5046,ardac,690.9,False
ON261,Baddow,,Ontario,CA,44.6122,-78.7589,ardac,330.0,False
ON262,Baden,,Ontario,CA,43.4025,-80.6686,ardac,517.3,False
ON263,Badenoch,,Ontario,CA,43.4737,-80.0826,ardac,469.4,False
ON264,Badger's Corners,,Ontario,CA,45.3925,-80.0272,ardac,428.6,False
ON265,Badjeros,,Ontario,CA,44.2569,-80.2817,ardac,459.1,False
ON266,Baelstadt,,Ontario,CA,45.9122,-77.3508,ardac,232.9,False
ON267,Bagnall,,Ontario,CA,42.3469,-82.3608,ardac,694.4,False
ON268,Baie du Doré,,Ontario,CA,44.3348,-81.5526,ardac,559.3,False
ON269,Baie-du-Tonnerre,,Ontario,CA,44.8061,-80.0761,ardac,433.4,False
ON270,Bailey Corners,,Ontario,CA,46.6117,-80.8197,ardac,465.5,False
ON271,Bailieboro,,Ontario,CA,44.1333,-78.3533,ardac,310.5,False
ON272,Bainsville,,Ontario,CA,45.1839,-74.4144,ardac,0.2,True
ON273,Baird,,Ontario,CA,48.4242,-89.4253,ardac,675.9,False
ON274,Bairds,,Ontario,CA,42.7597,-81.3589,ardac,598.7,False
ON275,Bala,,Ontario,CA,45.0176,-79.6172,ardac,395.0,False
ON276,Bala Park,,Ontario,CA,45.0136,-79.585,ardac,392.5,False
ON277,Bala Road,,Ontario,CA,45.0329,-79.6233,ardac,395.5,False
ON278,Balaclava,,Ontario,CA,45.3906,-76.9489,ardac,184.4,False
ON279,Balaclava,,Ontario,CA,44.6831,-80.7789,ardac,491.4,False
ON280,Balderson,,Ontario,CA,44.9518,-76.3275,ardac,130.3,False
ON281,Baldoon,,Ontario,CA,42.4944,-82.3489,ardac,686.3,False
ON282,Baldwin,,Ontario,CA,44.2626,-79.3423,ardac,384.2,False
ON283,Baldwins Bridge,,Ontario,CA,45.0044,-75.4117,ardac,56.3,True
ON284,Balfour Beach,,Ontario,CA,44.2663,-79.4948,ardac,396.2,False
ON285,Ballantrae,,Ontario,CA,44.0356,-79.2986,ardac,387.4,False
ON286,Ballinafad,,Ontario,CA,43.6961,-80.0119,ardac,455.0,False
ON287,Ballycanoe,,Ontario,CA,44.5339,-75.9067,ardac,109.1,False
ON288,Ballycroy,,Ontario,CA,43.9725,-79.8707,ardac,434.4,False
ON289,Ballydown Beach,,Ontario,CA,44.2447,-79.5331,ardac,399.8,False
ON290,Ballyduff,,Ontario,CA,44.1356,-78.65,ardac,333.4,False
ON291,Ballymote,,Ontario,CA,43.0665,-81.2392,ardac,575.4,False
ON292,Balm Beach,,Ontario,CA,44.6981,-80.0003,ardac,428.5,False
ON293,Balmertown,,Ontario,CA,51.0573,-93.7432,ardac,652.6,False
ON294,Balmoral,,Ontario,CA,42.914,-79.963,ardac,487.4,False
ON295,Balmoral Park,,Ontario,CA,44.2456,-76.6081,ardac,174.3,False
ON296,Balmy Beach,,Ontario,CA,44.6172,-80.9464,ardac,505.8,False
ON297,Balsam,,Ontario,CA,43.9881,-79.0606,ardac,370.5,False
ON298,Balsam Creek,,Ontario,CA,46.419,-79.201,ardac,388.5,False
ON299,Balsam Grove,,Ontario,CA,44.2458,-76.5325,ardac,168.9,False
ON300,Balsam Hill,,Ontario,CA,45.4885,-76.824,ardac,177.4,False
ON301,Baltics Corners,,Ontario,CA,45.3283,-74.7907,ardac,31.0,True
ON302,Baltimore,,Ontario,CA,44.0297,-78.1458,ardac,298.5,False
ON303,Balvenie,,Ontario,CA,45.2631,-77.065,ardac,191.2,False
ON304,Bamberg,,Ontario,CA,43.4883,-80.6864,ardac,515.3,False
ON305,Banbury,,Ontario,CA,45.4526,-79.5246,ardac,389.0,False
ON306,Bancroft,,Ontario,CA,45.055,-77.7578,ardac,245.3,False
ON307,Bancroft,,Ontario,CA,45.0689,-77.8689,ardac,254.2,False
ON308,Banda,,Ontario,CA,44.2872,-80.0667,ardac,441.2,False
ON309,Bangor Lodge,,Ontario,CA,45.0408,-79.3911,ardac,376.8,False
ON310,Bankfield,,Ontario,CA,49.6976,-87.0812,ardac,459.4,False
ON311,Banks,,Ontario,CA,44.4847,-80.351,ardac,460.0,False
ON312,Banner,,Ontario,CA,43.0082,-80.9855,ardac,558.7,False
ON313,Banning,,Ontario,CA,48.7371,-91.9846,ardac,816.2,False
ON314,Bannockburn,,Ontario,CA,44.6431,-77.5504,ardac,232.7,False
ON315,Baptiste,,Ontario,CA,45.0936,-77.9794,ardac,263.1,False
ON316,Bar Point,,Ontario,CA,42.0528,-83.1125,ardac,765.8,False
ON317,Bar River,,Ontario,CA,46.4418,-84.0262,ardac,551.4,False
ON318,Barb,,Ontario,CA,45.5169,-74.5392,ardac,13.6,True
ON319,Barber's Beach,,Ontario,CA,43.4203,-80.2747,ardac,486.3,False
ON320,Barbers Bay,,Ontario,CA,48.6178,-80.9019,ardac,258.9,False
ON321,Barclay,,Ontario,CA,44.2997,-79.6133,ardac,404.8,False
ON322,Barcovan Beach,,Ontario,CA,44.0272,-77.6269,ardac,259.5,False
ON323,Bardsville,,Ontario,CA,45.0982,-79.431,ardac,379.9,False
ON324,Barehead,,Ontario,CA,49.0532,-85.9051,ardac,415.5,False
ON325,Barkway,,Ontario,CA,44.9058,-79.1783,ardac,360.3,False
ON326,Barlochan,,Ontario,CA,45.0364,-79.4836,ardac,384.2,False
ON327,Barnesdale,,Ontario,CA,43.1831,-79.2792,ardac,423.2,False
ON328,Barnhart,,Ontario,CA,48.7289,-93.7843,ardac,902.6,False
ON329,Barrett Chute,,Ontario,CA,45.2507,-76.7552,ardac,166.4,False
ON330,Barretville,,Ontario,CA,42.0992,-82.8539,ardac,744.0,False
ON331,Barrhaven,,Ontario,CA,45.279,-75.7684,ardac,90.1,True
ON332,Barrhead,,Ontario,CA,44.3042,-80.6636,ardac,488.6,False
ON333,Barrie,,Ontario,CA,44.3712,-79.677,ardac,408.2,False
ON334,Barriefield,,Ontario,CA,44.2418,-76.462,ardac,164.1,False
ON335,Barrillia Park,,Ontario,CA,44.4576,-79.4945,ardac,391.8,False
ON336,Barrow Bay,,Ontario,CA,44.9589,-81.2275,ardac,525.0,False
ON337,Barry's Bay,,Ontario,CA,45.4885,-77.6806,ardac,243.8,False
ON338,Barrydowne,,Ontario,CA,46.5141,-80.944,ardac,478.1,False
ON339,Barrymere,,Ontario,CA,45.3908,-77.6684,ardac,241.0,False
ON340,Barryvale,,Ontario,CA,45.2811,-76.7275,ardac,164.7,False
ON341,Bartonville,,Ontario,CA,43.2358,-79.8069,ardac,459.4,False
ON342,Barwick,,Ontario,CA,48.6448,-93.9843,ardac,918.8,False
ON343,Basin Depot,,Ontario,CA,45.7208,-77.7885,ardac,258.2,False
ON344,Basin Mines,,Ontario,CA,46.6138,-80.6554,ardac,462.5,False
ON345,Basingstoke,,Ontario,CA,43.1033,-79.62,ardac,452.3,False
ON346,Baskin's Beach,,Ontario,CA,45.4786,-76.0103,ardac,116.4,False
ON347,Bass Creek,,Ontario,CA,45.8057,-82.0114,ardac,576.3,False
ON348,Bass Lake,,Ontario,CA,46.1008,-77.6014,ardac,259.5,False
ON349,Bass Lake Park,,Ontario,CA,44.6116,-79.4814,ardac,388.0,False
ON350,Basse-ville,,Ontario,CA,45.4322,-75.6939,ardac,91.7,True
ON351,Batawa,,Ontario,CA,44.1722,-77.5961,ardac,250.9,False
ON352,Batchawana Bay,,Ontario,CA,46.9261,-84.6064,ardac,523.9,False
ON353,Batchewana,,Ontario,CA,47.1764,-84.2892,ardac,488.1,False
ON354,Bath,,Ontario,CA,44.1828,-76.7767,ardac,189.7,False
ON355,Bathurst,,Ontario,CA,44.8689,-76.3844,ardac,135.6,False
ON356,Batteaux,,Ontario,CA,44.4656,-80.1736,ardac,446.1,False
ON357,Battersea,,Ontario,CA,44.4325,-76.3835,ardac,148.7,False
ON358,Bawk,,Ontario,CA,49.9694,-86.6727,ardac,417.7,False
ON359,Baxter,,Ontario,CA,44.2453,-79.8383,ardac,424.0,False
ON360,Baxters Corners,,Ontario,CA,45.1655,-75.7904,ardac,88.5,True
ON361,Bay Beach,,Ontario,CA,42.8681,-79.0719,ardac,426.6,False
ON362,Bayfield,,Ontario,CA,43.5599,-81.6993,ardac,591.9,False
ON363,Bayfield Inlet,,Ontario,CA,45.6242,-80.4997,ardac,468.2,False
ON364,Bayridge,,Ontario,CA,44.2439,-76.5878,ardac,172.9,False
ON365,Bayshore,,Ontario,CA,45.3492,-75.8092,ardac,95.9,True
ON366,Bayshore Estates,,Ontario,CA,44.3628,-79.6233,ardac,404.1,False
ON367,Bayshore Village,,Ontario,CA,44.5554,-79.2848,ardac,373.1,False
ON368,Bayside,,Ontario,CA,44.1202,-77.506,ardac,246.3,False
ON369,Baysville,,Ontario,CA,45.1489,-79.1147,ardac,354.5,False
ON370,Bayswater,,Ontario,CA,46.0875,-80.7543,ardac,495.6,False
ON371,Bayview,,Ontario,CA,44.2143,-76.6662,ardac,180.1,False
ON372,Bayview,,Ontario,CA,43.2972,-79.8628,ardac,460.6,False
ON373,Bayview,,Ontario,CA,44.6003,-80.6914,ardac,485.5,False
ON374,Bayview,,Ontario,CA,46.5273,-84.3807,ardac,554.4,False
ON375,Bayview Beach,,Ontario,CA,44.2397,-79.5322,ardac,399.9,False
ON376,Bayview Park,,Ontario,CA,44.8583,-79.8175,ardac,412.1,False
ON377,Bayview Point,,Ontario,CA,44.6189,-80.9447,ardac,505.6,False
ON378,Bayview Village,,Ontario,CA,43.7764,-79.3803,ardac,403.1,False
ON379,Baywood Park,,Ontario,CA,44.5168,-79.4381,ardac,386.1,False
ON380,Beach O'Pines,,Ontario,CA,43.2934,-81.7893,ardac,608.5,False
ON381,Beachburg,,Ontario,CA,45.7315,-76.8552,ardac,189.0,False
ON382,Beachville,,Ontario,CA,43.0908,-80.8293,ardac,543.1,False
ON383,Beacon Heights,,Ontario,CA,45.45,-75.6333,ardac,88.6,True
ON384,Beacon Hill North,,Ontario,CA,45.4592,-75.6039,ardac,87.2,True
ON385,Beacon Hill South,,Ontario,CA,45.4422,-75.5992,ardac,85.9,True
ON386,Beaconsfield,,Ontario,CA,43.0458,-80.6147,ardac,529.0,False
ON387,Beaconwood,,Ontario,CA,45.45,-75.6,ardac,86.4,True
ON388,Beales Mills,,Ontario,CA,44.5778,-75.9706,ardac,111.6,False
ON389,Bealton,,Ontario,CA,42.9975,-80.2258,ardac,502.3,False
ON390,Beamsville,,Ontario,CA,43.1658,-79.4764,ardac,438.5,False
ON391,Bear Cave,,Ontario,CA,45.3123,-79.609,ardac,394.7,False
ON392,Bear Island,,Ontario,CA,46.9722,-80.0742,ardac,416.4,False
ON393,Bear Lake,,Ontario,CA,45.4572,-79.5858,ardac,393.9,False
ON394,Bear Line,,Ontario,CA,42.4482,-82.2924,ardac,684.3,False
ON395,Bear Pass,,Ontario,CA,48.7262,-92.9592,ardac,867.6,False
ON396,Bear Point,,Ontario,CA,44.3967,-79.5436,ardac,397.0,False
ON397,Bear Valley,,Ontario,CA,45.9672,-79.7128,ardac,412.5,False
ON398,Bearbrook,,Ontario,CA,45.3883,-75.3336,ardac,65.4,True
ON399,Beardmore,,Ontario,CA,49.6008,-87.9561,ardac,516.6,False
ON400,Bearskin Lake,,Ontario,CA,53.9248,-90.9695,ardac,315.5,False
ON401,Beatrice,,Ontario,CA,45.1574,-79.382,ardac,376.0,False
ON402,Beatty,,Ontario,CA,45.0281,-76.7456,ardac,163.8,False
ON403,Beaucage,,Ontario,CA,46.3566,-79.6555,ardac,419.6,False
ON404,Beaumaris,,Ontario,CA,45.0718,-79.4931,ardac,384.9,False
ON405,Beaumonde Heights,,Ontario,CA,43.7418,-79.5732,ardac,419.4,False
ON406,Beaver Dams,,Ontario,CA,43.1053,-79.2147,ardac,422.8,False
ON407,Beaver Lake,,Ontario,CA,46.3406,-81.4959,ardac,508.1,False
ON408,Beaver Lake,,Ontario,CA,48.1394,-79.6494,ardac,285.8,False
ON409,Beaver Meadow,,Ontario,CA,42.7131,-82.2435,ardac,668.0,False
ON410,Beaverdale,,Ontario,CA,44.4094,-80.6121,ardac,482.3,False
ON411,Beavers Corner,,Ontario,CA,43.0719,-80.0147,ardac,482.9,False
ON412,Beaverstone Bay,,Ontario,CA,46.0011,-81.1516,ardac,524.8,False
ON413,Beaverton,,Ontario,CA,44.4308,-79.1527,ardac,365.0,False
ON414,Becher,,Ontario,CA,42.6537,-82.3552,ardac,679.3,False
ON415,Beck,,Ontario,CA,48.6003,-88.8712,ardac,630.2,False
ON416,Becker,,Ontario,CA,49.2,-84.6708,ardac,332.5,False
ON417,Becketts Bridge,,Ontario,CA,42.9739,-79.3714,ardac,441.4,False
ON418,Becketts Creek,,Ontario,CA,45.5164,-75.3589,ardac,76.5,True
ON419,Becketts Landing,,Ontario,CA,45.0512,-75.6857,ardac,78.5,True
ON420,Beckstead,,Ontario,CA,45.0458,-75.1767,ardac,37.7,True
ON421,Beckwith,,Ontario,CA,45.0753,-76.1017,ardac,112.1,False
ON422,Bedell,,Ontario,CA,44.9969,-75.63,ardac,73.9,True
ON423,Bedford,,Ontario,CA,44.626,-76.564,ardac,155.1,False
ON424,Bedford Mills,,Ontario,CA,44.6025,-76.4058,ardac,143.6,False
ON425,Bedford Park,,Ontario,CA,43.7382,-79.409,ardac,406.9,False
ON426,Beech Beach,,Ontario,CA,46.1147,-83.8928,ardac,580.5,False
ON427,Beech Corners,,Ontario,CA,44.9463,-77.0554,ardac,188.9,False
ON428,Beechmount,,Ontario,CA,45.0663,-77.9662,ardac,262.1,False
ON429,Beechwood,,Ontario,CA,43.0717,-81.6029,ardac,603.1,False
ON430,Beechwood,,Ontario,CA,43.4644,-80.5322,ardac,504.3,False
ON431,Beechwood,,Ontario,CA,43.5566,-81.301,ardac,560.7,False
ON432,Beechwood,,Ontario,CA,42.4781,-81.905,ardac,653.6,False
ON433,Beeton,,Ontario,CA,44.0826,-79.7868,ardac,424.4,False
ON434,Behnke Wood,,Ontario,CA,45.9245,-77.3549,ardac,233.7,False
ON435,Bekanon,,Ontario,CA,45.8526,-80.5593,ardac,476.0,False
ON436,Bel Air Heights,,Ontario,CA,45.3582,-75.7553,ardac,92.4,True
ON437,Bel Air Park,,Ontario,CA,45.359,-75.765,ardac,93.1,True
ON438,Belanger,,Ontario,CA,46.5622,-81.1386,ardac,476.9,False
ON439,Belangers Corner,,Ontario,CA,45.4019,-76.7158,ardac,166.6,False
ON440,Belcreft Beach,,Ontario,CA,42.0153,-82.9892,ardac,758.5,False
ON441,Belfast,,Ontario,CA,43.9181,-81.5507,ardac,569.0,False
ON442,Belford,,Ontario,CA,43.8836,-79.1811,ardac,383.7,False
ON443,Belfountain,,Ontario,CA,43.7929,-80.0155,ardac,451.8,False
ON444,Belgrave,,Ontario,CA,43.8141,-81.3665,ardac,557.4,False
ON445,Belhaven,,Ontario,CA,44.2628,-79.4286,ardac,391.0,False
ON446,Bell Ewart,,Ontario,CA,44.2714,-79.5419,ardac,399.8,False
ON447,Bell Grove,,Ontario,CA,46.47,-80.9928,ardac,483.7,False
ON448,Bell Rapids,,Ontario,CA,45.3878,-77.7954,ardac,251.0,False
ON449,Bellamys,,Ontario,CA,44.7044,-75.7932,ardac,93.0,True
ON450,Bellamys Mill,,Ontario,CA,44.7231,-76.0211,ardac,109.9,False
ON451,Belle Air Beach,,Ontario,CA,44.2875,-79.5375,ardac,399.1,False
ON452,Belle River,,Ontario,CA,42.2914,-82.7044,ardac,723.1,False
ON453,Belle Vallée,,Ontario,CA,47.6535,-79.5931,ardac,338.7,False
ON454,Belle-eau-Claire Beach,,Ontario,CA,44.7286,-80.0542,ardac,432.5,False
ON455,Belleview Beach,,Ontario,CA,42.8619,-79.3533,ardac,446.6,False
ON456,Belleville,,Ontario,CA,44.2567,-77.3697,ardac,230.3,False
ON457,Belleville,,Ontario,CA,44.1708,-77.3828,ardac,234.8,False
ON458,Bellevue,,Ontario,CA,46.7044,-84.2257,ardac,531.7,False
ON459,Bellheck,,Ontario,CA,44.5204,-76.9638,ardac,189.5,False
ON460,Bellingham,,Ontario,CA,46.3931,-83.286,ardac,536.0,False
ON461,Bellrock,,Ontario,CA,44.4752,-76.7632,ardac,175.6,False
ON462,Bells Corners,,Ontario,CA,44.9369,-76.3506,ardac,132.2,False
ON463,Bells Corners,,Ontario,CA,45.3208,-75.83,ardac,96.3,True
ON464,Bells Corners Station,,Ontario,CA,45.331,-75.8097,ardac,95.2,True
ON465,Bells Crossing,,Ontario,CA,44.7533,-75.8267,ardac,93.9,True
ON466,Bells Junction,,Ontario,CA,45.3288,-75.8329,ardac,96.8,True
ON467,Bellwood,,Ontario,CA,45.5025,-78.2489,ardac,288.7,False
ON468,Bellwood,,Ontario,CA,45.3264,-75.8297,ardac,96.5,True
ON469,Belmeade,,Ontario,CA,45.128,-75.4932,ardac,64.3,True
ON470,Belmont,,Ontario,CA,42.8857,-81.086,ardac,572.1,False
ON471,Belmore,,Ontario,CA,43.9581,-81.1867,ardac,538.9,False
ON472,Belton,,Ontario,CA,43.1756,-81.1389,ardac,563.0,False
ON473,Belwood,,Ontario,CA,43.7921,-80.3228,ardac,475.8,False
ON474,Benallen,,Ontario,CA,44.6139,-80.9783,ardac,508.4,False
ON475,Bendale,,Ontario,CA,43.7639,-79.2556,ardac,394.1,False
ON476,Benmiller,,Ontario,CA,43.7218,-81.6248,ardac,580.7,False
ON477,Bennies Corners,,Ontario,CA,45.251,-76.2664,ardac,127.8,False
ON478,Bennington,,Ontario,CA,43.1925,-80.9553,ardac,548.2,False
ON479,Bennington Heights,,Ontario,CA,43.6942,-79.3722,ardac,405.8,False
ON480,Benny,,Ontario,CA,46.7819,-81.6297,ardac,465.9,False
ON481,Benoit,,Ontario,CA,45.3092,-75.16,ardac,49.3,True
ON482,Bensfort Bridge,,Ontario,CA,44.2056,-78.2775,ardac,302.1,False
ON483,Bensfort Corners,,Ontario,CA,44.1761,-78.2808,ardac,303.3,False
ON484,Bent River,,Ontario,CA,45.2136,-79.5406,ardac,388.8,False
ON485,Bentinck,,Ontario,CA,44.2537,-80.8709,ardac,506.3,False
ON486,Bentpath,,Ontario,CA,42.7124,-82.1749,ardac,662.8,False
ON487,Bergland,,Ontario,CA,48.9518,-94.3871,ardac,888.1,False
ON488,Berkeley,,Ontario,CA,44.3663,-80.7278,ardac,492.5,False
ON489,Berkshire Village,,Ontario,CA,42.9662,-81.279,ardac,582.9,False
ON490,Berlett's Corners,,Ontario,CA,43.4598,-80.7104,ardac,518.3,False
ON491,Berriedale,,Ontario,CA,45.6636,-79.3831,ardac,380.6,False
ON492,Berrys,,Ontario,CA,45.425,-75.9247,ardac,107.7,False
ON493,Berryton,,Ontario,CA,44.4615,-76.197,ardac,133.7,False
ON494,Bertrand,,Ontario,CA,48.6941,-85.5765,ardac,419.7,False
ON495,Bervie,,Ontario,CA,44.1322,-81.5042,ardac,559.8,False
ON496,Berwick,,Ontario,CA,45.1774,-75.111,ardac,37.4,True
ON497,Berylvale,,Ontario,CA,48.9591,-80.9971,ardac,225.9,False
ON498,Bessemer,,Ontario,CA,45.0497,-77.6332,ardac,235.3,False
ON499,Bethany,,Ontario,CA,44.1792,-77.0311,ardac,208.3,False
ON500,Bethany,,Ontario,CA,44.1822,-78.5679,ardac,325.5,False
ON501,Bethel,,Ontario,CA,44.0576,-77.2103,ardac,227.4,False
ON502,Bethel,,Ontario,CA,44.6456,-75.6739,ardac,86.7,True
ON503,Bethel,,Ontario,CA,42.9275,-79.2036,ardac,432.2,False
ON504,Bethel,,Ontario,CA,44.3317,-78.4817,ardac,314.2,False
ON505,Bethesda,,Ontario,CA,44.2324,-79.673,ardac,411.2,False
ON506,Bethesda,,Ontario,CA,44.1163,-77.1343,ardac,219.0,False
ON507,Bethesda,,Ontario,CA,43.9667,-79.3573,ardac,394.4,False
ON508,Bethnal,,Ontario,CA,47.7797,-81.8181,ardac,361.0,False
ON509,Bethune Bush,,Ontario,CA,45.0575,-75.2444,ardac,43.3,True
ON510,Beveridge Locks,,Ontario,CA,44.8758,-76.1335,ardac,115.4,False
ON511,Beverley Acres,,Ontario,CA,43.8725,-79.4192,ardac,402.5,False
ON512,Beverley Hills,,Ontario,CA,44.1988,-79.4751,ardac,396.4,False
ON513,Beverley Isles,,Ontario,CA,44.1986,-79.4806,ardac,396.9,False
ON514,Bewdley,,Ontario,CA,44.0878,-78.3214,ardac,309.7,False
ON515,Bexley,,Ontario,CA,44.654,-78.9103,ardac,341.4,False
ON516,Bickford,,Ontario,CA,42.7662,-82.4285,ardac,679.8,False
ON517,Bidwell,,Ontario,CA,45.8003,-81.9831,ardac,576.1,False
ON518,Bieman's Corners,,Ontario,CA,44.0046,-80.9935,ardac,522.3,False
ON519,Big Bay,,Ontario,CA,44.7906,-80.9478,ardac,503.8,False
ON520,Big Bay Point,,Ontario,CA,44.4,-79.5169,ardac,394.8,False
ON521,Big Beaver House,,Ontario,CA,52.9527,-89.8737,ardac,369.4,False
ON522,Big Cedar,,Ontario,CA,44.5786,-78.1769,ardac,284.0,False
ON523,Big Cedar Point,,Ontario,CA,44.2997,-79.5267,ardac,397.9,False
ON524,Big Chute,,Ontario,CA,44.8847,-79.6772,ardac,400.6,False
ON525,Big Fork,,Ontario,CA,48.5218,-93.6721,ardac,916.2,False
ON526,Big Lake,,Ontario,CA,45.7464,-82.0552,ardac,583.5,False
ON527,Bigelow,,Ontario,CA,47.2961,-79.5175,ardac,377.5,False
ON528,Bigwin,,Ontario,CA,45.2428,-79.0233,ardac,347.4,False
ON529,Bigwood,,Ontario,CA,46.0333,-80.6003,ardac,482.6,False
ON530,Bill's Corners,,Ontario,CA,42.8133,-80.3744,ardac,522.8,False
ON531,Bill's Corners,,Ontario,CA,42.9689,-80.2608,ardac,506.4,False
ON532,Billings,,Ontario,CA,45.8512,-82.2185,ardac,574.1,False
ON533,Billings,,Ontario,CA,45.3872,-75.6725,ardac,87.8,True
ON534,Billings Bridge,,Ontario,CA,45.3807,-75.6742,ardac,87.6,True
ON535,Binbrook,,Ontario,CA,43.1207,-79.8044,ardac,464.9,False
ON536,Bingle,,Ontario,CA,48.9481,-80.4053,ardac,210.9,False
ON537,Binkham,,Ontario,CA,43.8113,-80.1017,ardac,457.9,False
ON538,Biota,,Ontario,CA,48.9894,-90.3815,ardac,701.3,False
ON539,Birch Cliff,,Ontario,CA,43.6889,-79.2732,ardac,398.5,False
ON540,Birch Haven,,Ontario,CA,46.3203,-79.4104,ardac,400.1,False
ON541,Birch Island,,Ontario,CA,46.0689,-81.7739,ardac,543.0,False
ON542,Birch Point,,Ontario,CA,44.5103,-78.5962,ardac,318.9,False
ON543,Birchmount Park,,Ontario,CA,43.7106,-79.2697,ardac,397.3,False
ON544,Birchwood,,Ontario,CA,43.5269,-79.6283,ardac,432.5,False
ON545,Birdell,,Ontario,CA,44.1625,-80.5088,ardac,479.5,False
ON546,Birds Creek,,Ontario,CA,45.1079,-77.8755,ardac,254.8,False
ON547,Birdsalls,,Ontario,CA,44.2821,-78.0545,ardac,282.2,False
ON548,Birge Mills,,Ontario,CA,43.6668,-80.2586,ardac,475.3,False
ON549,Birkendale,,Ontario,CA,45.2976,-78.9701,ardac,343.5,False
ON550,Birnam,,Ontario,CA,43.0535,-81.8798,ardac,625.2,False
ON551,Birr,,Ontario,CA,43.1214,-81.3328,ardac,580.2,False
ON552,Biscotasing,,Ontario,CA,47.2994,-82.1042,ardac,416.7,False
ON553,Bishop Corners,,Ontario,CA,44.7806,-77.1767,ardac,200.4,False
ON554,Bishops Mills,,Ontario,CA,44.8737,-75.7046,ardac,81.2,True
ON555,Bishopsgate,,Ontario,CA,43.1075,-80.4072,ardac,510.4,False
ON556,Bismarck,,Ontario,CA,43.0419,-79.5035,ardac,447.1,False
ON557,Bisseltown,,Ontario,CA,44.6875,-75.6747,ardac,84.8,True
ON558,Bissett Creek,,Ontario,CA,46.2242,-78.0678,ardac,298.4,False
ON559,Black Bank,,Ontario,CA,44.2296,-80.1534,ardac,449.5,False
ON560,Black Bay,,Ontario,CA,45.8742,-77.3606,ardac,231.9,False
ON561,Black Bridge,,Ontario,CA,44.9847,-79.2586,ardac,366.3,False
ON562,Black Creek,,Ontario,CA,42.98,-79.025,ardac,416.6,False
ON563,Black Creek,,Ontario,CA,43.9679,-77.0305,ardac,219.4,False
ON564,Black Donald,,Ontario,CA,45.2248,-76.9037,ardac,177.8,False
ON565,Black Hawk,,Ontario,CA,48.8094,-93.9842,ardac,901.0,False
ON566,Black Horse,,Ontario,CA,43.9824,-79.8099,ardac,429.3,False
ON567,Black Horse Corner,,Ontario,CA,43.0802,-79.1989,ardac,423.1,False
ON568,Black Rapids,,Ontario,CA,44.5083,-76.0933,ardac,123.9,False
ON569,Black River,,Ontario,CA,45.0786,-74.871,ardac,15.4,True
ON570,Black Road,,Ontario,CA,45.2758,-79.89,ardac,417.0,False
ON571,Blackburn,,Ontario,CA,45.4364,-75.5469,ardac,82.1,True
ON572,Blackburn Hamlet,,Ontario,CA,45.4367,-75.5646,ardac,83.3,True
ON573,Blackheath,,Ontario,CA,43.0751,-79.824,ardac,468.7,False
ON574,Blacks Corners,,Ontario,CA,45.1076,-76.1046,ardac,112.6,False
ON575,Blacks Corners,,Ontario,CA,44.0027,-80.2368,ardac,462.3,False
ON576,Blacks Corners,,Ontario,CA,43.3425,-79.9586,ardac,465.7,False
ON577,Blackstock,,Ontario,CA,44.1097,-78.8193,ardac,347.5,False
ON578,Blackstone,,Ontario,CA,45.257,-79.8427,ardac,413.1,False
ON579,Blackstone Lake,,Ontario,CA,45.2486,-79.8844,ardac,416.5,False
ON580,Blackwater,,Ontario,CA,44.2361,-79.0528,ardac,362.0,False
ON581,Blackwater Junction,,Ontario,CA,44.2375,-79.0461,ardac,361.4,False
ON582,Blackwell,,Ontario,CA,43.0203,-82.3197,ardac,660.6,False
ON583,Blair,,Ontario,CA,43.3833,-80.3882,ardac,496.6,False
ON584,Blairhampton,,Ontario,CA,45.0294,-78.6557,ardac,317.6,False
ON585,Blairs Settlement,,Ontario,CA,44.6392,-76.405,ardac,142.3,False
ON586,Blairton,,Ontario,CA,44.4643,-77.7626,ardac,253.8,False
ON587,Blairton Station,,Ontario,CA,44.4372,-77.8048,ardac,257.9,False
ON588,Blake,,Ontario,CA,43.4547,-81.6578,ardac,592.3,False
ON589,Blakeney,,Ontario,CA,45.2658,-76.2444,ardac,126.4,False
ON590,Blalock,,Ontario,CA,48.7547,-91.3214,ardac,773.6,False
ON591,Blanchard's Landing,,Ontario,CA,46.2833,-79.0275,ardac,370.5,False
ON592,Blanchards Hill,,Ontario,CA,44.7839,-76.0992,ardac,114.4,False
ON593,Blanche,,Ontario,CA,50.0762,-85.7113,ardac,351.8,False
ON594,Blandford Station,,Ontario,CA,43.2178,-80.6378,ardac,522.8,False
ON595,Blantyre,,Ontario,CA,44.5008,-80.6342,ardac,482.5,False
ON596,Blenheim,,Ontario,CA,42.3335,-81.9987,ardac,668.0,False
ON597,Blenheim Junction,,Ontario,CA,42.3272,-82.0114,ardac,669.3,False
ON598,Blessington,,Ontario,CA,44.2628,-77.2667,ardac,222.2,False
ON599,Blezard,,Ontario,CA,44.2958,-78.0994,ardac,285.2,False
ON600,Blezard Valley,,Ontario,CA,46.6092,-81.0506,ardac,470.1,False
ON601,Blind River,,Ontario,CA,46.1858,-82.9606,ardac,550.5,False
ON602,Blind River,,Ontario,CA,46.3023,-82.878,ardac,536.5,False
ON603,Blink Bonnie,,Ontario,CA,43.2979,-80.649,ardac,520.2,False
ON604,Bloomfield,,Ontario,CA,43.9856,-77.2314,ardac,232.7,False
ON605,Bloomingdale,,Ontario,CA,43.5078,-80.4622,ardac,497.2,False
ON606,Bloomington,,Ontario,CA,44.0054,-79.2647,ardac,385.8,False
ON607,Bloomington,,Ontario,CA,45.2603,-74.8828,ardac,30.0,True
ON608,Bloomsburg,,Ontario,CA,42.8874,-80.2988,ardac,513.4,False
ON609,Bloordale Gardens,,Ontario,CA,43.6379,-79.5674,ardac,423.1,False
ON610,Blossom Park,,Ontario,CA,45.3489,-75.6267,ardac,82.6,True
ON611,Blount,,Ontario,CA,49.2614,-81.0242,ardac,192.7,False
ON612,Blount,,Ontario,CA,43.9642,-80.0239,ardac,446.7,False
ON613,Blue Church,,Ontario,CA,44.6803,-75.5589,ardac,76.7,True
ON614,Blue Corners,,Ontario,CA,45.5845,-74.8046,ardac,34.0,True
ON615,Blue Mountain,,Ontario,CA,44.6749,-77.945,ardac,263.7,False
ON616,Blue Mountains,,Ontario,CA,44.4781,-80.4014,ardac,464.1,False
ON617,Blue Springs,,Ontario,CA,43.6185,-80.0968,ardac,464.6,False
ON618,Blue Water Beach,,Ontario,CA,43.7176,-81.7221,ardac,588.5,False
ON619,Bluevale,,Ontario,CA,43.8542,-81.2514,ardac,547.1,False
ON620,Bluevale Siding,,Ontario,CA,43.846,-81.2573,ardac,547.8,False
ON621,Bluewater,,Ontario,CA,43.4767,-81.6029,ardac,587.2,False
ON622,Bluewater Beach,,Ontario,CA,44.6258,-79.9903,ardac,428.7,False
ON623,Blyth,,Ontario,CA,43.7346,-81.4283,ardac,564.7,False
ON624,Blytheswood,,Ontario,CA,42.1212,-82.5949,ardac,723.5,False
ON625,Boakview,,Ontario,CA,45.5713,-80.0318,ardac,430.5,False
ON626,Bobcaygeon,,Ontario,CA,44.5468,-78.5577,ardac,315.1,False
ON627,Bobs Lake,,Ontario,CA,44.6453,-76.6524,ardac,161.5,False
ON628,Bogart,,Ontario,CA,44.4983,-77.2489,ardac,212.5,False
ON629,Bogarttown,,Ontario,CA,44.0451,-79.4246,ardac,397.0,False
ON630,Bogies Beach,,Ontario,CA,43.8139,-81.7219,ardac,585.6,False
ON631,Bognor,,Ontario,CA,44.5227,-80.743,ardac,490.8,False
ON632,Boland's Bay,,Ontario,CA,46.6532,-80.7664,ardac,460.1,False
ON633,Bolger,,Ontario,CA,45.6802,-80.1195,ardac,438.8,False
ON634,Bolger Bridge,,Ontario,CA,45.6806,-80.1222,ardac,439.1,False
ON635,Bolingbroke,,Ontario,CA,44.7596,-76.5193,ardac,148.2,False
ON636,Bolingbroke Siding,,Ontario,CA,44.7725,-76.5389,ardac,149.5,False
ON637,Bolkow,,Ontario,CA,48.1103,-83.9117,ardac,385.4,False
ON638,Bolsover,,Ontario,CA,44.5302,-79.06,ardac,355.6,False
ON639,Bolton,,Ontario,CA,43.8804,-79.7381,ardac,427.1,False
ON640,Bon Air,,Ontario,CA,46.0169,-80.571,ardac,480.0,False
ON641,Bon Echo,,Ontario,CA,44.8976,-77.1971,ardac,200.7,False
ON642,Bon Secours Beach,,Ontario,CA,44.3306,-79.5317,ardac,397.5,False
ON643,Bona Vista,,Ontario,CA,45.2612,-79.0763,ardac,351.8,False
ON644,Bonarlaw,,Ontario,CA,44.4275,-77.6264,ardac,244.2,False
ON645,Bond Head,,Ontario,CA,44.0892,-79.6767,ardac,415.5,False
ON646,Bond's Corners,,Ontario,CA,43.1403,-80.6992,ardac,531.0,False
ON647,Bondi Village,,Ontario,CA,45.2962,-79.0154,ardac,347.1,False
ON648,Bonfield,,Ontario,CA,46.2322,-79.1454,ardac,377.3,False
ON649,Bongard,,Ontario,CA,44.0513,-76.9577,ardac,209.6,False
ON650,Bongard Corners,,Ontario,CA,44.0561,-76.9279,ardac,207.2,False
ON651,Bonheur,,Ontario,CA,49.3125,-91.33,ardac,742.2,False
ON652,Boninville,,Ontario,CA,46.595,-81.0914,ardac,472.4,False
ON653,Bonnechere,,Ontario,CA,45.6461,-77.5733,ardac,239.5,False
ON654,Bonnie Beach,,Ontario,CA,44.5639,-79.3022,ardac,374.4,False
ON655,Bonville,,Ontario,CA,45.1282,-74.8228,ardac,16.5,True
ON656,Bookton,,Ontario,CA,42.9477,-80.5028,ardac,525.4,False
ON657,Boon,,Ontario,CA,49.3781,-83.9519,ardac,279.6,False
ON658,Booth,,Ontario,CA,46.1942,-79.3306,ardac,389.9,False
ON659,Booth Landing,,Ontario,CA,46.1438,-79.2048,ardac,378.8,False
ON660,Boothville,,Ontario,CA,44.1415,-80.6261,ardac,489.4,False
ON661,Borden,,Ontario,CA,44.2802,-79.8943,ardac,427.7,False
ON662,Borden Farm,,Ontario,CA,45.35,-75.7333,ardac,90.4,True
ON663,Bordenwood,,Ontario,CA,44.7153,-77.0471,ardac,191.1,False
ON664,Bornholm,,Ontario,CA,43.5312,-81.1446,ardac,549.3,False
ON665,Bornish,,Ontario,CA,43.1021,-81.6765,ardac,607.5,False
ON666,Borups Corners,,Ontario,CA,49.5833,-92.3225,ardac,763.3,False
ON667,Boskung,,Ontario,CA,45.0744,-78.7544,ardac,325.5,False
ON668,Boston,,Ontario,CA,43.5536,-79.9164,ardac,453.3,False
ON669,Boston,,Ontario,CA,42.9919,-80.2704,ardac,505.9,False
ON670,Boston Creek,,Ontario,CA,48.0107,-79.9377,ardac,302.2,False
ON671,Boston Mills,,Ontario,CA,43.7694,-79.9258,ardac,445.6,False
ON672,Bosworth,,Ontario,CA,43.7867,-80.6461,ardac,501.4,False
ON673,Botany,,Ontario,CA,42.4917,-81.9847,ardac,658.9,False
ON674,Bothwell,,Ontario,CA,42.6319,-81.87,ardac,643.4,False
ON675,Bothwell Station,,Ontario,CA,42.6446,-81.8959,ardac,644.8,False
ON676,Bothwell's Corner,,Ontario,CA,44.5786,-80.8769,ardac,500.7,False
ON677,Boucks Hill,,Ontario,CA,44.9863,-75.2187,ardac,40.8,True
ON678,Boulter,,Ontario,CA,45.2135,-77.6374,ardac,236.3,False
ON679,Bourdages Corner,,Ontario,CA,46.7286,-84.2967,ardac,531.8,False
ON680,Bourdeau,,Ontario,CA,45.5043,-79.5441,ardac,391.1,False
ON681,Bourget,,Ontario,CA,45.436,-75.1581,ardac,58.9,True
ON682,Bourkes,,Ontario,CA,48.2913,-80.2282,ardac,276.0,False
ON683,Bowen Corner,,Ontario,CA,45.0753,-77.6947,ardac,240.2,False
ON684,Bowermans,,Ontario,CA,44.0085,-77.3646,ardac,241.1,False
ON685,Bowers Beach,,Ontario,CA,44.4817,-80.1469,ardac,443.6,False
ON686,Bowesville,,Ontario,CA,45.324,-75.663,ardac,84.1,True
ON687,Bowker,,Ontario,CA,48.7151,-88.6271,ardac,608.2,False
ON688,Bowling Green,,Ontario,CA,43.9439,-80.2594,ardac,465.9,False
ON689,Bowmanville,,Ontario,CA,43.9114,-78.6875,ardac,344.6,False
ON690,Bowood,,Ontario,CA,43.0808,-81.5303,ardac,597.1,False
ON691,Bowser's Corner,,Ontario,CA,45.8435,-82.2184,ardac,574.9,False
ON692,Box Alder,,Ontario,CA,48.5621,-93.6738,ardac,912.6,False
ON693,Box Grove,,Ontario,CA,43.8581,-79.2306,ardac,388.4,False
ON694,Boyds,,Ontario,CA,45.0908,-76.2531,ardac,124.4,False
ON695,Boyle,,Ontario,CA,43.0196,-79.4121,ardac,441.7,False
ON696,Boyne,,Ontario,CA,43.4872,-79.835,ardac,449.9,False
ON697,Bracebridge,,Ontario,CA,45.0264,-79.19,ardac,360.6,False
ON698,Brackenrig,,Ontario,CA,45.1197,-79.5229,ardac,387.3,False
ON699,Bradburn Subdivision,,Ontario,CA,42.8779,-80.7554,ardac,547.7,False
ON700,Bradens Bay,,Ontario,CA,44.4586,-79.4931,ardac,391.7,False
ON701,Bradford,,Ontario,CA,44.1152,-79.566,ardac,406.0,False
ON702,Bradford West Gwillimbury,,Ontario,CA,44.1374,-79.6173,ardac,409.4,False
ON703,Bradley,,Ontario,CA,44.2429,-81.2991,ardac,540.9,False
ON704,Bradley,,Ontario,CA,42.3415,-82.4128,ardac,698.6,False
ON705,Bradlo,,Ontario,CA,49.6014,-83.6472,ardac,246.6,False
ON706,Bradshaw,,Ontario,CA,44.6765,-76.6446,ardac,160.1,False
ON707,Bradshaw,,Ontario,CA,42.7509,-82.2779,ardac,668.9,False
ON708,Brady Lake,,Ontario,CA,45.0486,-78.8308,ardac,331.7,False
ON709,Braeheid Survey,,Ontario,CA,43.3303,-79.9117,ardac,462.7,False
ON710,Braemar,,Ontario,CA,43.1953,-80.8475,ardac,539.8,False
ON711,Braemar Park,,Ontario,CA,45.3672,-75.756,ardac,92.8,True
ON712,Braeside,,Ontario,CA,45.4628,-76.405,ardac,144.8,False
ON713,Bramalea,,Ontario,CA,43.7251,-79.7174,ardac,431.1,False
ON714,Bramalea Woods,,Ontario,CA,43.7144,-79.735,ardac,432.9,False
ON715,Bramley,,Ontario,CA,44.3179,-79.5935,ardac,402.8,False
ON716,Brampton,,Ontario,CA,43.6883,-79.7608,ardac,435.9,False
ON717,Branchton,,Ontario,CA,43.3098,-80.2607,ardac,490.1,False
ON718,Brandy Point,,Ontario,CA,43.4367,-81.2242,ardac,559.0,False
ON719,Brant Hills,,Ontario,CA,43.3658,-79.8407,ardac,455.7,False
ON720,Brantford,,Ontario,CA,43.1569,-80.2575,ardac,496.9,False
ON721,Braund Port,,Ontario,CA,44.2674,-78.3278,ardac,304.0,False
ON722,Brawny,,Ontario,CA,45.9047,-77.9511,ardac,276.7,False
ON723,Bray Lake,,Ontario,CA,45.8892,-79.4181,ardac,387.9,False
ON724,Breadalbane,,Ontario,CA,45.4731,-74.5875,ardac,19.2,True
ON725,Brechin,,Ontario,CA,44.5472,-79.1769,ardac,364.6,False
ON726,Brechin Beach,,Ontario,CA,44.5316,-79.2041,ardac,367.1,False
ON727,Brechin East,,Ontario,CA,44.5451,-79.1805,ardac,365.0,False
ON728,Brechin Point,,Ontario,CA,44.5357,-79.2086,ardac,367.4,False
ON729,Breezy's Corners,,Ontario,CA,43.3764,-80.0053,ardac,467.7,False
ON730,Bremner,,Ontario,CA,48.6706,-85.4761,ardac,415.6,False
ON731,Brennan Harbour,,Ontario,CA,46.1876,-82.386,ardac,540.2,False
ON732,Brent,,Ontario,CA,46.03,-78.4808,ardac,320.7,False
ON733,Brentha,,Ontario,CA,47.7839,-79.9089,ardac,326.6,False
ON734,Brentwood,,Ontario,CA,44.3454,-79.9381,ardac,429.7,False
ON735,Breslau,,Ontario,CA,43.4753,-80.4125,ardac,494.6,False
ON736,Brethour,,Ontario,CA,47.7264,-79.5664,ardac,330.6,False
ON737,Brewer Lake,,Ontario,CA,44.4017,-76.3275,ardac,146.1,False
ON738,Brewers Mills,,Ontario,CA,44.4181,-76.3039,ardac,143.6,False
ON739,Briargreen,,Ontario,CA,45.3389,-75.78,ardac,93.3,True
ON740,Briars Park,,Ontario,CA,44.3204,-79.3488,ardac,383.2,False
ON741,Brickley,,Ontario,CA,44.2519,-77.9394,ardac,274.2,False
ON742,Bridge End,,Ontario,CA,45.2692,-74.4485,ardac,9.3,True
ON743,Bridgenorth,,Ontario,CA,44.3829,-78.3849,ardac,305.1,False
ON744,Bridgeport,,Ontario,CA,43.4822,-80.4836,ardac,499.8,False
ON745,Bridgeview,,Ontario,CA,42.2983,-83.0518,ardac,749.1,False
ON746,Bridgeview Survey,,Ontario,CA,43.3033,-79.9028,ardac,463.3,False
ON747,Bridlewood,,Ontario,CA,45.2852,-75.8569,ardac,97.0,True
ON748,Brient,,Ontario,CA,47.97,-84.8847,ardac,440.5,False
ON749,Brier Hill,,Ontario,CA,44.5523,-76.1685,ardac,127.4,False
ON750,Brigden,,Ontario,CA,42.8126,-82.2828,ardac,666.6,False
ON751,Bright,,Ontario,CA,43.2697,-80.6567,ardac,522.0,False
ON752,Brighton,,Ontario,CA,44.0406,-77.7376,ardac,267.2,False
ON753,Brighton,,Ontario,CA,44.1222,-77.7642,ardac,265.7,False
ON754,Brighton Beach,,Ontario,CA,42.2744,-83.0894,ardac,753.1,False
ON755,Brighton Beach,,Ontario,CA,44.2832,-79.4895,ardac,395.3,False
ON756,Brights Grove,,Ontario,CA,43.0308,-82.2521,ardac,654.9,False
ON757,Brightside,,Ontario,CA,45.1211,-76.4944,ardac,144.0,False
ON758,Brignall,,Ontario,CA,45.2558,-79.8442,ardac,413.3,False
ON759,Brimstone,,Ontario,CA,43.8079,-80.0,ardac,450.0,False
ON760,Brindle Crossing,,Ontario,CA,45.9311,-77.3353,ardac,232.6,False
ON761,Brinka,,Ontario,CA,50.0032,-94.3067,ardac,772.4,False
ON762,Brinklow,,Ontario,CA,44.8975,-77.6988,ardac,241.1,False
ON763,Brinkman's Corners,,Ontario,CA,45.1453,-81.3943,ardac,537.6,False
ON764,Brinsley,,Ontario,CA,43.2081,-81.5314,ardac,591.9,False
ON765,Brinston,,Ontario,CA,44.9397,-75.3594,ardac,52.5,True
ON766,Brisbane,,Ontario,CA,43.7444,-80.0775,ardac,458.3,False
ON767,Brisson,,Ontario,CA,45.2986,-75.3261,ardac,59.1,True
ON768,Britainville,,Ontario,CA,45.7328,-82.4019,ardac,589.2,False
ON769,Britannia,,Ontario,CA,45.2961,-79.0744,ardac,351.8,False
ON770,Britannia,,Ontario,CA,45.363,-75.7943,ardac,95.4,True
ON771,Britannia,,Ontario,CA,43.6253,-79.6791,ardac,432.2,False
ON772,Britannia Bay,,Ontario,CA,45.3688,-75.7998,ardac,96.1,True
ON773,Britannia Heights,,Ontario,CA,45.3608,-75.7883,ardac,94.9,True
ON774,Britannia Road,,Ontario,CA,45.2713,-79.1778,ardac,360.0,False
ON775,Britt,,Ontario,CA,45.7732,-80.5565,ardac,474.6,False
ON776,Britt Station,,Ontario,CA,45.7928,-80.5403,ardac,473.6,False
ON777,Britton,,Ontario,CA,43.6778,-80.9247,ardac,526.9,False
ON778,Broadbent,,Ontario,CA,45.4469,-79.8356,ardac,413.7,False
ON779,Broadview Gardens,,Ontario,CA,46.5411,-84.3872,ardac,553.3,False
ON780,Brock Gardens,,Ontario,CA,43.2911,-80.0003,ardac,471.2,False
ON781,Brock Road,,Ontario,CA,43.8817,-79.0878,ardac,376.5,False
ON782,Brockley,,Ontario,CA,42.9156,-81.1967,ardac,579.0,False
ON783,Brocks Beach,,Ontario,CA,44.4672,-80.1058,ardac,440.6,False
ON784,Brocksden,,Ontario,CA,43.3881,-80.8869,ardac,534.8,False
ON785,Brockville,,Ontario,CA,44.5973,-75.6855,ardac,90.0,True
ON786,Brodhagen,,Ontario,CA,43.5603,-81.2094,ardac,553.4,False
ON787,Brodie,,Ontario,CA,45.4192,-74.5533,ardac,20.2,True
ON788,Brodie,,Ontario,CA,46.4894,-80.9711,ardac,481.2,False
ON789,Bromley,,Ontario,CA,45.5396,-76.884,ardac,183.6,False
ON790,Bronson,,Ontario,CA,45.0642,-77.7889,ardac,247.8,False
ON791,Bronson Station,,Ontario,CA,45.0386,-77.7914,ardac,248.0,False
ON792,Bronte,,Ontario,CA,43.3894,-79.7178,ardac,445.4,False
ON793,Bronte Station,,Ontario,CA,43.4053,-79.7317,ardac,445.7,False
ON794,Brooke,,Ontario,CA,44.5847,-80.9694,ardac,508.1,False
ON795,Brooke,,Ontario,CA,44.8561,-76.4306,ardac,139.5,False
ON796,Brookfield,,Ontario,CA,46.5328,-84.3908,ardac,554.2,False
ON797,Brookfield,,Ontario,CA,42.9607,-79.1606,ardac,427.2,False
ON798,Brooklin,,Ontario,CA,43.9583,-78.9597,ardac,363.8,False
ON799,Brooks Landing,,Ontario,CA,45.4327,-80.3365,ardac,453.5,False
ON800,Brooks Mill,,Ontario,CA,45.4222,-79.0172,ardac,348.4,False
ON801,Brooksdale,,Ontario,CA,43.2272,-80.9367,ardac,545.3,False
ON802,Brookside,,Ontario,CA,43.9786,-78.0828,ardac,295.9,False
ON803,Brookville,,Ontario,CA,43.5317,-80.0456,ardac,464.1,False
ON804,Brotherston,,Ontario,CA,43.8193,-80.9622,ardac,525.2,False
ON805,Brougham,,Ontario,CA,43.9183,-79.1072,ardac,376.6,False
ON806,Broughdale,,Ontario,CA,43.0096,-81.2598,ardac,579.5,False
ON807,Broulan Reef,,Ontario,CA,48.514,-81.1393,ardac,275.1,False
ON808,Brouseville,,Ontario,CA,44.8313,-75.4223,ardac,60.1,True
ON809,Brower,,Ontario,CA,49.0154,-80.8326,ardac,217.7,False
ON810,Brown Hill,,Ontario,CA,44.2226,-79.3294,ardac,384.2,False
ON811,Brown House Corner,,Ontario,CA,45.2233,-74.5669,ardac,9.9,True
ON812,Brown's Corners,,Ontario,CA,42.9298,-80.5815,ardac,532.1,False
ON813,Brown's Corners,,Ontario,CA,43.8497,-79.3586,ardac,398.7,False
ON814,Brown's Corners,,Ontario,CA,43.1812,-81.0887,ardac,558.9,False
ON815,Browning Island,,Ontario,CA,44.9998,-79.4066,ardac,378.2,False
ON816,Brownrigg,,Ontario,CA,49.6819,-81.5219,ardac,151.9,False
ON817,Browns Brae,,Ontario,CA,45.2127,-79.03,ardac,347.8,False
ON818,Browns Corners,,Ontario,CA,43.8124,-79.2468,ardac,391.5,False
ON819,Brownsville,,Ontario,CA,42.8617,-80.8394,ardac,554.8,False
ON820,Brownsville Station,,Ontario,CA,42.8554,-80.8371,ardac,554.9,False
ON821,Bruce Farm,,Ontario,CA,45.3333,-75.8,ardac,94.6,True
ON822,Bruce Lake,,Ontario,CA,50.8161,-93.3896,ardac,677.6,False
ON823,Bruce Mines,,Ontario,CA,46.301,-83.7947,ardac,558.8,False
ON824,Bruce Station,,Ontario,CA,46.3168,-83.7676,ardac,556.4,False
ON825,Brucedale,,Ontario,CA,43.6478,-80.1864,ardac,470.4,False
ON826,Brucefield,,Ontario,CA,43.5257,-81.5177,ardac,578.8,False
ON827,Bruces,,Ontario,CA,43.2743,-80.252,ardac,491.0,False
ON828,Bruceton,,Ontario,CA,45.2166,-77.3902,ardac,216.5,False
ON829,Brudenell,,Ontario,CA,45.4446,-77.3966,ardac,220.7,False
ON830,Brumsfield,,Ontario,CA,45.8172,-77.1353,ardac,213.1,False
ON831,Brunetville,,Ontario,CA,49.4197,-82.4067,ardac,204.1,False
ON832,Brunner,,Ontario,CA,43.5204,-80.9224,ardac,532.4,False
ON833,Brunswick,,Ontario,CA,44.2071,-78.5802,ardac,325.7,False
ON834,Brussels,,Ontario,CA,43.7428,-81.2508,ardac,550.5,False
ON835,Bryanston,,Ontario,CA,43.1256,-81.2692,ardac,575.1,False
ON836,Buchanan,,Ontario,CA,43.2347,-79.8936,ardac,465.9,False
ON837,Buck Lake,,Ontario,CA,44.5253,-76.4547,ardac,150.1,False
ON838,Buckham's Bay,,Ontario,CA,45.4978,-76.1008,ardac,123.8,False
ON839,Buckhorn,,Ontario,CA,44.553,-78.3511,ardac,298.4,False
ON840,Buckley,,Ontario,CA,46.5336,-84.3692,ardac,553.4,False
ON841,Buckskin,,Ontario,CA,44.8656,-79.6,ardac,394.5,False
ON842,Bucyrus,,Ontario,CA,46.9243,-84.2068,ardac,509.5,False
ON843,Buda,,Ontario,CA,48.6639,-89.8153,ardac,688.1,False
ON844,Budd Mills,,Ontario,CA,45.6373,-77.2551,ardac,215.0,False
ON845,Buena Vista Park,,Ontario,CA,44.7063,-79.386,ardac,379.0,False
ON846,Buffalo Heights,,Ontario,CA,42.8906,-78.9921,ardac,419.7,False
ON847,Buffalo Rock,,Ontario,CA,47.0143,-79.3665,ardac,408.1,False
ON848,Buffalo-Ankerite,,Ontario,CA,48.439,-81.2693,ardac,284.0,False
ON849,Bulgers Corners,,Ontario,CA,45.5936,-77.0219,ardac,195.9,False
ON850,Buller,,Ontario,CA,44.4492,-77.3731,ardac,223.7,False
ON851,Buller,,Ontario,CA,44.7968,-78.7537,ardac,327.0,False
ON852,Buller Siding,,Ontario,CA,44.4483,-77.3756,ardac,223.9,False
ON853,Bullock,,Ontario,CA,45.1039,-76.47,ardac,141.9,False
ON854,Bullocks Corners,,Ontario,CA,43.2785,-79.9857,ardac,470.7,False
ON855,Bummers' Roost,,Ontario,CA,45.8158,-79.6256,ardac,402.4,False
ON856,Bunessan,,Ontario,CA,44.1908,-80.7153,ardac,495.3,False
ON857,Bunker Hill,,Ontario,CA,45.0453,-75.0239,ardac,25.5,True
ON858,Bunyan,,Ontario,CA,42.9344,-82.2789,ardac,661.0,False
ON859,Bur Creek,,Ontario,CA,44.2969,-76.5603,ardac,168.2,False
ON860,Burchell Lake,,Ontario,CA,48.6032,-90.591,ardac,738.4,False
ON861,Burditt Lake,,Ontario,CA,48.9232,-93.8042,ardac,886.3,False
ON862,Burford,,Ontario,CA,43.1031,-80.4294,ardac,512.3,False
ON863,Burgess Mines,,Ontario,CA,45.2656,-77.7,ardac,241.8,False
ON864,Burgessville,,Ontario,CA,43.0247,-80.6533,ardac,532.9,False
ON865,Burgoyne,,Ontario,CA,44.4385,-81.3174,ardac,538.5,False
ON866,Burk's Falls,,Ontario,CA,45.6292,-79.4032,ardac,381.7,False
ON867,Burke Settlement,,Ontario,CA,44.8592,-76.7303,ardac,163.5,False
ON868,Burketon Station,,Ontario,CA,44.0537,-78.7931,ardac,347.4,False
ON869,Burleigh Falls,,Ontario,CA,44.5615,-78.2137,ardac,287.3,False
ON870,Burlington,,Ontario,CA,43.3701,-79.814,ardac,453.5,False
ON871,Burlington Beach,,Ontario,CA,43.3089,-79.8014,ardac,455.4,False
ON872,Burnaby,,Ontario,CA,42.8692,-79.3536,ardac,446.2,False
ON873,Burnbrae,,Ontario,CA,44.3224,-77.7079,ardac,253.9,False
ON874,Burnhamthorpe,,Ontario,CA,43.6231,-79.5931,ardac,425.7,False
ON875,Burnley,,Ontario,CA,44.1597,-78.0031,ardac,282.5,False
ON876,Burns,,Ontario,CA,43.6324,-80.8443,ardac,522.2,False
ON877,Burnside,,Ontario,CA,44.7526,-79.5187,ardac,389.1,False
ON878,Burnstown,,Ontario,CA,45.3878,-76.5794,ardac,155.7,False
ON879,Burnt Hills,,Ontario,CA,44.4542,-76.3044,ardac,141.9,False
ON880,Burnt Island,,Ontario,CA,45.8203,-82.9492,ardac,588.9,False
ON881,Burnt River,,Ontario,CA,44.675,-78.6978,ardac,324.0,False
ON882,Burpee,,Ontario,CA,45.7842,-82.5703,ardac,586.2,False
ON883,Burr,,Ontario,CA,44.0422,-77.38,ardac,240.6,False
ON884,Burridge,,Ontario,CA,44.6575,-76.5422,ardac,152.5,False
ON885,Burriss,,Ontario,CA,48.6786,-93.6721,ardac,902.1,False
ON886,Burritts Rapids,,Ontario,CA,44.9811,-75.7972,ardac,87.4,True
ON887,Burtch,,Ontario,CA,43.0611,-80.2674,ardac,502.2,False
ON888,Burton,,Ontario,CA,44.1285,-78.732,ardac,340.1,False
ON889,Burton,,Ontario,CA,45.7144,-80.2094,ardac,446.4,False
ON890,Burwash,,Ontario,CA,46.2394,-80.8508,ardac,505.7,False
ON891,Burys Green,,Ontario,CA,44.61,-78.6706,ardac,322.9,False
ON892,Bush Glen,,Ontario,CA,45.0442,-75.0978,ardac,31.4,True
ON893,Bushnell,,Ontario,CA,46.8044,-79.5744,ardac,430.3,False
ON894,Buskegau,,Ontario,CA,49.0944,-81.2,ardac,211.8,False
ON895,Busteed,,Ontario,CA,49.7544,-94.7722,ardac,803.9,False
ON896,Busy Bee Corners,,Ontario,CA,42.0984,-83.0349,ardac,757.7,False
ON897,Butler,,Ontario,CA,49.4645,-91.8169,ardac,753.4,False
ON898,Buttermilk Falls,,Ontario,CA,45.0969,-78.7458,ardac,324.8,False
ON899,Butternut Bay,,Ontario,CA,44.5199,-75.7807,ardac,100.9,False
ON900,Button's Corners,,Ontario,CA,47.4656,-79.8024,ardac,360.4,False
ON901,Buttonville,,Ontario,CA,43.8643,-79.3625,ardac,398.4,False
ON902,Buzwah,,Ontario,CA,45.7523,-81.782,ardac,570.9,False
ON903,Byersville,,Ontario,CA,44.2866,-78.3505,ardac,305.2,False
ON904,Byng,,Ontario,CA,42.8929,-79.6266,ardac,464.2,False
ON905,Byng Inlet,,Ontario,CA,45.7691,-80.5532,ardac,474.2,False
ON906,Byrnedale,,Ontario,CA,42.2466,-82.6696,ardac,722.7,False
ON907,Byron,,Ontario,CA,42.954,-81.3323,ardac,587.5,False
ON908,Cabbagetown,,Ontario,CA,43.6633,-79.3656,ardac,406.6,False
ON909,Cache Bay,,Ontario,CA,46.3734,-79.9896,ardac,445.1,False
ON910,Cachet,,Ontario,CA,43.8883,-79.345,ardac,396.2,False
ON911,Caderette,,Ontario,CA,46.3795,-80.0388,ardac,448.9,False
ON912,Cadmus,,Ontario,CA,44.1199,-78.7692,ardac,343.3,False
ON913,Caesarea,,Ontario,CA,44.1586,-78.8317,ardac,346.9,False
ON914,Cahore,,Ontario,CA,45.1781,-75.1947,ardac,43.4,True
ON915,Cainsville,,Ontario,CA,43.1453,-80.1966,ardac,492.8,False
ON916,Caintown,,Ontario,CA,44.5253,-75.8856,ardac,108.0,False
ON917,Cairngorm,,Ontario,CA,42.9038,-81.6697,ardac,615.5,False
ON918,Cairo,,Ontario,CA,42.7061,-81.8969,ardac,641.9,False
ON919,Caistor Centre,,Ontario,CA,43.0707,-79.6515,ardac,456.3,False
ON920,Caistorville,,Ontario,CA,43.0511,-79.7153,ardac,462.0,False
ON921,Calabogie,,Ontario,CA,45.3047,-76.7169,ardac,164.4,False
ON922,Calamity Corners,,Ontario,CA,43.0264,-81.2821,ardac,580.5,False
ON923,Calderwood,,Ontario,CA,44.0192,-80.8683,ardac,511.9,False
ON924,Caledon,,Ontario,CA,43.8661,-79.859,ardac,437.0,False
ON925,Caledon East,,Ontario,CA,43.8694,-79.8667,ardac,437.5,False
ON926,Caledon Village,,Ontario,CA,43.8625,-79.9946,ardac,447.7,False
ON927,Caledonia,,Ontario,CA,43.0711,-79.9536,ardac,478.4,False
ON928,Caledonia Front,,Ontario,CA,45.5411,-74.7275,ardac,27.8,True
ON929,Caledonia Springs,,Ontario,CA,45.5431,-74.8017,ardac,33.7,True
ON930,California,,Ontario,CA,44.545,-76.2761,ardac,135.8,False
ON931,California,,Ontario,CA,45.2193,-76.4877,ardac,144.7,False
ON932,Caliper Lake,,Ontario,CA,49.0603,-93.8947,ardac,873.0,False
ON933,Callander,,Ontario,CA,46.2234,-79.3646,ardac,393.4,False
ON934,Callum,,Ontario,CA,46.5155,-80.6276,ardac,472.6,False
ON935,Calm Lake,,Ontario,CA,48.7497,-92.1742,ardac,827.5,False
ON936,Calong,,Ontario,CA,49.7706,-86.5336,ardac,419.4,False
ON937,Calstock,,Ontario,CA,49.7881,-84.1382,ardac,262.8,False
ON938,Calton,,Ontario,CA,42.7114,-80.8594,ardac,563.9,False
ON939,Calvin Park,,Ontario,CA,44.2328,-76.5241,ardac,169.0,False
ON940,Camborne,,Ontario,CA,44.0372,-78.2194,ardac,303.8,False
ON941,Cambray,,Ontario,CA,44.4087,-78.8321,ardac,340.0,False
ON942,Cambrian Heights,,Ontario,CA,46.5114,-80.9983,ardac,479.4,False
ON943,Cambridge,,Ontario,CA,43.3972,-80.3114,ardac,490.1,False
ON944,Cambridge Forest Estates,,Ontario,CA,45.3578,-75.2524,ardac,58.3,True
ON945,Camden East,,Ontario,CA,44.335,-76.8319,ardac,186.4,False
ON946,Camel Chute,,Ontario,CA,45.1897,-77.1144,ardac,194.2,False
ON947,Camelot Beach,,Ontario,CA,42.8797,-79.3025,ardac,442.0,False
ON948,Cameron,,Ontario,CA,44.44,-78.7739,ardac,334.6,False
ON949,Cameron,,Ontario,CA,44.3258,-78.0944,ardac,283.9,False
ON950,Cameron Falls,,Ontario,CA,49.1524,-88.3455,ardac,568.2,False
ON951,Camerons Point,,Ontario,CA,45.0761,-74.5328,ardac,1.3,True
ON952,Camilla,,Ontario,CA,43.9996,-80.1165,ardac,452.9,False
ON953,Camlachie,,Ontario,CA,43.0365,-82.1629,ardac,647.8,False
ON954,Camp Acouchiching,,Ontario,CA,46.8553,-80.0714,ardac,429.0,False
ON955,Camp Agamik,,Ontario,CA,46.98,-80.0243,ardac,415.0,False
ON956,Camp Bigwee,,Ontario,CA,47.0125,-80.1147,ardac,412.4,False
ON957,Camp Cayuga,,Ontario,CA,47.0061,-80.1142,ardac,413.1,False
ON958,Camp Champlain,,Ontario,CA,46.3223,-79.2949,ardac,391.6,False
ON959,Camp Chimo,,Ontario,CA,46.9217,-80.0825,ardac,421.9,False
ON960,Camp Cochrane,,Ontario,CA,46.9003,-80.0767,ardac,424.2,False
ON961,Camp Kagawong,,Ontario,CA,44.55,-78.8294,ardac,336.7,False
ON962,Camp Kenda,,Ontario,CA,47.8344,-81.8786,ardac,355.9,False
ON963,Camp Kenogaming,,Ontario,CA,47.9703,-81.9436,ardac,342.2,False
ON964,Camp Ketchini,,Ontario,CA,47.8605,-81.8965,ardac,353.3,False
ON965,Camp Oconto,,Ontario,CA,44.6963,-76.6853,ardac,162.8,False
ON966,Camp Robinson,,Ontario,CA,50.1305,-93.221,ardac,751.9,False
ON967,Camp Wanapitei,,Ontario,CA,47.1631,-80.065,ardac,395.5,False
ON968,Camp White Bear,,Ontario,CA,46.8753,-80.1443,ardac,427.6,False
ON969,Camp Wigwasati,,Ontario,CA,46.9228,-80.1122,ardac,422.1,False
ON970,Campania,,Ontario,CA,43.9896,-80.3035,ardac,468.0,False
ON971,Campbell Maxwell Front,,Ontario,CA,44.3094,-76.2464,ardac,145.3,False
ON972,Campbellcroft,,Ontario,CA,44.0647,-78.3736,ardac,314.6,False
ON973,Campbellford,,Ontario,CA,44.3087,-77.7949,ardac,261.1,False
ON974,Campbells Beach,,Ontario,CA,44.615,-79.1172,ardac,358.7,False
ON975,Campbells Corners,,Ontario,CA,44.9082,-75.5626,ardac,69.2,True
ON976,Campbells Cross,,Ontario,CA,43.7838,-79.8668,ardac,440.5,False
ON977,Campbellton,,Ontario,CA,42.681,-81.5843,ardac,619.5,False
ON978,Campbelltown,,Ontario,CA,44.2169,-78.2331,ardac,298.2,False
ON979,Campbellville,,Ontario,CA,43.4881,-79.9822,ardac,461.1,False
ON980,Campden,,Ontario,CA,43.135,-79.4342,ardac,437.0,False
ON981,Camperdown,,Ontario,CA,44.5391,-80.4024,ardac,463.2,False
ON982,Canaan,,Ontario,CA,45.4507,-75.2927,ardac,67.6,True
ON983,Canal,,Ontario,CA,45.3382,-79.1355,ardac,357.0,False
ON984,Canborough,,Ontario,CA,42.9935,-79.6768,ardac,462.3,False
ON985,Candyville,,Ontario,CA,42.694,-80.9851,ardac,574.1,False
ON986,Cane,,Ontario,CA,47.6297,-80.0613,ardac,344.9,False
ON987,Canfield,,Ontario,CA,42.9753,-79.7514,ardac,468.7,False
ON988,Canfield Junction,,Ontario,CA,42.9673,-79.7336,ardac,467.8,False
ON989,Cankerville,,Ontario,CA,44.0604,-77.7609,ardac,268.1,False
ON990,Cannamore,,Ontario,CA,45.1982,-75.2419,ardac,47.7,True
ON991,Cannifton,,Ontario,CA,44.2006,-77.3917,ardac,234.2,False
ON992,Canning,,Ontario,CA,43.1958,-80.4681,ardac,510.9,False
ON993,Cannington,,Ontario,CA,44.3494,-79.0408,ardac,358.0,False
ON994,Canoe Lake,,Ontario,CA,45.5783,-78.7281,ardac,327.7,False
ON995,Canonto,,Ontario,CA,45.0619,-76.775,ardac,166.2,False
ON996,Canton,,Ontario,CA,43.9976,-78.351,ardac,315.4,False
ON997,Canyon,,Ontario,CA,49.98,-93.7415,ardac,771.2,False
ON998,Canyon,,Ontario,CA,47.4246,-84.4838,ardac,472.2,False
ON999,Cape Chin,,Ontario,CA,45.0645,-81.3173,ardac,531.7,False
ON1000,Cape Chin North,,Ontario,CA,45.1242,-81.3192,ardac,531.6,False
ON1001,Cape Chin South,,Ontario,CA,45.1067,-81.2807,ardac,528.6,False
ON1002,Cape Croker,,Ontario,CA,44.9229,-81.0201,ardac,508.5,False
ON1003,Capreol,,Ontario,CA,46.7044,-80.9189,ardac,457.4,False
ON1004,Caradoc,,Ontario,CA,42.9174,-81.5207,ardac,603.6,False
ON1005,Caramat,,Ontario,CA,49.6182,-86.1279,ardac,399.0,False
ON1006,Cardiff,,Ontario,CA,44.9994,-78.0137,ardac,266.0,False
ON1007,Cardinal,,Ontario,CA,44.7906,-75.3824,ardac,58.6,True
ON1008,Cardinal Heights,,Ontario,CA,45.4408,-75.6094,ardac,86.5,True
ON1009,Cardwell,,Ontario,CA,43.9761,-80.0987,ardac,452.2,False
ON1010,Cargill,,Ontario,CA,44.196,-81.2468,ardac,537.7,False
ON1011,Cargill Siding,,Ontario,CA,44.1972,-81.2358,ardac,536.8,False
ON1012,Carholme,,Ontario,CA,42.7381,-80.5222,ardac,537.6,False
ON1013,Caribou Falls,,Ontario,CA,50.2632,-94.9682,ardac,750.8,False
ON1014,Carleton Heights,,Ontario,CA,45.3586,-75.7074,ardac,88.9,True
ON1015,Carleton Place,,Ontario,CA,45.1381,-76.1422,ardac,116.0,False
ON1016,Carleton Square,,Ontario,CA,45.3667,-75.7167,ardac,90.0,True
ON1017,Carley,,Ontario,CA,44.6071,-79.6353,ardac,400.4,False
ON1018,Carleys Corner,,Ontario,CA,44.8651,-75.8086,ardac,89.6,True
ON1019,Carling,,Ontario,CA,45.4072,-80.166,ardac,439.7,False
ON1020,Carlingford,,Ontario,CA,43.3824,-81.1521,ardac,555.5,False
ON1021,Carlington,,Ontario,CA,45.3787,-75.7314,ardac,91.6,True
ON1022,Carlingwood,,Ontario,CA,45.3761,-75.7692,ardac,94.2,True
ON1023,Carlisle,,Ontario,CA,43.1289,-81.4833,ardac,591.4,False
ON1024,Carlisle,,Ontario,CA,43.3947,-79.9806,ardac,465.0,False
ON1025,Carlow,,Ontario,CA,43.7765,-81.6295,ardac,579.4,False
ON1026,Carlsbad Springs,,Ontario,CA,45.3691,-75.4562,ardac,72.0,True
ON1027,Carlsruhe,,Ontario,CA,44.1097,-81.0458,ardac,523.7,False
ON1028,Carlton Park,,Ontario,CA,43.1928,-79.2125,ardac,417.8,False
ON1029,Carluke,,Ontario,CA,43.1456,-79.986,ardac,477.1,False
ON1030,Carlyon,,Ontario,CA,44.7243,-79.4974,ardac,387.7,False
ON1031,Carman,,Ontario,CA,44.1141,-77.7243,ardac,263.0,False
ON1032,Carmel,,Ontario,CA,44.0908,-77.9961,ardac,284.6,False
ON1033,Carmel,,Ontario,CA,44.1128,-78.4267,ardac,316.9,False
ON1034,Carmunnock,,Ontario,CA,43.6092,-81.1367,ardac,545.9,False
ON1035,Carnarvon,,Ontario,CA,45.0511,-78.6983,ardac,321.0,False
ON1036,Carnegie Beach,,Ontario,CA,44.1993,-78.8607,ardac,347.9,False
ON1037,Carol Richard Park,,Ontario,CA,46.6236,-81.0122,ardac,467.8,False
ON1038,Caroline Village,,Ontario,CA,44.8978,-76.2553,ardac,124.9,False
ON1039,Carp,,Ontario,CA,45.3453,-76.0372,ardac,112.8,False
ON1040,Carpin Beach,,Ontario,CA,46.5003,-84.4564,ardac,559.6,False
ON1041,Carr,,Ontario,CA,46.0146,-79.6639,ardac,409.9,False
ON1042,Carr's Landing,,Ontario,CA,46.6605,-80.7604,ardac,459.2,False
ON1043,Carrville,,Ontario,CA,43.8472,-79.4592,ardac,406.5,False
ON1044,Carry,,Ontario,CA,48.2194,-84.0678,ardac,381.8,False
ON1045,Carrying Place,,Ontario,CA,44.0486,-77.5803,ardac,255.1,False
ON1046,Carson,,Ontario,CA,46.1643,-81.7436,ardac,532.4,False
ON1047,Carson Grove,,Ontario,CA,45.4347,-75.6229,ardac,87.0,True
ON1048,Carsonby,,Ontario,CA,45.1731,-75.7172,ardac,83.0,True
ON1049,Carss,,Ontario,CA,45.6548,-79.3993,ardac,381.8,False
ON1050,Carters Corners,,Ontario,CA,48.3815,-89.4718,ardac,681.2,False
ON1051,Carterton,,Ontario,CA,46.1979,-83.9555,ardac,573.9,False
ON1052,Carthage,,Ontario,CA,43.6614,-80.85,ardac,521.6,False
ON1053,Carthew Bay,,Ontario,CA,44.5269,-79.429,ardac,385.2,False
ON1054,Cartier,,Ontario,CA,46.7065,-81.554,ardac,471.6,False
ON1055,Cashel,,Ontario,CA,43.9156,-79.3225,ardac,393.4,False
ON1056,Cashions Glen,,Ontario,CA,45.1032,-74.6854,ardac,7.1,True
ON1057,Cashtown Corners,,Ontario,CA,44.3372,-80.0789,ardac,441.1,False
ON1058,Casimir,,Ontario,CA,46.3365,-80.4099,ardac,475.5,False
ON1059,Cass Bridge,,Ontario,CA,45.0495,-75.3188,ardac,49.1,True
ON1060,Cassburn,,Ontario,CA,45.5858,-74.7008,ardac,25.7,True
ON1061,Cassel,,Ontario,CA,43.2817,-80.7647,ardac,529.7,False
ON1062,Casselman,,Ontario,CA,45.3115,-75.0857,ardac,45.3,True
ON1063,Castile,,Ontario,CA,45.493,-77.3224,ardac,216.0,False
ON1064,Castle Glen Estates,,Ontario,CA,44.4631,-80.3258,ardac,458.3,False
ON1065,Castle Green,,Ontario,CA,43.4619,-79.6964,ardac,440.5,False
ON1066,Castle Heights,,Ontario,CA,45.4321,-75.6432,ardac,88.3,True
ON1067,Castlederg,,Ontario,CA,43.9178,-79.7669,ardac,428.0,False
ON1068,Castleford,,Ontario,CA,45.5244,-76.5857,ardac,160.6,False
ON1069,Castlemore,,Ontario,CA,43.791,-79.6897,ardac,426.5,False
ON1070,Castleton,,Ontario,CA,44.0932,-77.9387,ardac,280.1,False
ON1071,Casummit Lake,,Ontario,CA,51.4827,-92.356,ardac,591.4,False
ON1072,Caswell's Beach,,Ontario,CA,44.7417,-79.75,ardac,407.8,False
ON1073,Cat Lake,,Ontario,CA,51.7211,-91.8216,ardac,550.2,False
ON1074,Cataract,,Ontario,CA,43.8239,-80.0228,ardac,451.3,False
ON1075,Cataraqui,,Ontario,CA,44.2577,-76.546,ardac,169.2,False
ON1076,Catchacoma,,Ontario,CA,44.7403,-78.3325,ardac,293.8,False
ON1077,Cathcart,,Ontario,CA,43.1016,-80.5285,ardac,519.9,False
ON1078,Cavan,,Ontario,CA,44.2,-78.4692,ardac,317.2,False
ON1079,Cavan Station,,Ontario,CA,44.2082,-78.4465,ardac,315.2,False
ON1080,Cavell,,Ontario,CA,50.2294,-87.0189,ardac,421.3,False
ON1081,Caverlys Landing,,Ontario,CA,45.0731,-77.4564,ardac,221.0,False
ON1082,Cavers,,Ontario,CA,48.9025,-87.6942,ardac,537.5,False
ON1083,Cawaja Beach,,Ontario,CA,44.7107,-79.9955,ardac,428.0,False
ON1084,Cayuga,,Ontario,CA,42.9507,-79.8562,ardac,477.6,False
ON1085,Cecebe,,Ontario,CA,45.6439,-79.5497,ardac,393.4,False
ON1086,Cedar Bay,,Ontario,CA,42.8753,-79.1792,ardac,433.6,False
ON1087,Cedar Beach,,Ontario,CA,42.0057,-82.7947,ardac,744.4,False
ON1088,Cedar Beach,,Ontario,CA,44.426,-79.1685,ardac,366.4,False
ON1089,Cedar Beach,,Ontario,CA,45.8242,-77.0844,ardac,209.7,False
ON1090,Cedar Creek,,Ontario,CA,44.1044,-77.7647,ardac,266.5,False
ON1091,Cedar Croft,,Ontario,CA,45.6426,-79.7132,ardac,406.3,False
ON1092,Cedar Dale,,Ontario,CA,43.8785,-78.8414,ardac,357.7,False
ON1093,Cedar Glen,,Ontario,CA,44.4919,-78.6358,ardac,322.4,False
ON1094,Cedar Grove,,Ontario,CA,44.9972,-75.0556,ardac,27.6,True
ON1095,Cedar Grove,,Ontario,CA,43.8579,-79.2036,ardac,386.4,False
ON1096,Cedar Harbour,,Ontario,CA,44.3167,-79.5327,ardac,398.0,False
ON1097,Cedar Heights,,Ontario,CA,46.5447,-84.3117,ardac,550.3,False
ON1098,Cedar Hill,,Ontario,CA,45.2714,-76.3139,ardac,132.0,False
ON1099,Cedar Lake,,Ontario,CA,44.42,-76.4036,ardac,150.8,False
ON1100,Cedar Mills,,Ontario,CA,43.9269,-79.8031,ardac,430.6,False
ON1101,Cedar Mount,,Ontario,CA,44.3921,-79.554,ardac,397.9,False
ON1102,Cedar Nook,,Ontario,CA,44.9114,-79.7553,ardac,406.7,False
ON1103,Cedar Point,,Ontario,CA,44.8106,-80.115,ardac,436.5,False
ON1104,Cedar Point,,Ontario,CA,43.1391,-82.0604,ardac,635.7,False
ON1105,Cedar Shores,,Ontario,CA,44.1362,-78.9176,ardac,354.3,False
ON1106,Cedar Springs,,Ontario,CA,43.4157,-79.9204,ardac,459.5,False
ON1107,Cedar Springs,,Ontario,CA,42.2807,-82.0309,ardac,673.2,False
ON1108,Cedar Valley,,Ontario,CA,44.0642,-79.3544,ardac,390.9,False
ON1109,Cedar Valley,,Ontario,CA,43.7682,-80.1621,ardac,464.1,False
ON1110,Cedar Valley,,Ontario,CA,44.1764,-78.4081,ardac,313.2,False
ON1111,Cedar Village,,Ontario,CA,45.0516,-79.3892,ardac,376.6,False
ON1112,Cedarbrae,,Ontario,CA,44.247,-79.2843,ardac,380.0,False
ON1113,Cedardale,,Ontario,CA,45.3167,-75.7,ardac,86.5,True
ON1114,Cedardale,,Ontario,CA,45.1131,-76.4617,ardac,141.3,False
ON1115,Cedarhurst Beach,,Ontario,CA,44.4011,-79.1706,ardac,367.1,False
ON1116,Cedarhurst Park,,Ontario,CA,42.0145,-82.7821,ardac,743.0,False
ON1117,Cedarmont Beach,,Ontario,CA,44.5418,-79.4084,ardac,383.3,False
ON1118,Cedarvale,,Ontario,CA,43.6931,-79.4292,ardac,410.2,False
ON1119,Cedarville,,Ontario,CA,43.9961,-79.8769,ardac,434.1,False
ON1120,Cedarville,,Ontario,CA,44.0358,-80.5706,ardac,487.8,False
ON1121,Centennial,,Ontario,CA,43.7839,-79.1574,ardac,385.7,False
ON1122,Central,,Ontario,CA,43.2644,-79.8753,ardac,463.1,False
ON1123,Central Park,,Ontario,CA,45.3688,-75.7367,ardac,91.5,True
ON1124,Central Patricia,,Ontario,CA,51.4809,-90.1614,ardac,503.1,False
ON1125,Centralia,,Ontario,CA,43.2841,-81.4732,ardac,584.3,False
ON1126,Centre,,Ontario,CA,44.0814,-77.4242,ardac,242.0,False
ON1127,Centre Dummer,,Ontario,CA,44.4725,-78.0219,ardac,274.1,False
ON1128,Centre Inn,,Ontario,CA,43.6386,-80.1967,ardac,471.5,False
ON1129,Centre Lake Junction,,Ontario,CA,45.9283,-77.5017,ardac,244.5,False
ON1130,Centre-ville,,Ontario,CA,45.4153,-75.6964,ardac,91.0,True
ON1131,Centrefield,,Ontario,CA,45.5217,-75.0356,ardac,52.5,True
ON1132,Centrepointe,,Ontario,CA,45.3397,-75.7662,ardac,92.3,True
ON1133,Centreton,,Ontario,CA,44.0839,-78.0422,ardac,288.4,False
ON1134,Centretown,,Ontario,CA,45.4153,-75.6964,ardac,91.0,True
ON1135,Centreview,,Ontario,CA,45.3636,-77.7406,ardac,246.3,False
ON1136,Centreville,,Ontario,CA,44.4067,-76.905,ardac,189.0,False
ON1137,Centreville,,Ontario,CA,44.9508,-81.2778,ardac,529.1,False
ON1138,Centreville,,Ontario,CA,43.0564,-80.8589,ardac,546.9,False
ON1139,Centreville,,Ontario,CA,43.4312,-80.4287,ardac,497.7,False
ON1140,Centreville,,Ontario,CA,44.6228,-80.6178,ardac,479.2,False
ON1141,Centurion,,Ontario,CA,45.4057,-79.3174,ardac,372.1,False
ON1142,Ceylon,,Ontario,CA,44.243,-80.5732,ardac,482.7,False
ON1143,Chaffeys Locks,,Ontario,CA,44.5808,-76.3172,ardac,137.6,False
ON1144,Chalk River,,Ontario,CA,46.018,-77.453,ardac,245.0,False
ON1145,Chamberlain,,Ontario,CA,47.8567,-79.905,ardac,318.6,False
ON1146,Chambers Corners,,Ontario,CA,42.9446,-79.3789,ardac,443.6,False
ON1147,Champlain Park,,Ontario,CA,45.4028,-75.7459,ardac,93.8,True
ON1148,Champlain Park,,Ontario,CA,46.2483,-79.4233,ardac,398.6,False
ON1149,Chandos Lake,,Ontario,CA,44.7941,-78.0498,ardac,270.4,False
ON1150,Chantler,,Ontario,CA,43.0039,-79.3261,ardac,436.5,False
ON1151,Chantry,,Ontario,CA,44.6755,-76.101,ardac,117.6,False
ON1152,Chapleau,,Ontario,CA,47.8439,-83.4004,ardac,391.8,False
ON1153,Chapman,,Ontario,CA,44.4388,-77.3092,ardac,219.0,False
ON1154,Chapman's Landing,,Ontario,CA,46.1069,-79.5344,ardac,402.5,False
ON1155,Chaput Hughes,,Ontario,CA,48.1428,-80.0608,ardac,289.4,False
ON1156,Charing Cross,,Ontario,CA,42.3325,-82.0978,ardac,675.5,False
ON1157,Charlemont,,Ontario,CA,42.6403,-82.2822,ardac,674.3,False
ON1158,Charleston,,Ontario,CA,44.5753,-75.9972,ardac,113.7,False
ON1159,Charleville,,Ontario,CA,44.7515,-75.6129,ardac,77.5,True
ON1160,Charlton,,Ontario,CA,47.8101,-80.0047,ardac,324.7,False
ON1161,Charlton and Dack,,Ontario,CA,47.7961,-79.9533,ardac,325.7,False
ON1162,Charnwood,,Ontario,CA,43.4592,-79.66,ardac,437.9,False
ON1163,Chartrand Corner,,Ontario,CA,46.1363,-80.3794,ardac,467.9,False
ON1164,Chase Corners,,Ontario,CA,44.4703,-77.8114,ardac,257.5,False
ON1165,Chatham,,Ontario,CA,42.3999,-82.1898,ardac,678.9,False
ON1166,Chatham-Kent,,Ontario,CA,42.434,-82.1288,ardac,672.6,False
ON1167,Chats Haven,,Ontario,CA,45.4349,-76.3429,ardac,139.1,False
ON1168,Chatsworth,,Ontario,CA,44.4539,-80.895,ardac,504.2,False
ON1169,Chatterton,,Ontario,CA,44.2461,-77.4786,ardac,239.0,False
ON1170,Cheapside,,Ontario,CA,42.8392,-79.9814,ardac,492.8,False
ON1171,Cheddar,,Ontario,CA,44.9864,-78.1318,ardac,275.5,False
ON1172,Chedoke Park,,Ontario,CA,43.2496,-79.9108,ardac,466.4,False
ON1173,Cheeseborough,,Ontario,CA,44.36,-76.1797,ardac,137.7,False
ON1174,Chelmsford,,Ontario,CA,46.5786,-81.1969,ardac,476.4,False
ON1175,Chelsea Green,,Ontario,CA,42.9679,-81.2126,ardac,577.8,False
ON1176,Cheltenham,,Ontario,CA,43.7521,-79.9212,ardac,445.9,False
ON1177,Cheminis,,Ontario,CA,48.1629,-79.5252,ardac,282.6,False
ON1178,Chemong Heights,,Ontario,CA,44.3954,-78.3762,ardac,304.1,False
ON1179,Chemong Park,,Ontario,CA,44.3747,-78.3882,ardac,305.6,False
ON1180,Chenaux,,Ontario,CA,45.5722,-76.7164,ardac,172.2,False
ON1181,Cheney,,Ontario,CA,45.4134,-75.2432,ardac,62.0,True
ON1182,Chepstow,,Ontario,CA,44.154,-81.2764,ardac,541.1,False
ON1183,Cherry,,Ontario,CA,43.9704,-79.4736,ardac,403.3,False
ON1184,Cherry Grove,,Ontario,CA,43.1839,-81.1808,ardac,565.8,False
ON1185,Cherry Heights,,Ontario,CA,43.2154,-79.7448,ardac,455.7,False
ON1186,Cherry Lane Estates,,Ontario,CA,42.0306,-82.5954,ardac,728.3,False
ON1187,Cherry Valley,,Ontario,CA,43.9371,-77.1518,ardac,229.7,False
ON1188,Cherrywood,,Ontario,CA,43.8539,-79.1439,ardac,381.9,False
ON1189,Cherrywood Acres,,Ontario,CA,43.1085,-79.1024,ardac,414.6,False
ON1190,Cherrywood Station,,Ontario,CA,43.8467,-79.1281,ardac,381.0,False
ON1191,Chesley,,Ontario,CA,44.2976,-81.095,ardac,523.3,False
ON1192,Chesterfield,,Ontario,CA,43.2953,-80.6672,ardac,521.7,False
ON1193,Chesterville,,Ontario,CA,45.1036,-75.2311,ardac,43.2,True
ON1194,Chestnut Hills,,Ontario,CA,43.6597,-79.5231,ardac,418.8,False
ON1195,Chetwynd,,Ontario,CA,45.6207,-79.3219,ardac,375.1,False
ON1196,Chikopi,,Ontario,CA,45.6542,-79.7122,ardac,406.4,False
ON1197,Childs Mines,,Ontario,CA,45.0768,-77.6142,ardac,233.7,False
ON1198,Chippawa,,Ontario,CA,43.0558,-79.0469,ardac,413.7,False
ON1199,Chippawa Hill,,Ontario,CA,44.5134,-81.3336,ardac,538.5,False
ON1200,Chippewa,,Ontario,CA,44.4974,-76.8264,ardac,179.6,False
ON1201,Chiselhurst,,Ontario,CA,43.4398,-81.4302,ardac,575.0,False
ON1202,Chisholm's Mills,,Ontario,CA,44.3536,-77.3097,ardac,222.0,False
ON1203,Chiswick,,Ontario,CA,46.1142,-79.1807,ardac,376.0,False
ON1204,Christian Island,,Ontario,CA,44.8222,-80.1757,ardac,441.3,False
ON1205,Christian Valley,,Ontario,CA,46.0708,-79.4831,ardac,397.6,False
ON1206,Christie Beach,,Ontario,CA,44.5931,-80.5142,ardac,471.3,False
ON1207,Christie Lake,,Ontario,CA,44.8208,-76.4103,ardac,138.4,False
ON1208,Christies Corner,,Ontario,CA,43.2689,-80.0326,ardac,474.7,False
ON1209,Christina,,Ontario,CA,42.8626,-81.4879,ardac,603.6,False
ON1210,Chudleigh,,Ontario,CA,46.6415,-80.3838,ardac,455.6,False
ON1211,Churchill,,Ontario,CA,43.6569,-80.0558,ardac,459.9,False
ON1212,Churchill,,Ontario,CA,44.2519,-79.6014,ardac,405.0,False
ON1213,Churchill Heights,,Ontario,CA,45.0672,-74.7759,ardac,9.0,True
ON1214,Churchville,,Ontario,CA,43.63,-79.7556,ardac,437.8,False
ON1215,Churchville,,Ontario,CA,42.5647,-81.6178,ardac,627.8,False
ON1216,Chute-à-Blondeau,,Ontario,CA,45.5881,-74.4703,ardac,7.8,True
ON1217,City View,,Ontario,CA,45.3514,-75.7431,ardac,91.2,True
ON1218,Clachan,,Ontario,CA,42.58,-81.8006,ardac,640.7,False
ON1219,Claireville,,Ontario,CA,43.75,-79.6367,ardac,423.9,False
ON1220,Clairlea,,Ontario,CA,43.7156,-79.2939,ardac,399.0,False
ON1221,Clanbrassil,,Ontario,CA,42.9669,-79.9506,ardac,483.6,False
ON1222,Clandeboye,,Ontario,CA,43.1981,-81.4503,ardac,586.0,False
ON1223,Clappison's Corners,,Ontario,CA,43.3122,-79.9175,ardac,464.0,False
ON1224,Clara Belle,,Ontario,CA,46.5008,-81.0569,ardac,481.7,False
ON1225,Claraday,,Ontario,CA,44.2897,-78.3122,ardac,302.1,False
ON1226,Clardon Beach,,Ontario,CA,44.2336,-79.4681,ardac,394.9,False
ON1227,Clare,,Ontario,CA,43.9903,-80.6353,ardac,494.2,False
ON1228,Claremont,,Ontario,CA,43.9724,-79.1291,ardac,376.4,False
ON1229,Clarence,,Ontario,CA,45.564,-75.2482,ardac,69.2,True
ON1230,Clarence Creek,,Ontario,CA,45.5053,-75.2171,ardac,67.0,True
ON1231,Clarence-Rockland,,Ontario,CA,45.4881,-75.2149,ardac,66.2,True
ON1232,Clarendon Station,,Ontario,CA,44.8729,-76.6975,ardac,160.7,False
ON1233,Clarina,,Ontario,CA,44.5556,-78.0622,ardac,275.3,False
ON1234,Clarington,,Ontario,CA,43.9947,-78.675,ardac,340.4,False
ON1235,Clarkdon,,Ontario,CA,49.7777,-91.2442,ardac,701.8,False
ON1236,Clarke,,Ontario,CA,43.9651,-78.5471,ardac,331.7,False
ON1237,Clarke's Corners,,Ontario,CA,45.0256,-81.374,ardac,536.4,False
ON1238,Clarkes Hollow,,Ontario,CA,43.87,-79.1314,ardac,380.3,False
ON1239,Clarks Church,,Ontario,CA,44.1122,-81.5758,ardac,566.0,False
ON1240,Clarks Corners,,Ontario,CA,43.7947,-79.3031,ardac,396.5,False
ON1241,Clarksburg,,Ontario,CA,44.5458,-80.4615,ardac,467.8,False
ON1242,Clarksdale,,Ontario,CA,43.3532,-79.8138,ardac,454.3,False
ON1243,Clarkson,,Ontario,CA,43.519,-79.6339,ardac,433.2,False
ON1244,Claude,,Ontario,CA,43.7925,-79.9044,ardac,443.1,False
ON1245,Clavering,,Ontario,CA,44.6811,-81.1369,ardac,520.3,False
ON1246,Clay Bank,,Ontario,CA,45.3892,-76.4171,ardac,143.2,False
ON1247,Clay Hills,,Ontario,CA,44.9028,-81.0442,ardac,510.6,False
ON1248,Clay Valley,,Ontario,CA,45.4269,-76.441,ardac,146.2,False
ON1249,Clayton,,Ontario,CA,45.1922,-76.3258,ardac,131.4,False
ON1250,Clear Creek,,Ontario,CA,42.5814,-80.5914,ardac,551.2,False
ON1251,Clear Lake,,Ontario,CA,45.0081,-79.0157,ardac,346.6,False
ON1252,Clear Lake,,Ontario,CA,45.5033,-79.2677,ardac,369.2,False
ON1253,Cleardale,,Ontario,CA,42.9411,-81.2525,ardac,582.1,False
ON1254,Clearview,,Ontario,CA,43.5036,-79.6686,ardac,436.5,False
ON1255,Clearview,,Ontario,CA,45.3275,-75.7044,ardac,87.3,True
ON1256,Clearview Estates,,Ontario,CA,43.2279,-79.9982,ardac,474.0,False
ON1257,Clearview Heights,,Ontario,CA,43.9235,-79.523,ardac,408.8,False
ON1258,Clearville,,Ontario,CA,42.4692,-81.7108,ardac,639.6,False
ON1259,Clearwater Bay,,Ontario,CA,49.7121,-94.8089,ardac,808.9,False
ON1260,Clearwater Beach,,Ontario,CA,44.8515,-79.9125,ardac,419.8,False
ON1261,Cliffcrest,,Ontario,CA,43.7242,-79.2257,ardac,393.4,False
ON1262,Clifford,,Ontario,CA,43.9692,-80.9792,ardac,522.1,False
ON1263,Cliffside,,Ontario,CA,43.7075,-79.2547,ardac,396.3,False
ON1264,Clifton,,Ontario,CA,43.1264,-79.0956,ardac,413.1,False
ON1265,Clinton,,Ontario,CA,43.6167,-81.5397,ardac,577.4,False
ON1266,Clontarf,,Ontario,CA,45.4116,-77.1359,ardac,199.5,False
ON1267,Cloud Bay,,Ontario,CA,48.1307,-89.4298,ardac,692.3,False
ON1268,Cloudslee,,Ontario,CA,46.3235,-83.7053,ardac,554.0,False
ON1269,Clover Valley,,Ontario,CA,44.0139,-81.5928,ardac,569.8,False
ON1270,Clover Valley,,Ontario,CA,45.7136,-81.8136,ardac,573.1,False
ON1271,Cloverdale,,Ontario,CA,45.1178,-75.4006,ardac,56.8,True
ON1272,Cloyne,,Ontario,CA,44.8164,-77.1856,ardac,200.6,False
ON1273,Clute,,Ontario,CA,49.1897,-81.0736,ardac,200.7,False
ON1274,Clyde,,Ontario,CA,43.3843,-80.2283,ardac,484.3,False
ON1275,Clyde Forks,,Ontario,CA,45.1314,-76.6764,ardac,158.7,False
ON1276,Clydesville,,Ontario,CA,45.0387,-76.3932,ardac,135.4,False
ON1277,Coatsworth,,Ontario,CA,42.1695,-82.3549,ardac,703.1,False
ON1278,Cobalt,,Ontario,CA,47.3992,-79.6806,ardac,366.9,False
ON1279,Cobble Hill,,Ontario,CA,43.1197,-81.0928,ardac,561.9,False
ON1280,Cobden,,Ontario,CA,45.6267,-76.8819,ardac,186.6,False
ON1281,Coboconk,,Ontario,CA,44.6582,-78.7986,ardac,332.4,False
ON1282,Cobourg,,Ontario,CA,43.9631,-78.1647,ardac,302.7,False
ON1283,Cochenour,,Ontario,CA,51.0756,-93.8094,ardac,651.0,False
ON1284,Cochrane,,Ontario,CA,49.1747,-81.0631,ardac,202.3,False
ON1285,Cochrane,,Ontario,CA,49.0706,-81.0206,ardac,213.7,False
ON1286,Codes Corner,,Ontario,CA,44.2987,-76.424,ardac,158.3,False
ON1287,Codrington,,Ontario,CA,44.1619,-77.8006,ardac,266.9,False
ON1288,Cody's Corners,,Ontario,CA,43.1237,-80.8684,ardac,544.6,False
ON1289,Coe Hill,,Ontario,CA,44.8619,-77.8364,ardac,252.5,False
ON1290,Cognashene,,Ontario,CA,44.9264,-79.9219,ardac,420.0,False
ON1291,Coins Gratton,,Ontario,CA,45.6125,-74.9253,ardac,43.8,True
ON1292,Colbeck,,Ontario,CA,43.9911,-80.3619,ardac,472.6,False
ON1293,Colborne,,Ontario,CA,42.8616,-80.3128,ardac,515.7,False
ON1294,Colborne,,Ontario,CA,44.0058,-77.8881,ardac,280.0,False
ON1295,Colchester,,Ontario,CA,41.9864,-82.9347,ardac,755.9,False
ON1296,Cold Springs,,Ontario,CA,44.0653,-78.2092,ardac,301.9,False
ON1297,Cold Springs,,Ontario,CA,45.8622,-82.1072,ardac,571.6,False
ON1298,Coldsprings,,Ontario,CA,44.2855,-78.3054,ardac,301.7,False
ON1299,Coldstream,,Ontario,CA,43.0192,-81.4997,ardac,597.4,False
ON1300,Coldwater,,Ontario,CA,44.7097,-79.6419,ardac,399.5,False
ON1301,Coldwell,,Ontario,CA,48.7624,-86.5287,ardac,471.7,False
ON1302,Cole Lake,,Ontario,CA,44.5806,-76.6706,ardac,164.8,False
ON1303,Cole Wharf,,Ontario,CA,44.1422,-77.0678,ardac,212.8,False
ON1304,Colebrook,,Ontario,CA,44.3886,-76.77,ardac,179.5,False
ON1305,Coleman,,Ontario,CA,47.3936,-79.7031,ardac,367.6,False
ON1306,Coleman's Shore,,Ontario,CA,45.0531,-76.1614,ardac,116.8,False
ON1307,Colemans,,Ontario,CA,43.2338,-79.124,ardac,409.2,False
ON1308,Coleraine,,Ontario,CA,43.8203,-79.6797,ardac,424.6,False
ON1309,Colgan,,Ontario,CA,44.0279,-79.8469,ardac,430.8,False
ON1310,Colinville,,Ontario,CA,42.8622,-82.3403,ardac,668.8,False
ON1311,Collingwood,,Ontario,CA,44.5014,-80.2407,ardac,450.8,False
ON1312,Collins,,Ontario,CA,50.2952,-89.446,ardac,571.0,False
ON1313,Collins Bay,,Ontario,CA,44.2457,-76.613,ardac,174.6,False
ON1314,Collins Inlet,,Ontario,CA,46.0019,-81.1992,ardac,528.5,False
ON1315,Collison Heights,,Ontario,CA,44.2786,-78.3131,ardac,302.5,False
ON1316,Colpoy's Bay,,Ontario,CA,44.7825,-81.1283,ardac,518.4,False
ON1317,Colquhoun,,Ontario,CA,45.0149,-75.1396,ardac,34.4,True
ON1318,Columbus,,Ontario,CA,43.9829,-78.9109,ardac,359.1,False
ON1319,Colwell,,Ontario,CA,44.3419,-79.7897,ardac,417.9,False
ON1320,Comber,,Ontario,CA,42.231,-82.5527,ardac,714.7,False
ON1321,Combermere,,Ontario,CA,45.3642,-77.6247,ardac,237.1,False
ON1322,Comet,,Ontario,CA,42.0132,-82.9857,ardac,758.3,False
ON1323,Commanda,,Ontario,CA,45.951,-79.6066,ardac,403.9,False
ON1324,Community Beach,,Ontario,CA,43.2382,-79.7327,ardac,453.7,False
ON1325,Concord,,Ontario,CA,43.8083,-79.4689,ardac,408.7,False
ON1326,Concord Point,,Ontario,CA,44.5392,-79.2106,ardac,367.5,False
ON1327,Conestogo,,Ontario,CA,43.5414,-80.5042,ardac,499.1,False
ON1328,Confederation Heights,,Ontario,CA,45.3767,-75.6871,ardac,88.3,True
ON1329,Coningsby,,Ontario,CA,43.7436,-80.1253,ardac,462.1,False
ON1330,Coniston,,Ontario,CA,46.4906,-80.8479,ardac,478.8,False
ON1331,Conmee,,Ontario,CA,48.5388,-89.6415,ardac,684.2,False
ON1332,Conn,,Ontario,CA,43.9982,-80.568,ardac,488.7,False
ON1333,Connaught,,Ontario,CA,45.6389,-77.0053,ardac,196.3,False
ON1334,Connaught,,Ontario,CA,45.1456,-75.2133,ardac,43.3,True
ON1335,Connaught,,Ontario,CA,48.6186,-80.9368,ardac,259.9,False
ON1336,Connaught Hill,,Ontario,CA,48.4709,-81.2054,ardac,280.1,False
ON1337,Connaught Shore,,Ontario,CA,44.4458,-78.3742,ardac,302.7,False
ON1338,Connellys,,Ontario,CA,44.3567,-77.8261,ardac,261.9,False
ON1339,Connor,,Ontario,CA,43.9858,-79.925,ardac,438.2,False
ON1340,Conover,,Ontario,CA,44.1906,-80.2131,ardac,455.3,False
ON1341,Conroy,,Ontario,CA,43.2933,-81.0486,ardac,551.1,False
ON1342,Consecon,,Ontario,CA,43.9956,-77.5221,ardac,253.3,False
ON1343,Constance Bay,,Ontario,CA,45.4867,-76.0756,ardac,121.5,False
ON1344,Constance Lake (Achikamii/Achikamaw),,Ontario,CA,49.805,-84.1348,ardac,261.6,False
ON1345,Constant Creek,,Ontario,CA,45.4146,-77.0126,ardac,190.0,False
ON1346,Convent Glen,,Ontario,CA,45.4667,-75.5333,ardac,83.2,True
ON1347,Conway,,Ontario,CA,44.1121,-76.9148,ardac,203.3,False
ON1348,Cooke's Shore,,Ontario,CA,45.045,-76.2108,ardac,120.7,False
ON1349,Cooks Mills,,Ontario,CA,46.4045,-79.4671,ardac,407.4,False
ON1350,Cooks Mills,,Ontario,CA,42.9964,-79.1789,ardac,426.4,False
ON1351,Cookstown,,Ontario,CA,44.1903,-79.7019,ardac,414.6,False
ON1352,Cooksville,,Ontario,CA,43.5803,-79.6158,ardac,429.2,False
ON1353,Cooper,,Ontario,CA,44.6453,-77.4746,ardac,226.6,False
ON1354,Cooper's Trailer Park,,Ontario,CA,44.3149,-78.1993,ardac,292.5,False
ON1355,Coopers Falls,,Ontario,CA,44.7872,-79.2333,ardac,365.7,False
ON1356,Cootes Paradise,,Ontario,CA,43.2675,-79.9456,ardac,468.2,False
ON1357,Copeland Park,,Ontario,CA,45.3636,-75.7478,ardac,92.1,True
ON1358,Copenhagen,,Ontario,CA,42.6774,-80.9853,ardac,574.9,False
ON1359,Copetown,,Ontario,CA,43.2438,-80.0557,ardac,477.6,False
ON1360,Copp,,Ontario,CA,45.4686,-77.4517,ardac,225.5,False
ON1361,Coppell,,Ontario,CA,49.536,-83.8292,ardac,261.4,False
ON1362,Copper Cliff,,Ontario,CA,46.4767,-81.0681,ardac,484.4,False
ON1363,Copperhead,,Ontario,CA,45.1557,-80.1315,ardac,436.2,False
ON1364,Copperkettle,,Ontario,CA,44.6487,-81.0053,ardac,510.1,False
ON1365,Coppin's Corners,,Ontario,CA,44.0458,-79.1472,ardac,375.3,False
ON1366,Coral,,Ontario,CA,50.2171,-81.6787,ardac,101.6,False
ON1367,Corbeil,,Ontario,CA,46.2608,-79.2906,ardac,389.1,False
ON1368,Corbett,,Ontario,CA,43.2453,-81.6914,ardac,602.8,False
ON1369,Corbetton,,Ontario,CA,44.1388,-80.327,ardac,465.7,False
ON1370,Corbyville,,Ontario,CA,44.2158,-77.3828,ardac,232.9,False
ON1371,Cordova Mines,,Ontario,CA,44.5418,-77.7828,ardac,253.4,False
ON1372,Corinth,,Ontario,CA,42.8217,-80.8332,ardac,556.3,False
ON1373,Coristine,,Ontario,CA,46.091,-78.8905,ardac,353.4,False
ON1374,Corkery,,Ontario,CA,45.2833,-76.1019,ardac,115.8,False
ON1375,Corktown,,Ontario,CA,43.2492,-79.8669,ardac,463.2,False
ON1376,Cormac,,Ontario,CA,45.4633,-77.2942,ardac,213.1,False
ON1377,Cornell,,Ontario,CA,42.9043,-80.6265,ardac,536.8,False
ON1378,Cornwall,,Ontario,CA,45.0264,-74.7264,ardac,3.1,True
ON1379,Cornwall Centre,,Ontario,CA,45.0479,-74.8012,ardac,8.9,True
ON1380,Cornwall Island,,Ontario,CA,45.0114,-74.6811,ardac,2.9,True
ON1381,Coronation Gardens,,Ontario,CA,43.9572,-79.0086,ardac,367.6,False
ON1382,Coronation Park,,Ontario,CA,42.9693,-82.3721,ardac,666.8,False
ON1383,Corsons,,Ontario,CA,44.6292,-78.8919,ardac,340.3,False
ON1384,Corunna,,Ontario,CA,42.8856,-82.4483,ardac,676.2,False
ON1385,Corwhin,,Ontario,CA,43.5097,-80.105,ardac,469.6,False
ON1386,Corwin Crescent,,Ontario,CA,43.0842,-79.1036,ardac,416.0,False
ON1387,Cosy Cove,,Ontario,CA,44.4908,-77.2808,ardac,215.2,False
ON1388,Cotieville,,Ontario,CA,45.4799,-76.7171,ardac,169.0,False
ON1389,Cotnam Island,,Ontario,CA,45.7989,-77.0319,ardac,204.8,False
ON1390,Cotswold,,Ontario,CA,43.8694,-80.7906,ardac,510.1,False
ON1391,Cottam,,Ontario,CA,42.1296,-82.7443,ardac,734.2,False
ON1392,Cottesloe,,Ontario,CA,44.4067,-78.0806,ardac,280.5,False
ON1393,Coughlin,,Ontario,CA,48.8882,-88.3836,ardac,583.4,False
ON1394,Coulson,,Ontario,CA,44.5763,-79.6157,ardac,399.3,False
ON1395,Coulson's Hill,,Ontario,CA,44.1634,-79.5769,ardac,405.5,False
ON1396,Coulterville,,Ontario,CA,43.8319,-80.0297,ardac,451.5,False
ON1397,Country Hills,,Ontario,CA,43.415,-80.4739,ardac,501.8,False
ON1398,Country Place,,Ontario,CA,45.3217,-75.7072,ardac,87.2,True
ON1399,County of Brant,,Ontario,CA,43.1392,-80.2814,ardac,499.5,False
ON1400,Courtice,,Ontario,CA,43.9117,-78.7782,ardac,351.6,False
ON1401,Courtland,,Ontario,CA,42.8425,-80.6333,ardac,540.4,False
ON1402,Courtland Park,,Ontario,CA,45.3713,-75.7121,ardac,89.8,True
ON1403,Courtright,,Ontario,CA,42.8186,-82.4689,ardac,680.6,False
ON1404,Coutnac Beach,,Ontario,CA,44.8299,-79.9171,ardac,420.4,False
ON1405,Couttsville,,Ontario,CA,47.6675,-79.6944,ardac,337.6,False
ON1406,Cove Beach,,Ontario,CA,44.7472,-80.1136,ardac,437.1,False
ON1407,Cove Beach,,Ontario,CA,43.9217,-77.1776,ardac,232.4,False
ON1408,Cove Inlet,,Ontario,CA,49.3528,-88.1319,ardac,543.3,False
ON1409,Coventry,,Ontario,CA,43.9042,-79.7308,ardac,425.7,False
ON1410,Coverdale,,Ontario,CA,43.9611,-78.1443,ardac,301.3,False
ON1411,Cowan's Bay,,Ontario,CA,44.3358,-78.5433,ardac,318.9,False
ON1412,Coxvale,,Ontario,CA,44.8797,-76.8703,ardac,174.5,False
ON1413,Coyle,,Ontario,CA,42.9809,-79.2707,ardac,433.8,False
ON1414,Cozy Corners,,Ontario,CA,48.9431,-94.2947,ardac,888.3,False
ON1415,Craig Henry,,Ontario,CA,45.3325,-75.7683,ardac,92.2,True
ON1416,Craig Shore,,Ontario,CA,45.0417,-76.1678,ardac,117.3,False
ON1417,Craighurst,,Ontario,CA,44.5291,-79.7257,ardac,409.0,False
ON1418,Craigleith,,Ontario,CA,44.5246,-80.3296,ardac,457.6,False
ON1419,Craigmawr Beach,,Ontario,CA,44.2387,-79.4729,ardac,395.2,False
ON1420,Craigmont,,Ontario,CA,45.2958,-77.635,ardac,236.9,False
ON1421,Craigsholme,,Ontario,CA,43.7817,-80.2769,ardac,472.6,False
ON1422,Crampton,,Ontario,CA,42.9446,-80.9423,ardac,558.5,False
ON1423,Cranberry,,Ontario,CA,45.9117,-80.5728,ardac,478.1,False
ON1424,Cranbrook,,Ontario,CA,43.7035,-81.194,ardac,547.3,False
ON1425,Cranston,,Ontario,CA,42.9994,-79.9292,ardac,480.4,False
ON1426,Crathie,,Ontario,CA,43.029,-81.6304,ardac,607.0,False
ON1427,Crawford,,Ontario,CA,44.2618,-80.9322,ardac,511.0,False
ON1428,Crawford's Grove,,Ontario,CA,44.2764,-78.3339,ardac,304.2,False
ON1429,Crean Hill,,Ontario,CA,46.4272,-81.3515,ardac,495.7,False
ON1430,Crediton,,Ontario,CA,43.3006,-81.5485,ardac,589.5,False
ON1431,Creditville,,Ontario,CA,43.1522,-80.61,ardac,523.7,False
ON1432,Cree,,Ontario,CA,49.211,-84.7088,ardac,333.9,False
ON1433,Creek Bank,,Ontario,CA,43.7051,-80.536,ardac,495.5,False
ON1434,Creemore,,Ontario,CA,44.3264,-80.1058,ardac,443.5,False
ON1435,Creighton,,Ontario,CA,44.6192,-79.5917,ardac,396.7,False
ON1436,Creighton,,Ontario,CA,46.4581,-81.1806,ardac,488.7,False
ON1437,Creighton Heights,,Ontario,CA,44.0177,-78.1467,ardac,299.0,False
ON1438,Creosote,,Ontario,CA,46.4729,-81.0238,ardac,484.0,False
ON1439,Crerar,,Ontario,CA,46.6315,-80.548,ardac,458.9,False
ON1440,Crescent Bay,,Ontario,CA,42.7903,-80.1219,ardac,505.6,False
ON1441,Crescent Beach,,Ontario,CA,42.884,-78.9688,ardac,418.5,False
ON1442,Crescent Beach,,Ontario,CA,44.3106,-79.4414,ardac,390.8,False
ON1443,Crescent Harbour,,Ontario,CA,44.3724,-79.5317,ardac,396.6,False
ON1444,Crescent Park,,Ontario,CA,42.8951,-78.965,ardac,417.6,False
ON1445,Crescent Town,,Ontario,CA,43.6978,-79.2939,ardac,399.7,False
ON1446,Cresswell,,Ontario,CA,44.2875,-78.9706,ardac,354.1,False
ON1447,Cressy,,Ontario,CA,44.0911,-76.8786,ardac,201.8,False
ON1448,Crestview,,Ontario,CA,45.3422,-75.7364,ardac,90.3,True
ON1449,Crewe,,Ontario,CA,43.9008,-81.6417,ardac,576.7,False
ON1450,Crewsons Corners,,Ontario,CA,43.6301,-80.0864,ardac,463.3,False
ON1451,Crieff,,Ontario,CA,43.4242,-80.1515,ardac,476.7,False
ON1452,Crilly,,Ontario,CA,48.7504,-92.2773,ardac,833.9,False
ON1453,Crinan,,Ontario,CA,42.65,-81.6661,ardac,627.2,False
ON1454,Crofton,,Ontario,CA,44.0686,-77.3117,ardac,234.3,False
ON1455,Cromar,,Ontario,CA,42.7875,-82.2617,ardac,666.1,False
ON1456,Cromarty,,Ontario,CA,43.4272,-81.3506,ardac,569.3,False
ON1457,Crombies,,Ontario,CA,44.0181,-80.189,ardac,458.1,False
ON1458,Crooked Bay,,Ontario,CA,44.9223,-79.7671,ardac,407.6,False
ON1459,Crooked Creek,,Ontario,CA,43.9738,-78.5115,ardac,328.7,False
ON1460,Crooks,,Ontario,CA,48.0792,-89.5229,ardac,701.2,False
ON1461,Crookston,,Ontario,CA,44.4303,-77.4486,ardac,230.2,False
ON1462,Crosby,,Ontario,CA,44.6539,-76.2586,ardac,130.5,False
ON1463,Cross Lake,,Ontario,CA,45.4114,-77.9218,ardac,261.3,False
ON1464,Crosshill,,Ontario,CA,43.5304,-80.7428,ardac,518.0,False
ON1465,Crossland,,Ontario,CA,44.5339,-79.9139,ardac,424.0,False
ON1466,Crossley Hunter,,Ontario,CA,42.8536,-81.0344,ardac,569.8,False
ON1467,Croton,,Ontario,CA,42.6124,-82.0438,ardac,657.5,False
ON1468,Crow Lake,,Ontario,CA,49.1732,-93.929,ardac,860.8,False
ON1469,Crow Lake,,Ontario,CA,44.732,-76.6065,ardac,155.7,False
ON1470,Crowe Bridge,,Ontario,CA,44.3833,-77.755,ardac,255.6,False
ON1471,Crowes Landing,,Ontario,CA,44.5628,-78.0648,ardac,275.4,False
ON1472,Crowland,,Ontario,CA,42.9832,-79.2527,ardac,432.4,False
ON1473,Crown Hill,,Ontario,CA,44.4339,-79.6419,ardac,404.1,False
ON1474,Croydon,,Ontario,CA,44.4209,-76.9779,ardac,194.0,False
ON1475,Crozier,,Ontario,CA,48.6145,-93.5374,ardac,902.0,False
ON1476,Cruickshank,,Ontario,CA,44.5961,-81.0428,ardac,513.8,False
ON1477,Crumlin,,Ontario,CA,43.0127,-81.1443,ardac,570.6,False
ON1478,Cryderman Subdivision,,Ontario,CA,46.6753,-80.7478,ardac,457.4,False
ON1479,Crysler,,Ontario,CA,45.2167,-75.1522,ardac,42.5,True
ON1480,Crystal,,Ontario,CA,44.7922,-75.9044,ardac,98.8,True
ON1481,Crystal Bay,,Ontario,CA,45.355,-75.84,ardac,98.4,True
ON1482,Crystal Beach,,Ontario,CA,45.3483,-75.8331,ardac,97.6,True
ON1483,Crystal Beach,,Ontario,CA,42.8675,-79.0592,ardac,425.8,False
ON1484,Crystal Falls,,Ontario,CA,46.4543,-79.8849,ardac,440.0,False
ON1485,Crystal Rock,,Ontario,CA,44.7965,-75.494,ardac,66.8,True
ON1486,Crystal Springs,,Ontario,CA,44.2257,-78.3172,ardac,304.5,False
ON1487,Culloden,,Ontario,CA,42.8894,-80.8472,ardac,554.0,False
ON1488,Cultus,,Ontario,CA,42.6347,-80.6142,ardac,549.9,False
ON1489,Cumberland,,Ontario,CA,45.5182,-75.4076,ardac,79.3,True
ON1490,Cumberland,,Ontario,CA,45.4333,-75.4333,ardac,74.6,True
ON1491,Cumberland Beach,,Ontario,CA,44.7029,-79.3856,ardac,379.0,False
ON1492,Cumnock,,Ontario,CA,43.7597,-80.4569,ardac,487.4,False
ON1493,Cundles,,Ontario,CA,44.4053,-79.7036,ardac,409.6,False
ON1494,Cunningham's Corners,,Ontario,CA,44.3371,-78.6904,ardac,330.5,False
ON1495,Curran,,Ontario,CA,45.4953,-74.9947,ardac,49.6,True
ON1496,Curries,,Ontario,CA,43.0617,-80.7169,ardac,535.9,False
ON1497,Curry Hill,,Ontario,CA,45.2072,-74.3924,ardac,1.3,True
ON1498,Curve Lake,,Ontario,CA,44.4607,-78.3711,ardac,302.1,False
ON1499,Cushendall,,Ontario,CA,44.3272,-76.3853,ardac,154.1,False
ON1500,Cutler,,Ontario,CA,46.2017,-82.4615,ardac,539.8,False
ON1501,Cyrville,,Ontario,CA,45.4247,-75.6342,ardac,87.2,True
ON1502,Côte-de-Sable,,Ontario,CA,45.4252,-75.6786,ardac,90.3,True
ON1503,Dacre,,Ontario,CA,45.3707,-76.966,ardac,185.3,False
ON1504,Dagmar,,Ontario,CA,44.0022,-79.0375,ardac,368.2,False
ON1505,Dahlia,,Ontario,CA,45.7834,-77.5518,ardac,242.4,False
ON1506,Dain City,,Ontario,CA,42.9458,-79.2433,ardac,433.9,False
ON1507,Dale,,Ontario,CA,43.9869,-78.2911,ardac,311.3,False
ON1508,Dalhousie Lake,,Ontario,CA,44.9586,-76.6003,ardac,152.2,False
ON1509,Dalhousie Mills,,Ontario,CA,45.3173,-74.4711,ardac,14.5,True
ON1510,Dalkeith,,Ontario,CA,45.4456,-74.5731,ardac,20.0,True
ON1511,Dalmeny,,Ontario,CA,45.1461,-75.5308,ardac,67.7,True
ON1512,Dalrymple,,Ontario,CA,44.6408,-79.1039,ardac,357.2,False
ON1513,Dalston,,Ontario,CA,44.4818,-79.6832,ardac,406.4,False
ON1514,Dalton,,Ontario,CA,48.1544,-84.0336,ardac,386.3,False
ON1515,Dalton Mills,,Ontario,CA,48.1217,-84.0711,ardac,390.9,False
ON1516,Damascus,,Ontario,CA,43.9164,-80.4821,ardac,484.3,False
ON1517,Dana,,Ontario,CA,48.8392,-84.1442,ardac,331.7,False
ON1518,Dancaster Courts,,Ontario,CA,43.2125,-79.9886,ardac,474.0,False
ON1519,Dance,,Ontario,CA,48.7678,-93.6703,ardac,894.1,False
ON1520,Dane,,Ontario,CA,48.0722,-80.0314,ardac,296.7,False
ON1521,Danforth Station,,Ontario,CA,43.6861,-79.2997,ardac,400.6,False
ON1522,Darbyville,,Ontario,CA,43.545,-80.0644,ardac,465.0,False
ON1523,Darling,,Ontario,CA,44.9578,-79.6319,ardac,396.5,False
ON1524,Darling Road,,Ontario,CA,42.9669,-79.6996,ardac,465.4,False
ON1525,Darlingside,,Ontario,CA,44.3675,-75.9708,ardac,122.9,False
ON1526,Darlington,,Ontario,CA,43.8783,-78.7854,ardac,353.4,False
ON1527,Darrell,,Ontario,CA,42.4781,-82.1828,ardac,674.5,False
ON1528,Dartford,,Ontario,CA,44.2222,-77.9389,ardac,275.2,False
ON1529,Dashwood,,Ontario,CA,43.346,-81.6354,ardac,594.5,False
ON1530,Daventry,,Ontario,CA,46.061,-78.6685,ardac,335.8,False
ON1531,Davidson's Corners,,Ontario,CA,44.0243,-78.3016,ardac,310.6,False
ON1532,Davidsons Beach,,Ontario,CA,44.3647,-76.5492,ardac,164.1,False
ON1533,Davis Lock,,Ontario,CA,44.5647,-76.2889,ardac,136.0,False
ON1534,Davis Mills,,Ontario,CA,45.7564,-77.2039,ardac,215.6,False
ON1535,Davisville,,Ontario,CA,43.7019,-79.3889,ardac,406.8,False
ON1536,Dawn Mills,,Ontario,CA,42.5847,-82.1294,ardac,665.3,False
ON1537,Dawn Valley,,Ontario,CA,42.6578,-82.2275,ardac,669.3,False
ON1538,Day Mills,,Ontario,CA,46.295,-83.3528,ardac,547.8,False
ON1539,Dayton,,Ontario,CA,46.2519,-83.3533,ardac,552.3,False
ON1540,Daytonia Beach,,Ontario,CA,44.4803,-78.7314,ardac,330.3,False
