id,name,alt_name,region,country,latitude,longitude,tags
ON1,10th Line Shore,,Ontario,CA,45.0919,-76.1506,ardac
ON2,Aberarder,,Ontario,CA,43.0528,-82.0939,ardac
ON3,Aberdeen,,Ontario,CA,44.2128,-80.8619,ardac
ON4,Aberdeen,,Ontario,CA,45.4969,-74.6664,ardac
ON5,Aberfeldy,,Ontario,CA,42.7571,-81.9375,ardac
ON6,Aberfoyle,,Ontario,CA,43.4708,-80.1468,ardac
ON7,Abingdon,,Ontario,CA,43.0836,-79.685,ardac
ON8,Abitibi,,Ontario,CA,49.0252,-80.8851,ardac
ON9,Abitibi Canyon,,Ontario,CA,49.8778,-81.5711,ardac
ON10,Abiwin,,Ontario,CA,48.7444,-91.0664,ardac
ON11,Acanthus,,Ontario,CA,46.0307,-78.4044,ardac
ON12,Achigan,,Ontario,CA,46.8842,-84.1714,ardac
ON13,Achill,,Ontario,CA,44.0164,-79.9158,ardac
ON14,Achray,,Ontario,CA,45.8677,-77.7571,ardac
ON15,Actinolite,,Ontario,CA,44.5439,-77.3261,ardac
ON16,Actons Corners,,Ontario,CA,44.9897,-75.7125,ardac
ON17,Adamsdale,,Ontario,CA,46.4894,-80.9078,ardac
ON18,Adamsville,,Ontario,CA,44.8599,-81.1636,ardac
ON19,Adanac,,Ontario,CA,45.4245,-80.3893,ardac
ON20,Adanac,,Ontario,CA,46.9722,-80.0313,ardac
ON21,Addison,,Ontario,CA,44.6606,-75.8822,ardac
ON22,Adelaide,,Ontario,CA,43.0051,-81.7121,ardac
ON23,Adelard,,Ontario,CA,46.2133,-78.0194,ardac
ON24,Admaston,,Ontario,CA,45.4752,-76.8103,ardac
ON25,Adolphustown,,Ontario,CA,44.0636,-77.0033,ardac
ON26,Advance,,Ontario,CA,45.8685,-82.429,ardac
ON27,Agate,,Ontario,CA,48.5227,-82.9636,ardac
ON28,Agawa,,Ontario,CA,47.6654,-84.5026,ardac
ON29,Agawa Bay,,Ontario,CA,47.3479,-84.6266,ardac
ON30,Agerton,,Ontario,CA,43.5556,-79.8078,ardac
ON31,Agincourt,,Ontario,CA,43.7926,-79.2839,ardac
ON32,Agincourt North,,Ontario,CA,43.8028,-79.2686,ardac
ON33,Agonzon,,Ontario,CA,48.9325,-85.9281,ardac
ON34,Ahmic Harbour,,Ontario,CA,45.6615,-79.7775,ardac
ON35,Ahmic Lake,,Ontario,CA,45.6253,-79.6871,ardac
ON36,Aikensville,,Ontario,CA,43.4296,-80.2333,ardac
ON37,Ailsa Craig,,Ontario,CA,43.1514,-81.5365,ardac
ON38,Airlie,,Ontario,CA,44.261,-80.0083,ardac
ON39,Airy,,Ontario,CA,45.4985,-78.2568,ardac
ON40,Ajax,,Ontario,CA,43.8582,-79.0364,ardac
ON41,Akron,,Ontario,CA,48.9035,-84.117,ardac
ON42,Alban,,Ontario,CA,46.1051,-80.6226,ardac
ON43,Albany Forks,,Ontario,CA,49.1167,-84.1811,ardac
ON44,Albert,,Ontario,CA,44.3173,-77.1346,ardac
ON45,Alberton,,Ontario,CA,43.1867,-80.0713,ardac
ON46,Albion,,Ontario,CA,43.9069,-79.8461,ardac
ON47,Albion Falls,,Ontario,CA,43.1972,-79.8183,ardac
ON48,Albuna,,Ontario,CA,42.1361,-82.6381,ardac
ON49,Albury,,Ontario,CA,44.0793,-77.5282,ardac
ON50,Alcona,,Ontario,CA,44.315,-79.5462,ardac
ON51,Alcona,,Ontario,CA,50.0659,-91.7409,ardac
ON52,Aldborough,,Ontario,CA,42.589,-81.6693,ardac
ON53,Alden,,Ontario,CA,48.1914,-84.5436,ardac
ON54,Alder,,Ontario,CA,44.1836,-79.3837,ardac
ON55,Alderdale,,Ontario,CA,46.1004,-79.2611,ardac
ON56,Aldershot,,Ontario,CA,43.3088,-79.841,ardac
ON57,Alderslea,,Ontario,CA,44.3226,-79.5373,ardac
ON58,Alderville,,Ontario,CA,44.1814,-78.0661,ardac
ON59,Alderwood,,Ontario,CA,43.6086,-79.5388,ardac
ON60,Aldred's Beach,,Ontario,CA,44.1644,-78.8608,ardac
ON61,Alexandria,,Ontario,CA,45.3094,-74.633,ardac
ON62,Alexo,,Ontario,CA,48.6676,-80.8179,ardac
ON63,Alfred,,Ontario,CA,45.5561,-74.8878,ardac
ON64,Alfred Station,,Ontario,CA,45.5294,-74.8928,ardac
ON65,Algo,,Ontario,CA,46.5096,-80.9732,ardac
ON66,Algoma Mills,,Ontario,CA,46.1853,-82.8127,ardac
ON67,Algonquin,,Ontario,CA,44.7032,-75.6696,ardac
ON68,Algonquin Park,,Ontario,CA,45.5517,-78.5958,ardac
ON69,Alice,,Ontario,CA,45.7572,-77.29,ardac
ON70,Allan,,Ontario,CA,44.6196,-77.4774,ardac
ON71,Allan Mills,,Ontario,CA,44.4083,-77.7222,ardac
ON72,Allan Park,,Ontario,CA,44.1672,-80.9325,ardac
ON73,Allanburg,,Ontario,CA,43.0763,-79.2082,ardac
ON74,Allans Corners,,Ontario,CA,45.6781,-77.0956,ardac
ON75,Allanwater Bridge,,Ontario,CA,50.2396,-90.1676,ardac
ON76,Allen's Corners,,Ontario,CA,43.1192,-79.5881,ardac
ON77,Allenford,,Ontario,CA,44.5363,-81.1778,ardac
ON78,Allensville,,Ontario,CA,45.2615,-79.3044,ardac
ON79,Allenwood,,Ontario,CA,44.5762,-79.954,ardac
ON80,Allenwood Beach,,Ontario,CA,44.5736,-79.9917,ardac
ON81,Allimil,,Ontario,CA,44.111,-79.7929,ardac
ON82,Allisonville,,Ontario,CA,44.0298,-77.3676,ardac
ON83,Alliston,,Ontario,CA,44.1536,-79.8642,ardac
ON84,Alloa,,Ontario,CA,43.7044,-79.8564,ardac
ON85,Allsaw,,Ontario,CA,44.9889,-78.6111,ardac
ON86,Alma,,Ontario,CA,43.7303,-80.5024,ardac
ON87,Alma Station,,Ontario,CA,43.725,-80.495,ardac
ON88,Almira,,Ontario,CA,43.9322,-79.3367,ardac
ON89,Almonte,,Ontario,CA,45.2249,-76.1951,ardac
ON90,Alpine Village,,Ontario,CA,44.5764,-78.4719,ardac
ON91,Alpine Village,,Ontario,CA,43.4236,-80.4803,ardac
ON92,Alport,,Ontario,CA,45.0224,-79.3535,ardac
ON93,Alsace,,Ontario,CA,46.0336,-79.5439,ardac
ON94,Alsfeldt,,Ontario,CA,44.0103,-80.9429,ardac
ON95,Alsops Beach,,Ontario,CA,44.4472,-79.1575,ardac
ON96,Alta Vista,,Ontario,CA,45.3864,-75.6581,ardac
ON97,Althorpe,,Ontario,CA,44.7575,-76.4754,ardac
ON98,Alton,,Ontario,CA,43.8593,-80.0689,ardac
ON99,Altona,,Ontario,CA,43.9764,-79.1969,ardac
ON100,Alva,,Ontario,CA,47.0421,-84.0288,ardac
ON101,Alvanley,,Ontario,CA,44.5391,-81.1199,ardac
ON102,Alvinston,,Ontario,CA,42.8261,-81.8639,ardac
ON103,Amaranth Station,,Ontario,CA,43.9028,-80.2356,ardac
ON104,Ambassador Beach,,Ontario,CA,42.0131,-82.9855,ardac
ON105,Amberley,,Ontario,CA,44.0431,-81.7164,ardac
ON106,Ambleside,,Ontario,CA,44.0126,-81.1993,ardac
ON107,Ameliasburg,,Ontario,CA,44.0591,-77.4349,ardac
ON108,Amesdale,,Ontario,CA,50.0158,-92.9343,ardac
ON109,Ameson,,Ontario,CA,49.8061,-84.5678,ardac
ON110,Amethyst Harbour,,Ontario,CA,48.5427,-88.8729,ardac
ON111,Amherst Pointe,,Ontario,CA,42.0558,-83.1147,ardac
ON112,Amherstburg,,Ontario,CA,42.1042,-83.1035,ardac
ON113,Amherstburg,,Ontario,CA,42.1172,-83.0442,ardac
ON114,Amherstview,,Ontario,CA,44.2233,-76.6454,ardac
ON115,Amigari Downs,,Ontario,CA,42.9294,-78.9453,ardac
ON116,Amigo Beach,,Ontario,CA,44.6864,-79.3925,ardac
ON117,Amulree,,Ontario,CA,43.425,-80.8383,ardac
ON118,Amwri,,Ontario,CA,48.8092,-85.8771,ardac
ON119,Amyot,,Ontario,CA,48.4831,-84.9536,ardac
ON120,Ancaster,,Ontario,CA,43.2092,-80.0119,ardac
ON121,Ancaster Heights,,Ontario,CA,43.2375,-79.9644,ardac
ON122,Ancliff,,Ontario,CA,48.7017,-88.5825,ardac
ON123,Ancona Point,,Ontario,CA,44.5032,-78.6144,ardac
ON124,Anderson,,Ontario,CA,43.3153,-81.244,ardac
ON125,Anderson,,Ontario,CA,44.2022,-76.9282,ardac
ON126,Anderson Lake,,Ontario,CA,46.2306,-81.7332,ardac
ON127,Anderson Lake Station,,Ontario,CA,46.2264,-81.7115,ardac
ON128,Andrewsville,,Ontario,CA,44.9518,-75.8204,ardac
ON129,Andy's Corners,,Ontario,CA,42.7631,-80.5939,ardac
ON130,Angling Lake,,Ontario,CA,53.8448,-89.531,ardac
ON131,Angus,,Ontario,CA,44.319,-79.8789,ardac
ON132,Anjigami,,Ontario,CA,47.8832,-84.5418,ardac
ON133,Annable Settlement,,Ontario,CA,45.1063,-75.3568,ardac
ON134,Annan,,Ontario,CA,44.6157,-80.8538,ardac
ON135,Annex,,Ontario,CA,48.6194,-90.0081,ardac
ON136,Anoma Lea,,Ontario,CA,44.6381,-75.9219,ardac
ON137,Ansnorveldt,,Ontario,CA,44.0802,-79.54,ardac
ON138,Anson,,Ontario,CA,44.2981,-77.5975,ardac
ON139,Ansonia,,Ontario,CA,46.3166,-83.6095,ardac
ON140,Ansonville,,Ontario,CA,48.7564,-80.6861,ardac
ON141,Anstice,,Ontario,CA,46.9017,-81.0286,ardac
ON142,Anstruther Lake,,Ontario,CA,44.7354,-78.2001,ardac
ON143,Anten Mills,,Ontario,CA,44.4822,-79.8292,ardac
ON144,Anthony,,Ontario,CA,48.5382,-80.5935,ardac
ON145,Antrim,,Ontario,CA,45.3681,-76.2281,ardac
ON146,Appelo,,Ontario,CA,47.1983,-81.4019,ardac
ON147,Appin,,Ontario,CA,42.7958,-81.6492,ardac
ON148,Apple Hill,,Ontario,CA,45.2208,-74.7703,ardac
ON149,Appleby,,Ontario,CA,43.3778,-79.7743,ardac
ON150,Appledore,,Ontario,CA,42.5219,-82.1433,ardac
ON151,Appleton,,Ontario,CA,45.1819,-76.124,ardac
ON152,Applewood Acres,,Ontario,CA,45.385,-75.6692,ardac
ON153,Applewood Acres,,Ontario,CA,43.5922,-79.5781,ardac
ON154,Applewood Heights,,Ontario,CA,43.6072,-79.595,ardac
ON155,Applewood Hills,,Ontario,CA,43.6183,-79.6022,ardac
ON156,Apsley,,Ontario,CA,44.755,-78.0867,ardac
ON157,Apto,,Ontario,CA,44.5094,-79.8033,ardac
ON158,Arbeatha Park,,Ontario,CA,45.3164,-75.8217,ardac
ON159,Arbor Vitae,,Ontario,CA,48.8979,-94.2943,ardac
ON160,Archer,,Ontario,CA,44.9889,-75.1072,ardac
ON161,Ardbeg,,Ontario,CA,45.6408,-80.08,ardac
ON162,Arden,,Ontario,CA,44.7208,-76.9244,ardac
ON163,Ardendale,,Ontario,CA,44.7217,-76.9444,ardac
ON164,Ardmore Beach,,Ontario,CA,44.7011,-80.0058,ardac
ON165,Ardoch,,Ontario,CA,44.9303,-76.9072,ardac
ON166,Ardtrea,,Ontario,CA,44.6867,-79.4025,ardac
ON167,Argolis,,Ontario,CA,48.6883,-83.4486,ardac
ON168,Argon,,Ontario,CA,48.8931,-90.0091,ardac
ON169,Argyle,,Ontario,CA,44.4507,-79.0172,ardac
ON170,Ariss,,Ontario,CA,43.5753,-80.365,ardac
ON171,Arkell,,Ontario,CA,43.5365,-80.1677,ardac
ON172,Arklan,,Ontario,CA,45.0872,-76.3461,ardac
ON173,Arkona,,Ontario,CA,43.0831,-81.8261,ardac
ON174,Arkwood,,Ontario,CA,42.4813,-82.1218,ardac
ON175,Arkwright,,Ontario,CA,44.4531,-81.2158,ardac
ON176,Arlington Woods,,Ontario,CA,45.323,-75.7876,ardac
ON177,Armadale,,Ontario,CA,43.8372,-79.2579,ardac
ON178,Armbro Heights,,Ontario,CA,43.6703,-79.7468,ardac
ON179,Armitage,,Ontario,CA,44.0336,-79.4761,ardac
ON180,Armour Heights,,Ontario,CA,43.7433,-79.43,ardac
ON181,Armow,,Ontario,CA,44.1928,-81.5139,ardac
ON182,Arms,,Ontario,CA,49.5678,-86.0119,ardac
ON183,Armstrong,,Ontario,CA,50.3049,-89.0418,ardac
ON184,Armstrong Mills,,Ontario,CA,43.6292,-80.2614,ardac
ON185,Armstrong Station,,Ontario,CA,50.3009,-89.0421,ardac
ON186,Armstrongs Corners,,Ontario,CA,44.9331,-76.305,ardac
ON187,Arner,,Ontario,CA,42.0319,-82.8239,ardac
ON188,Arnott,,Ontario,CA,44.43,-80.855,ardac
ON189,Arnprior,,Ontario,CA,45.4347,-76.3581,ardac
ON190,Arnstein,,Ontario,CA,45.9217,-79.933,ardac
ON191,Aroland,,Ontario,CA,50.2321,-86.96,ardac
ON192,Arpin,,Ontario,CA,48.9294,-80.7236,ardac
ON193,Arranvale,,Ontario,CA,44.4526,-81.1455,ardac
ON194,Arthur,,Ontario,CA,43.8327,-80.5379,ardac
ON195,Arthur's Corners,,Ontario,CA,42.9042,-80.5747,ardac
ON196,Arva,,Ontario,CA,43.05,-81.2936,ardac
ON197,Ascalon,,Ontario,CA,46.0742,-78.8053,ardac
ON198,Ash,,Ontario,CA,43.4388,-79.8161,ardac
ON199,Ashburn,,Ontario,CA,44.0025,-78.9952,ardac
ON200,Ashburnham,,Ontario,CA,44.3031,-78.3086,ardac
ON201,Ashburton,,Ontario,CA,46.5164,-80.015,ardac
ON202,Ashby Lake,,Ontario,CA,45.0831,-77.2886,ardac
ON203,Ashby Mill,,Ontario,CA,44.4677,-77.8255,ardac
ON204,Ashdad,,Ontario,CA,45.35,-76.7517,ardac
ON205,Ashdale,,Ontario,CA,45.3,-75.7,ardac
ON206,Ashgrove,,Ontario,CA,43.6086,-79.8944,ardac
ON207,Ashton,,Ontario,CA,45.1572,-76.0319,ardac
ON208,Ashton Station,,Ontario,CA,45.1736,-76.0542,ardac
ON209,Ashworth,,Ontario,CA,45.3492,-79.4021,ardac
ON210,Aspdin,,Ontario,CA,45.2978,-79.3708,ardac
ON211,Asselstine,,Ontario,CA,44.2443,-76.7313,ardac
ON212,Assumption,,Ontario,CA,44.2708,-78.2678,ardac
ON213,Astorville,,Ontario,CA,46.1858,-79.2794,ardac
ON214,Atha Road,,Ontario,CA,43.944,-79.1709,ardac
ON215,Athens,,Ontario,CA,44.6316,-75.9463,ardac
ON216,Atherley,,Ontario,CA,44.6012,-79.3612,ardac
ON217,Atherton,,Ontario,CA,42.8225,-80.4491,ardac
ON218,Athlone,,Ontario,CA,44.0354,-79.8869,ardac
ON219,Athol,,Ontario,CA,45.3201,-74.8936,ardac
ON220,Athol,,Ontario,CA,43.9218,-77.2296,ardac
ON221,Atikokan,,Ontario,CA,48.7583,-91.6133,ardac
ON222,Atironto,,Ontario,CA,44.9031,-76.0072,ardac
ON223,Atkinson,,Ontario,CA,44.3872,-76.2771,ardac
ON224,Attawapiskat,,Ontario,CA,52.9225,-82.4253,ardac
ON225,Attercliffe,,Ontario,CA,42.9922,-79.5861,ardac
ON226,Attercliffe Station,,Ontario,CA,42.9687,-79.5924,ardac
ON227,Atwood,,Ontario,CA,43.6692,-81.0189,ardac
ON228,Auburn,,Ontario,CA,43.7726,-81.5336,ardac
ON229,Auburn Mills,,Ontario,CA,44.3158,-78.3081,ardac
ON230,Auden,,Ontario,CA,50.2262,-87.8925,ardac
ON231,Auden Park,,Ontario,CA,44.2258,-76.5839,ardac
ON232,Audley,,Ontario,CA,43.9031,-79.0117,ardac
ON233,Augsburg,,Ontario,CA,45.5283,-77.1832,ardac
ON234,Aunor,,Ontario,CA,48.4411,-81.2872,ardac
ON235,Aurora,,Ontario,CA,43.9976,-79.4699,ardac
ON236,Austin,,Ontario,CA,46.4907,-80.8363,ardac
ON237,Avalon Park,,Ontario,CA,42.7625,-80.2419,ardac
ON238,Avening,,Ontario,CA,44.3106,-80.0727,ardac
ON239,Avery Point,,Ontario,CA,44.6703,-79.1169,ardac
ON240,Avon,,Ontario,CA,42.9081,-80.9329,ardac
ON241,Avonbank,,Ontario,CA,43.329,-81.1292,ardac
ON242,Avondale,,Ontario,CA,45.2113,-74.6913,ardac
ON243,Avonmore,,Ontario,CA,45.1715,-74.9671,ardac
ON244,Avonry,,Ontario,CA,42.7522,-82.3522,ardac
ON245,Avonton,,Ontario,CA,43.3538,-81.0868,ardac
ON246,Axe Lake,,Ontario,CA,45.3959,-79.5301,ardac
ON247,Aylen,,Ontario,CA,46.2247,-78.2169,ardac
ON248,Aylen Lake,,Ontario,CA,45.5906,-77.8594,ardac
ON249,Aylen Lake Station,,Ontario,CA,45.5522,-77.8272,ardac
ON250,Aylesworth,,Ontario,CA,44.2844,-76.5411,ardac
ON251,Aylmer,,Ontario,CA,42.7826,-80.9826,ardac
ON252,Aylmer West,,Ontario,CA,42.7722,-80.9839,ardac
ON253,Aylsworth,,Ontario,CA,48.5464,-93.8086,ardac
ON254,Ayr,,Ontario,CA,43.2856,-80.45,ardac
ON255,Ayton,,Ontario,CA,44.0544,-80.9282,ardac
ON256,Ayton Siding,,Ontario,CA,44.045,-80.9356,ardac
ON257,Azen,,Ontario,CA,46.6342,-80.2515,ardac
ON258,Azilda,,Ontario,CA,46.5501,-81.1145,ardac
ON259,Baby Point,,Ontario,CA,43.6556,-79.4931,ardac
ON260,Babys Point,,Ontario,CA,42.6483,-82.5046,ardac
ON261,Baddow,,Ontario,CA,44.6122,-78.7589,ardac
ON262,Baden,,Ontario,CA,43.4025,-80.6686,ardac
ON263,Badenoch,,Ontario,CA,43.4737,-80.0826,ardac
ON264,Badger's Corners,,Ontario,CA,45.3925,-80.0272,ardac
ON265,Badjeros,,Ontario,CA,44.2569,-80.2817,ardac
ON266,Baelstadt,,Ontario,CA,45.9122,-77.3508,ardac
ON267,Bagnall,,Ontario,CA,42.3469,-82.3608,ardac
ON268,Baie du Doré,,Ontario,CA,44.3348,-81.5526,ardac
ON269,Baie-du-Tonnerre,,Ontario,CA,44.8061,-80.0761,ardac
ON270,Bailey Corners,,Ontario,CA,46.6117,-80.8197,ardac
ON271,Bailieboro,,Ontario,CA,44.1333,-78.3533,ardac
ON272,Bainsville,,Ontario,CA,45.1839,-74.4144,ardac
ON273,Baird,,Ontario,CA,48.4242,-89.4253,ardac
ON274,Bairds,,Ontario,CA,42.7597,-81.3589,ardac
ON275,Bala,,Ontario,CA,45.0176,-79.6172,ardac
ON276,Bala Park,,Ontario,CA,45.0136,-79.585,ardac
ON277,Bala Road,,Ontario,CA,45.0329,-79.6233,ardac
ON278,Balaclava,,Ontario,CA,45.3906,-76.9489,ardac
ON279,Balaclava,,Ontario,CA,44.6831,-80.7789,ardac
ON280,Balderson,,Ontario,CA,44.9518,-76.3275,ardac
ON281,Baldoon,,Ontario,CA,42.4944,-82.3489,ardac
ON282,Baldwin,,Ontario,CA,44.2626,-79.3423,ardac
ON283,Baldwins Bridge,,Ontario,CA,45.0044,-75.4117,ardac
ON284,Balfour Beach,,Ontario,CA,44.2663,-79.4948,ardac
ON285,Ballantrae,,Ontario,CA,44.0356,-79.2986,ardac
ON286,Ballinafad,,Ontario,CA,43.6961,-80.0119,ardac
ON287,Ballycanoe,,Ontario,CA,44.5339,-75.9067,ardac
ON288,Ballycroy,,Ontario,CA,43.9725,-79.8707,ardac
ON289,Ballydown Beach,,Ontario,CA,44.2447,-79.5331,ardac
ON290,Ballyduff,,Ontario,CA,44.1356,-78.65,ardac
ON291,Ballymote,,Ontario,CA,43.0665,-81.2392,ardac
ON292,Balm Beach,,Ontario,CA,44.6981,-80.0003,ardac
ON293,Balmertown,,Ontario,CA,51.0573,-93.7432,ardac
ON294,Balmoral,,Ontario,CA,42.914,-79.963,ardac
ON295,Balmoral Park,,Ontario,CA,44.2456,-76.6081,ardac
ON296,Balmy Beach,,Ontario,CA,44.6172,-80.9464,ardac
ON297,Balsam,,Ontario,CA,43.9881,-79.0606,ardac
ON298,Balsam Creek,,Ontario,CA,46.419,-79.201,ardac
ON299,Balsam Grove,,Ontario,CA,44.2458,-76.5325,ardac
ON300,Balsam Hill,,Ontario,CA,45.4885,-76.824,ardac
ON301,Baltics Corners,,Ontario,CA,45.3283,-74.7907,ardac
ON302,Baltimore,,Ontario,CA,44.0297,-78.1458,ardac
ON303,Balvenie,,Ontario,CA,45.2631,-77.065,ardac
ON304,Bamberg,,Ontario,CA,43.4883,-80.6864,ardac
ON305,Banbury,,Ontario,CA,45.4526,-79.5246,ardac
ON306,Bancroft,,Ontario,CA,45.055,-77.7578,ardac
ON307,Bancroft,,Ontario,CA,45.0689,-77.8689,ardac
ON308,Banda,,Ontario,CA,44.2872,-80.0667,ardac
ON309,Bangor Lodge,,Ontario,CA,45.0408,-79.3911,ardac
ON310,Bankfield,,Ontario,CA,49.6976,-87.0812,ardac
ON311,Banks,,Ontario,CA,44.4847,-80.351,ardac
ON312,Banner,,Ontario,CA,43.0082,-80.9855,ardac
ON313,Banning,,Ontario,CA,48.7371,-91.9846,ardac
ON314,Bannockburn,,Ontario,CA,44.6431,-77.5504,ardac
ON315,Baptiste,,Ontario,CA,45.0936,-77.9794,ardac
ON316,Bar Point,,Ontario,CA,42.0528,-83.1125,ardac
ON317,Bar River,,Ontario,CA,46.4418,-84.0262,ardac
ON318,Barb,,Ontario,CA,45.5169,-74.5392,ardac
ON319,Barber's Beach,,Ontario,CA,43.4203,-80.2747,ardac
ON320,Barbers Bay,,Ontario,CA,48.6178,-80.9019,ardac
ON321,Barclay,,Ontario,CA,44.2997,-79.6133,ardac
ON322,Barcovan Beach,,Ontario,CA,44.0272,-77.6269,ardac
ON323,Bardsville,,Ontario,CA,45.0982,-79.431,ardac
ON324,Barehead,,Ontario,CA,49.0532,-85.9051,ardac
ON325,Barkway,,Ontario,CA,44.9058,-79.1783,ardac
ON326,Barlochan,,Ontario,CA,45.0364,-79.4836,ardac
ON327,Barnesdale,,Ontario,CA,43.1831,-79.2792,ardac
ON328,Barnhart,,Ontario,CA,48.7289,-93.7843,ardac
ON329,Barrett Chute,,Ontario,CA,45.2507,-76.7552,ardac
ON330,Barretville,,Ontario,CA,42.0992,-82.8539,ardac
ON331,Barrhaven,,Ontario,CA,45.279,-75.7684,ardac
ON332,Barrhead,,Ontario,CA,44.3042,-80.6636,ardac
ON333,Barrie,,Ontario,CA,44.3712,-79.677,ardac
ON334,Barriefield,,Ontario,CA,44.2418,-76.462,ardac
ON335,Barrillia Park,,Ontario,CA,44.4576,-79.4945,ardac
ON336,Barrow Bay,,Ontario,CA,44.9589,-81.2275,ardac
ON337,Barry's Bay,,Ontario,CA,45.4885,-77.6806,ardac
ON338,Barrydowne,,Ontario,CA,46.5141,-80.944,ardac
ON339,Barrymere,,Ontario,CA,45.3908,-77.6684,ardac
ON340,Barryvale,,Ontario,CA,45.2811,-76.7275,ardac
ON341,Bartonville,,Ontario,CA,43.2358,-79.8069,ardac
ON342,Barwick,,Ontario,CA,48.6448,-93.9843,ardac
ON343,Basin Depot,,Ontario,CA,45.7208,-77.7885,ardac
ON344,Basin Mines,,Ontario,CA,46.6138,-80.6554,ardac
ON345,Basingstoke,,Ontario,CA,43.1033,-79.62,ardac
ON346,Baskin's Beach,,Ontario,CA,45.4786,-76.0103,ardac
ON347,Bass Creek,,Ontario,CA,45.8057,-82.0114,ardac
ON348,Bass Lake,,Ontario,CA,46.1008,-77.6014,ardac
ON349,Bass Lake Park,,Ontario,CA,44.6116,-79.4814,ardac
ON350,Basse-ville,,Ontario,CA,45.4322,-75.6939,ardac
ON351,Batawa,,Ontario,CA,44.1722,-77.5961,ardac
ON352,Batchawana Bay,,Ontario,CA,46.9261,-84.6064,ardac
ON353,Batchewana,,Ontario,CA,47.1764,-84.2892,ardac
ON354,Bath,,Ontario,CA,44.1828,-76.7767,ardac
ON355,Bathurst,,Ontario,CA,44.8689,-76.3844,ardac
ON356,Batteaux,,Ontario,CA,44.4656,-80.1736,ardac
ON357,Battersea,,Ontario,CA,44.4325,-76.3835,ardac
ON358,Bawk,,Ontario,CA,49.9694,-86.6727,ardac
ON359,Baxter,,Ontario,CA,44.2453,-79.8383,ardac
ON360,Baxters Corners,,Ontario,CA,45.1655,-75.7904,ardac
ON361,Bay Beach,,Ontario,CA,42.8681,-79.0719,ardac
ON362,Bayfield,,Ontario,CA,43.5599,-81.6993,ardac
ON363,Bayfield Inlet,,Ontario,CA,45.6242,-80.4997,ardac
ON364,Bayridge,,Ontario,CA,44.2439,-76.5878,ardac
ON365,Bayshore,,Ontario,CA,45.3492,-75.8092,ardac
ON366,Bayshore Estates,,Ontario,CA,44.3628,-79.6233,ardac
ON367,Bayshore Village,,Ontario,CA,44.5554,-79.2848,ardac
ON368,Bayside,,Ontario,CA,44.1202,-77.506,ardac
ON369,Baysville,,Ontario,CA,45.1489,-79.1147,ardac
ON370,Bayswater,,Ontario,CA,46.0875,-80.7543,ardac
ON371,Bayview,,Ontario,CA,44.2143,-76.6662,ardac
ON372,Bayview,,Ontario,CA,43.2972,-79.8628,ardac
ON373,Bayview,,Ontario,CA,44.6003,-80.6914,ardac
ON374,Bayview,,Ontario,CA,46.5273,-84.3807,ardac
ON375,Bayview Beach,,Ontario,CA,44.2397,-79.5322,ardac
ON376,Bayview Park,,Ontario,CA,44.8583,-79.8175,ardac
ON377,Bayview Point,,Ontario,CA,44.6189,-80.9447,ardac
ON378,Bayview Village,,Ontario,CA,43.7764,-79.3803,ardac
ON379,Baywood Park,,Ontario,CA,44.5168,-79.4381,ardac
ON380,Beach O'Pines,,Ontario,CA,43.2934,-81.7893,ardac
ON381,Beachburg,,Ontario,CA,45.7315,-76.8552,ardac
ON382,Beachville,,Ontario,CA,43.0908,-80.8293,ardac
ON383,Beacon Heights,,Ontario,CA,45.45,-75.6333,ardac
ON384,Beacon Hill North,,Ontario,CA,45.4592,-75.6039,ardac
ON385,Beacon Hill South,,Ontario,CA,45.4422,-75.5992,ardac
ON386,Beaconsfield,,Ontario,CA,43.0458,-80.6147,ardac
ON387,Beaconwood,,Ontario,CA,45.45,-75.6,ardac
ON388,Beales Mills,,Ontario,CA,44.5778,-75.9706,ardac
ON389,Bealton,,Ontario,CA,42.9975,-80.2258,ardac
ON390,Beamsville,,Ontario,CA,43.1658,-79.4764,ardac
ON391,Bear Cave,,Ontario,CA,45.3123,-79.609,ardac
ON392,Bear Island,,Ontario,CA,46.9722,-80.0742,ardac
ON393,Bear Lake,,Ontario,CA,45.4572,-79.5858,ardac
ON394,Bear Line,,Ontario,CA,42.4482,-82.2924,ardac
ON395,Bear Pass,,Ontario,CA,48.7262,-92.9592,ardac
ON396,Bear Point,,Ontario,CA,44.3967,-79.5436,ardac
ON397,Bear Valley,,Ontario,CA,45.9672,-79.7128,ardac
ON398,Bearbrook,,Ontario,CA,45.3883,-75.3336,ardac
ON399,Beardmore,,Ontario,CA,49.6008,-87.9561,ardac
ON400,Bearskin Lake,,Ontario,CA,53.9248,-90.9695,ardac
ON401,Beatrice,,Ontario,CA,45.1574,-79.382,ardac
ON402,Beatty,,Ontario,CA,45.0281,-76.7456,ardac
ON403,Beaucage,,Ontario,CA,46.3566,-79.6555,ardac
ON404,Beaumaris,,Ontario,CA,45.0718,-79.4931,ardac
ON405,Beaumonde Heights,,Ontario,CA,43.7418,-79.5732,ardac
ON406,Beaver Dams,,Ontario,CA,43.1053,-79.2147,ardac
ON407,Beaver Lake,,Ontario,CA,46.3406,-81.4959,ardac
ON408,Beaver Lake,,Ontario,CA,48.1394,-79.6494,ardac
ON409,Beaver Meadow,,Ontario,CA,42.7131,-82.2435,ardac
ON410,Beaverdale,,Ontario,CA,44.4094,-80.6121,ardac
ON411,Beavers Corner,,Ontario,CA,43.0719,-80.0147,ardac
ON412,Beaverstone Bay,,Ontario,CA,46.0011,-81.1516,ardac
ON413,Beaverton,,Ontario,CA,44.4308,-79.1527,ardac
ON414,Becher,,Ontario,CA,42.6537,-82.3552,ardac
ON415,Beck,,Ontario,CA,48.6003,-88.8712,ardac
ON416,Becker,,Ontario,CA,49.2,-84.6708,ardac
ON417,Becketts Bridge,,Ontario,CA,42.9739,-79.3714,ardac
ON418,Becketts Creek,,Ontario,CA,45.5164,-75.3589,ardac
ON419,Becketts Landing,,Ontario,CA,45.0512,-75.6857,ardac
ON420,Beckstead,,Ontario,CA,45.0458,-75.1767,ardac
ON421,Beckwith,,Ontario,CA,45.0753,-76.1017,ardac
ON422,Bedell,,Ontario,CA,44.9969,-75.63,ardac
ON423,Bedford,,Ontario,CA,44.626,-76.564,ardac
ON424,Bedford Mills,,Ontario,CA,44.6025,-76.4058,ardac
ON425,Bedford Park,,Ontario,CA,43.7382,-79.409,ardac
ON426,Beech Beach,,Ontario,CA,46.1147,-83.8928,ardac
ON427,Beech Corners,,Ontario,CA,44.9463,-77.0554,ardac
ON428,Beechmount,,Ontario,CA,45.0663,-77.9662,ardac
ON429,Beechwood,,Ontario,CA,43.0717,-81.6029,ardac
ON430,Beechwood,,Ontario,CA,43.4644,-80.5322,ardac
ON431,Beechwood,,Ontario,CA,43.5566,-81.301,ardac
ON432,Beechwood,,Ontario,CA,42.4781,-81.905,ardac
ON433,Beeton,,Ontario,CA,44.0826,-79.7868,ardac
ON434,Behnke Wood,,Ontario,CA,45.9245,-77.3549,ardac
ON435,Bekanon,,Ontario,CA,45.8526,-80.5593,ardac
ON436,Bel Air Heights,,Ontario,CA,45.3582,-75.7553,ardac
ON437,Bel Air Park,,Ontario,CA,45.359,-75.765,ardac
ON438,Belanger,,Ontario,CA,46.5622,-81.1386,ardac
ON439,Belangers Corner,,Ontario,CA,45.4019,-76.7158,ardac
ON440,Belcreft Beach,,Ontario,CA,42.0153,-82.9892,ardac
ON441,Belfast,,Ontario,CA,43.9181,-81.5507,ardac
ON442,Belford,,Ontario,CA,43.8836,-79.1811,ardac
ON443,Belfountain,,Ontario,CA,43.7929,-80.0155,ardac
ON444,Belgrave,,Ontario,CA,43.8141,-81.3665,ardac
ON445,Belhaven,,Ontario,CA,44.2628,-79.4286,ardac
ON446,Bell Ewart,,Ontario,CA,44.2714,-79.5419,ardac
ON447,Bell Grove,,Ontario,CA,46.47,-80.9928,ardac
ON448,Bell Rapids,,Ontario,CA,45.3878,-77.7954,ardac
ON449,Bellamys,,Ontario,CA,44.7044,-75.7932,ardac
ON450,Bellamys Mill,,Ontario,CA,44.7231,-76.0211,ardac
ON451,Belle Air Beach,,Ontario,CA,44.2875,-79.5375,ardac
ON452,Belle River,,Ontario,CA,42.2914,-82.7044,ardac
ON453,Belle Vallée,,Ontario,CA,47.6535,-79.5931,ardac
ON454,Belle-eau-Claire Beach,,Ontario,CA,44.7286,-80.0542,ardac
ON455,Belleview Beach,,Ontario,CA,42.8619,-79.3533,ardac
ON456,Belleville,,Ontario,CA,44.2567,-77.3697,ardac
ON457,Belleville,,Ontario,CA,44.1708,-77.3828,ardac
ON458,Bellevue,,Ontario,CA,46.7044,-84.2257,ardac
ON459,Bellheck,,Ontario,CA,44.5204,-76.9638,ardac
ON460,Bellingham,,Ontario,CA,46.3931,-83.286,ardac
ON461,Bellrock,,Ontario,CA,44.4752,-76.7632,ardac
ON462,Bells Corners,,Ontario,CA,44.9369,-76.3506,ardac
ON463,Bells Corners,,Ontario,CA,45.3208,-75.83,ardac
ON464,Bells Corners Station,,Ontario,CA,45.331,-75.8097,ardac
ON465,Bells Crossing,,Ontario,CA,44.7533,-75.8267,ardac
ON466,Bells Junction,,Ontario,CA,45.3288,-75.8329,ardac
ON467,Bellwood,,Ontario,CA,45.5025,-78.2489,ardac
ON468,Bellwood,,Ontario,CA,45.3264,-75.8297,ardac
ON469,Belmeade,,Ontario,CA,45.128,-75.4932,ardac
ON470,Belmont,,Ontario,CA,42.8857,-81.086,ardac
ON471,Belmore,,Ontario,CA,43.9581,-81.1867,ardac
ON472,Belton,,Ontario,CA,43.1756,-81.1389,ardac
ON473,Belwood,,Ontario,CA,43.7921,-80.3228,ardac
ON474,Benallen,,Ontario,CA,44.6139,-80.9783,ardac
ON475,Bendale,,Ontario,CA,43.7639,-79.2556,ardac
ON476,Benmiller,,Ontario,CA,43.7218,-81.6248,ardac
ON477,Bennies Corners,,Ontario,CA,45.251,-76.2664,ardac
ON478,Bennington,,Ontario,CA,43.1925,-80.9553,ardac
ON479,Bennington Heights,,Ontario,CA,43.6942,-79.3722,ardac
ON480,Benny,,Ontario,CA,46.7819,-81.6297,ardac
ON481,Benoit,,Ontario,CA,45.3092,-75.16,ardac
ON482,Bensfort Bridge,,Ontario,CA,44.2056,-78.2775,ardac
ON483,Bensfort Corners,,Ontario,CA,44.1761,-78.2808,ardac
ON484,Bent River,,Ontario,CA,45.2136,-79.5406,ardac
ON485,Bentinck,,Ontario,CA,44.2537,-80.8709,ardac
ON486,Bentpath,,Ontario,CA,42.7124,-82.1749,ardac
ON487,Bergland,,Ontario,CA,48.9518,-94.3871,ardac
ON488,Berkeley,,Ontario,CA,44.3663,-80.7278,ardac
ON489,Berkshire Village,,Ontario,CA,42.9662,-81.279,ardac
ON490,Berlett's Corners,,Ontario,CA,43.4598,-80.7104,ardac
ON491,Berriedale,,Ontario,CA,45.6636,-79.3831,ardac
ON492,Berrys,,Ontario,CA,45.425,-75.9247,ardac
ON493,Berryton,,Ontario,CA,44.4615,-76.197,ardac
ON494,Bertrand,,Ontario,CA,48.6941,-85.5765,ardac
ON495,Bervie,,Ontario,CA,44.1322,-81.5042,ardac
ON496,Berwick,,Ontario,CA,45.1774,-75.111,ardac
ON497,Berylvale,,Ontario,CA,48.9591,-80.9971,ardac
ON498,Bessemer,,Ontario,CA,45.0497,-77.6332,ardac
ON499,Bethany,,Ontario,CA,44.1792,-77.0311,ardac
ON500,Bethany,,Ontario,CA,44.1822,-78.5679,ardac
ON501,Bethel,,Ontario,CA,44.0576,-77.2103,ardac
ON502,Bethel,,Ontario,CA,44.6456,-75.6739,ardac
ON503,Bethel,,Ontario,CA,42.9275,-79.2036,ardac
ON504,Bethel,,Ontario,CA,44.3317,-78.4817,ardac
ON505,Bethesda,,Ontario,CA,44.2324,-79.673,ardac
ON506,Bethesda,,Ontario,CA,44.1163,-77.1343,ardac
ON507,Bethesda,,Ontario,CA,43.9667,-79.3573,ardac
ON508,Bethnal,,Ontario,CA,47.7797,-81.8181,ardac
ON509,Bethune Bush,,Ontario,CA,45.0575,-75.2444,ardac
ON510,Beveridge Locks,,Ontario,CA,44.8758,-76.1335,ardac
ON511,Beverley Acres,,Ontario,CA,43.8725,-79.4192,ardac
ON512,Beverley Hills,,Ontario,CA,44.1988,-79.4751,ardac
ON513,Beverley Isles,,Ontario,CA,44.1986,-79.4806,ardac
ON514,Bewdley,,Ontario,CA,44.0878,-78.3214,ardac
ON515,Bexley,,Ontario,CA,44.654,-78.9103,ardac
ON516,Bickford,,Ontario,CA,42.7662,-82.4285,ardac
ON517,Bidwell,,Ontario,CA,45.8003,-81.9831,ardac
ON518,Bieman's Corners,,Ontario,CA,44.0046,-80.9935,ardac
ON519,Big Bay,,Ontario,CA,44.7906,-80.9478,ardac
ON520,Big Bay Point,,Ontario,CA,44.4,-79.5169,ardac
ON521,Big Beaver House,,Ontario,CA,52.9527,-89.8737,ardac
ON522,Big Cedar,,Ontario,CA,44.5786,-78.1769,ardac
ON523,Big Cedar Point,,Ontario,CA,44.2997,-79.5267,ardac
ON524,Big Chute,,Ontario,CA,44.8847,-79.6772,ardac
ON525,Big Fork,,Ontario,CA,48.5218,-93.6721,ardac
ON526,Big Lake,,Ontario,CA,45.7464,-82.0552,ardac
ON527,Bigelow,,Ontario,CA,47.2961,-79.5175,ardac
ON528,Bigwin,,Ontario,CA,45.2428,-79.0233,ardac
ON529,Bigwood,,Ontario,CA,46.0333,-80.6003,ardac
ON530,Bill's Corners,,Ontario,CA,42.8133,-80.3744,ardac
ON531,Bill's Corners,,Ontario,CA,42.9689,-80.2608,ardac
ON532,Billings,,Ontario,CA,45.8512,-82.2185,ardac
ON533,Billings,,Ontario,CA,45.3872,-75.6725,ardac
ON534,Billings Bridge,,Ontario,CA,45.3807,-75.6742,ardac
ON535,Binbrook,,Ontario,CA,43.1207,-79.8044,ardac
ON536,Bingle,,Ontario,CA,48.9481,-80.4053,ardac
ON537,Binkham,,Ontario,CA,43.8113,-80.1017,ardac
ON538,Biota,,Ontario,CA,48.9894,-90.3815,ardac
ON539,Birch Cliff,,Ontario,CA,43.6889,-79.2732,ardac
ON540,Birch Haven,,Ontario,CA,46.3203,-79.4104,ardac
ON541,Birch Island,,Ontario,CA,46.0689,-81.7739,ardac
ON542,Birch Point,,Ontario,CA,44.5103,-78.5962,ardac
ON543,Birchmount Park,,Ontario,CA,43.7106,-79.2697,ardac
ON544,Birchwood,,Ontario,CA,43.5269,-79.6283,ardac
ON545,Birdell,,Ontario,CA,44.1625,-80.5088,ardac
ON546,Birds Creek,,Ontario,CA,45.1079,-77.8755,ardac
ON547,Birdsalls,,Ontario,CA,44.2821,-78.0545,ardac
ON548,Birge Mills,,Ontario,CA,43.6668,-80.2586,ardac
ON549,Birkendale,,Ontario,CA,45.2976,-78.9701,ardac
ON550,Birnam,,Ontario,CA,43.0535,-81.8798,ardac
ON551,Birr,,Ontario,CA,43.1214,-81.3328,ardac
ON552,Biscotasing,,Ontario,CA,47.2994,-82.1042,ardac
ON553,Bishop Corners,,Ontario,CA,44.7806,-77.1767,ardac
ON554,Bishops Mills,,Ontario,CA,44.8737,-75.7046,ardac
ON555,Bishopsgate,,Ontario,CA,43.1075,-80.4072,ardac
ON556,Bismarck,,Ontario,CA,43.0419,-79.5035,ardac
ON557,Bisseltown,,Ontario,CA,44.6875,-75.6747,ardac
ON558,Bissett Creek,,Ontario,CA,46.2242,-78.0678,ardac
ON559,Black Bank,,Ontario,CA,44.2296,-80.1534,ardac
ON560,Black Bay,,Ontario,CA,45.8742,-77.3606,ardac
ON561,Black Bridge,,Ontario,CA,44.9847,-79.2586,ardac
ON562,Black Creek,,Ontario,CA,42.98,-79.025,ardac
ON563,Black Creek,,Ontario,CA,43.9679,-77.0305,ardac
ON564,Black Donald,,Ontario,CA,45.2248,-76.9037,ardac
ON565,Black Hawk,,Ontario,CA,48.8094,-93.9842,ardac
ON566,Black Horse,,Ontario,CA,43.9824,-79.8099,ardac
ON567,Black Horse Corner,,Ontario,CA,43.0802,-79.1989,ardac
ON568,Black Rapids,,Ontario,CA,44.5083,-76.0933,ardac
ON569,Black River,,Ontario,CA,45.0786,-74.871,ardac
ON570,Black Road,,Ontario,CA,45.2758,-79.89,ardac
ON571,Blackburn,,Ontario,CA,45.4364,-75.5469,ardac
ON572,Blackburn Hamlet,,Ontario,CA,45.4367,-75.5646,ardac
ON573,Blackheath,,Ontario,CA,43.0751,-79.824,ardac
ON574,Blacks Corners,,Ontario,CA,45.1076,-76.1046,ardac
ON575,Blacks Corners,,Ontario,CA,44.0027,-80.2368,ardac
ON576,Blacks Corners,,Ontario,CA,43.3425,-79.9586,ardac
ON577,Blackstock,,Ontario,CA,44.1097,-78.8193,ardac
ON578,Blackstone,,Ontario,CA,45.257,-79.8427,ardac
ON579,Blackstone Lake,,Ontario,CA,45.2486,-79.8844,ardac
ON580,Blackwater,,Ontario,CA,44.2361,-79.0528,ardac
ON581,Blackwater Junction,,Ontario,CA,44.2375,-79.0461,ardac
ON582,Blackwell,,Ontario,CA,43.0203,-82.3197,ardac
ON583,Blair,,Ontario,CA,43.3833,-80.3882,ardac
ON584,Blairhampton,,Ontario,CA,45.0294,-78.6557,ardac
ON585,Blairs Settlement,,Ontario,CA,44.6392,-76.405,ardac
ON586,Blairton,,Ontario,CA,44.4643,-77.7626,ardac
ON587,Blairton Station,,Ontario,CA,44.4372,-77.8048,ardac
ON588,Blake,,Ontario,CA,43.4547,-81.6578,ardac
ON589,Blakeney,,Ontario,CA,45.2658,-76.2444,ardac
ON590,Blalock,,Ontario,CA,48.7547,-91.3214,ardac
ON591,Blanchard's Landing,,Ontario,CA,46.2833,-79.0275,ardac
ON592,Blanchards Hill,,Ontario,CA,44.7839,-76.0992,ardac
ON593,Blanche,,Ontario,CA,50.0762,-85.7113,ardac
ON594,Blandford Station,,Ontario,CA,43.2178,-80.6378,ardac
ON595,Blantyre,,Ontario,CA,44.5008,-80.6342,ardac
ON596,Blenheim,,Ontario,CA,42.3335,-81.9987,ardac
ON597,Blenheim Junction,,Ontario,CA,42.3272,-82.0114,ardac
ON598,Blessington,,Ontario,CA,44.2628,-77.2667,ardac
ON599,Blezard,,Ontario,CA,44.2958,-78.0994,ardac
ON600,Blezard Valley,,Ontario,CA,46.6092,-81.0506,ardac
ON601,Blind River,,Ontario,CA,46.1858,-82.9606,ardac
ON602,Blind River,,Ontario,CA,46.3023,-82.878,ardac
ON603,Blink Bonnie,,Ontario,CA,43.2979,-80.649,ardac
ON604,Bloomfield,,Ontario,CA,43.9856,-77.2314,ardac
ON605,Bloomingdale,,Ontario,CA,43.5078,-80.4622,ardac
ON606,Bloomington,,Ontario,CA,44.0054,-79.2647,ardac
ON607,Bloomington,,Ontario,CA,45.2603,-74.8828,ardac
ON608,Bloomsburg,,Ontario,CA,42.8874,-80.2988,ardac
ON609,Bloordale Gardens,,Ontario,CA,43.6379,-79.5674,ardac
ON610,Blossom Park,,Ontario,CA,45.3489,-75.6267,ardac
ON611,Blount,,Ontario,CA,49.2614,-81.0242,ardac
ON612,Blount,,Ontario,CA,43.9642,-80.0239,ardac
ON613,Blue Church,,Ontario,CA,44.6803,-75.5589,ardac
ON614,Blue Corners,,Ontario,CA,45.5845,-74.8046,ardac
ON615,Blue Mountain,,Ontario,CA,44.6749,-77.945,ardac
ON616,Blue Mountains,,Ontario,CA,44.4781,-80.4014,ardac
ON617,Blue Springs,,Ontario,CA,43.6185,-80.0968,ardac
ON618,Blue Water Beach,,Ontario,CA,43.7176,-81.7221,ardac
ON619,Bluevale,,Ontario,CA,43.8542,-81.2514,ardac
ON620,Bluevale Siding,,Ontario,CA,43.846,-81.2573,ardac
ON621,Bluewater,,Ontario,CA,43.4767,-81.6029,ardac
ON622,Bluewater Beach,,Ontario,CA,44.6258,-79.9903,ardac
ON623,Blyth,,Ontario,CA,43.7346,-81.4283,ardac
ON624,Blytheswood,,Ontario,CA,42.1212,-82.5949,ardac
ON625,Boakview,,Ontario,CA,45.5713,-80.0318,ardac
ON626,Bobcaygeon,,Ontario,CA,44.5468,-78.5577,ardac
ON627,Bobs Lake,,Ontario,CA,44.6453,-76.6524,ardac
ON628,Bogart,,Ontario,CA,44.4983,-77.2489,ardac
ON629,Bogarttown,,Ontario,CA,44.0451,-79.4246,ardac
ON630,Bogies Beach,,Ontario,CA,43.8139,-81.7219,ardac
ON631,Bognor,,Ontario,CA,44.5227,-80.743,ardac
ON632,Boland's Bay,,Ontario,CA,46.6532,-80.7664,ardac
ON633,Bolger,,Ontario,CA,45.6802,-80.1195,ardac
ON634,Bolger Bridge,,Ontario,CA,45.6806,-80.1222,ardac
ON635,Bolingbroke,,Ontario,CA,44.7596,-76.5193,ardac
ON636,Bolingbroke Siding,,Ontario,CA,44.7725,-76.5389,ardac
ON637,Bolkow,,Ontario,CA,48.1103,-83.9117,ardac
ON638,Bolsover,,Ontario,CA,44.5302,-79.06,ardac
ON639,Bolton,,Ontario,CA,43.8804,-79.7381,ardac
ON640,Bon Air,,Ontario,CA,46.0169,-80.571,ardac
ON641,Bon Echo,,Ontario,CA,44.8976,-77.1971,ardac
ON642,Bon Secours Beach,,Ontario,CA,44.3306,-79.5317,ardac
ON643,Bona Vista,,Ontario,CA,45.2612,-79.0763,ardac
ON644,Bonarlaw,,Ontario,CA,44.4275,-77.6264,ardac
ON645,Bond Head,,Ontario,CA,44.0892,-79.6767,ardac
ON646,Bond's Corners,,Ontario,CA,43.1403,-80.6992,ardac
ON647,Bondi Village,,Ontario,CA,45.2962,-79.0154,ardac
ON648,Bonfield,,Ontario,CA,46.2322,-79.1454,ardac
ON649,Bongard,,Ontario,CA,44.0513,-76.9577,ardac
ON650,Bongard Corners,,Ontario,CA,44.0561,-76.9279,ardac
ON651,Bonheur,,Ontario,CA,49.3125,-91.33,ardac
ON652,Boninville,,Ontario,CA,46.595,-81.0914,ardac
ON653,Bonnechere,,Ontario,CA,45.6461,-77.5733,ardac
ON654,Bonnie Beach,,Ontario,CA,44.5639,-79.3022,ardac
ON655,Bonville,,Ontario,CA,45.1282,-74.8228,ardac
ON656,Bookton,,Ontario,CA,42.9477,-80.5028,ardac
ON657,Boon,,Ontario,CA,49.3781,-83.9519,ardac
ON658,Booth,,Ontario,CA,46.1942,-79.3306,ardac
ON659,Booth Landing,,Ontario,CA,46.1438,-79.2048,ardac
ON660,Boothville,,Ontario,CA,44.1415,-80.6261,ardac
ON661,Borden,,Ontario,CA,44.2802,-79.8943,ardac
ON662,Borden Farm,,Ontario,CA,45.35,-75.7333,ardac
ON663,Bordenwood,,Ontario,CA,44.7153,-77.0471,ardac
ON664,Bornholm,,Ontario,CA,43.5312,-81.1446,ardac
ON665,Bornish,,Ontario,CA,43.1021,-81.6765,ardac
ON666,Borups Corners,,Ontario,CA,49.5833,-92.3225,ardac
ON667,Boskung,,Ontario,CA,45.0744,-78.7544,ardac
ON668,Boston,,Ontario,CA,43.5536,-79.9164,ardac
ON669,Boston,,Ontario,CA,42.9919,-80.2704,ardac
ON670,Boston Creek,,Ontario,CA,48.0107,-79.9377,ardac
ON671,Boston Mills,,Ontario,CA,43.7694,-79.9258,ardac
ON672,Bosworth,,Ontario,CA,43.7867,-80.6461,ardac
ON673,Botany,,Ontario,CA,42.4917,-81.9847,ardac
ON674,Bothwell,,Ontario,CA,42.6319,-81.87,ardac
ON675,Bothwell Station,,Ontario,CA,42.6446,-81.8959,ardac
ON676,Bothwell's Corner,,Ontario,CA,44.5786,-80.8769,ardac
ON677,Boucks Hill,,Ontario,CA,44.9863,-75.2187,ardac
ON678,Boulter,,Ontario,CA,45.2135,-77.6374,ardac
ON679,Bourdages Corner,,Ontario,CA,46.7286,-84.2967,ardac
ON680,Bourdeau,,Ontario,CA,45.5043,-79.5441,ardac
ON681,Bourget,,Ontario,CA,45.436,-75.1581,ardac
ON682,Bourkes,,Ontario,CA,48.2913,-80.2282,ardac
ON683,Bowen Corner,,Ontario,CA,45.0753,-77.6947,ardac
ON684,Bowermans,,Ontario,CA,44.0085,-77.3646,ardac
ON685,Bowers Beach,,Ontario,CA,44.4817,-80.1469,ardac
ON686,Bowesville,,Ontario,CA,45.324,-75.663,ardac
ON687,Bowker,,Ontario,CA,48.7151,-88.6271,ardac
ON688,Bowling Green,,Ontario,CA,43.9439,-80.2594,ardac
ON689,Bowmanville,,Ontario,CA,43.9114,-78.6875,ardac
ON690,Bowood,,Ontario,CA,43.0808,-81.5303,ardac
ON691,Bowser's Corner,,Ontario,CA,45.8435,-82.2184,ardac
ON692,Box Alder,,Ontario,CA,48.5621,-93.6738,ardac
ON693,Box Grove,,Ontario,CA,43.8581,-79.2306,ardac
ON694,Boyds,,Ontario,CA,45.0908,-76.2531,ardac
ON695,Boyle,,Ontario,CA,43.0196,-79.4121,ardac
ON696,Boyne,,Ontario,CA,43.4872,-79.835,ardac
ON697,Bracebridge,,Ontario,CA,45.0264,-79.19,ardac
ON698,Brackenrig,,Ontario,CA,45.1197,-79.5229,ardac
ON699,Bradburn Subdivision,,Ontario,CA,42.8779,-80.7554,ardac
ON700,Bradens Bay,,Ontario,CA,44.4586,-79.4931,ardac
ON701,Bradford,,Ontario,CA,44.1152,-79.566,ardac
ON702,Bradford West Gwillimbury,,Ontario,CA,44.1374,-79.6173,ardac
ON703,Bradley,,Ontario,CA,44.2429,-81.2991,ardac
ON704,Bradley,,Ontario,CA,42.3415,-82.4128,ardac
ON705,Bradlo,,Ontario,CA,49.6014,-83.6472,ardac
ON706,Bradshaw,,Ontario,CA,44.6765,-76.6446,ardac
ON707,Bradshaw,,Ontario,CA,42.7509,-82.2779,ardac
ON708,Brady Lake,,Ontario,CA,45.0486,-78.8308,ardac
ON709,Braeheid Survey,,Ontario,CA,43.3303,-79.9117,ardac
ON710,Braemar,,Ontario,CA,43.1953,-80.8475,ardac
ON711,Braemar Park,,Ontario,CA,45.3672,-75.756,ardac
ON712,Braeside,,Ontario,CA,45.4628,-76.405,ardac
ON713,Bramalea,,Ontario,CA,43.7251,-79.7174,ardac
ON714,Bramalea Woods,,Ontario,CA,43.7144,-79.735,ardac
ON715,Bramley,,Ontario,CA,44.3179,-79.5935,ardac
ON716,Brampton,,Ontario,CA,43.6883,-79.7608,ardac
ON717,Branchton,,Ontario,CA,43.3098,-80.2607,ardac
ON718,Brandy Point,,Ontario,CA,43.4367,-81.2242,ardac
ON719,Brant Hills,,Ontario,CA,43.3658,-79.8407,ardac
ON720,Brantford,,Ontario,CA,43.1569,-80.2575,ardac
ON721,Braund Port,,Ontario,CA,44.2674,-78.3278,ardac
ON722,Brawny,,Ontario,CA,45.9047,-77.9511,ardac
ON723,Bray Lake,,Ontario,CA,45.8892,-79.4181,ardac
ON724,Breadalbane,,Ontario,CA,45.4731,-74.5875,ardac
ON725,Brechin,,Ontario,CA,44.5472,-79.1769,ardac
ON726,Brechin Beach,,Ontario,CA,44.5316,-79.2041,ardac
ON727,Brechin East,,Ontario,CA,44.5451,-79.1805,ardac
ON728,Brechin Point,,Ontario,CA,44.5357,-79.2086,ardac
ON729,Breezy's Corners,,Ontario,CA,43.3764,-80.0053,ardac
ON730,Bremner,,Ontario,CA,48.6706,-85.4761,ardac
ON731,Brennan Harbour,,Ontario,CA,46.1876,-82.386,ardac
ON732,Brent,,Ontario,CA,46.03,-78.4808,ardac
ON733,Brentha,,Ontario,CA,47.7839,-79.9089,ardac
ON734,Brentwood,,Ontario,CA,44.3454,-79.9381,ardac
ON735,Breslau,,Ontario,CA,43.4753,-80.4125,ardac
ON736,Brethour,,Ontario,CA,47.7264,-79.5664,ardac
ON737,Brewer Lake,,Ontario,CA,44.4017,-76.3275,ardac
ON738,Brewers Mills,,Ontario,CA,44.4181,-76.3039,ardac
ON739,Briargreen,,Ontario,CA,45.3389,-75.78,ardac
ON740,Briars Park,,Ontario,CA,44.3204,-79.3488,ardac
ON741,Brickley,,Ontario,CA,44.2519,-77.9394,ardac
ON742,Bridge End,,Ontario,CA,45.2692,-74.4485,ardac
ON743,Bridgenorth,,Ontario,CA,44.3829,-78.3849,ardac
ON744,Bridgeport,,Ontario,CA,43.4822,-80.4836,ardac
ON745,Bridgeview,,Ontario,CA,42.2983,-83.0518,ardac
ON746,Bridgeview Survey,,Ontario,CA,43.3033,-79.9028,ardac
ON747,Bridlewood,,Ontario,CA,45.2852,-75.8569,ardac
ON748,Brient,,Ontario,CA,47.97,-84.8847,ardac
ON749,Brier Hill,,Ontario,CA,44.5523,-76.1685,ardac
ON750,Brigden,,Ontario,CA,42.8126,-82.2828,ardac
ON751,Bright,,Ontario,CA,43.2697,-80.6567,ardac
ON752,Brighton,,Ontario,CA,44.0406,-77.7376,ardac
ON753,Brighton,,Ontario,CA,44.1222,-77.7642,ardac
ON754,Brighton Beach,,Ontario,CA,42.2744,-83.0894,ardac
ON755,Brighton Beach,,Ontario,CA,44.2832,-79.4895,ardac
ON756,Brights Grove,,Ontario,CA,43.0308,-82.2521,ardac
ON757,Brightside,,Ontario,CA,45.1211,-76.4944,ardac
ON758,Brignall,,Ontario,CA,45.2558,-79.8442,ardac
ON759,Brimstone,,Ontario,CA,43.8079,-80.0,ardac
ON760,Brindle Crossing,,Ontario,CA,45.9311,-77.3353,ardac
ON761,Brinka,,Ontario,CA,50.0032,-94.3067,ardac
ON762,Brinklow,,Ontario,CA,44.8975,-77.6988,ardac
ON763,Brinkman's Corners,,Ontario,CA,45.1453,-81.3943,ardac
ON764,Brinsley,,Ontario,CA,43.2081,-81.5314,ardac
ON765,Brinston,,Ontario,CA,44.9397,-75.3594,ardac
ON766,Brisbane,,Ontario,CA,43.7444,-80.0775,ardac
ON767,Brisson,,Ontario,CA,45.2986,-75.3261,ardac
ON768,Britainville,,Ontario,CA,45.7328,-82.4019,ardac
ON769,Britannia,,Ontario,CA,45.2961,-79.0744,ardac
ON770,Britannia,,Ontario,CA,45.363,-75.7943,ardac
ON771,Britannia,,Ontario,CA,43.6253,-79.6791,ardac
ON772,Britannia Bay,,Ontario,CA,45.3688,-75.7998,ardac
ON773,Britannia Heights,,Ontario,CA,45.3608,-75.7883,ardac
ON774,Britannia Road,,Ontario,CA,45.2713,-79.1778,ardac
ON775,Britt,,Ontario,CA,45.7732,-80.5565,ardac
ON776,Britt Station,,Ontario,CA,45.7928,-80.5403,ardac
ON777,Britton,,Ontario,CA,43.6778,-80.9247,ardac
ON778,Broadbent,,Ontario,CA,45.4469,-79.8356,ardac
ON779,Broadview Gardens,,Ontario,CA,46.5411,-84.3872,ardac
ON780,Brock Gardens,,Ontario,CA,43.2911,-80.0003,ardac
ON781,Brock Road,,Ontario,CA,43.8817,-79.0878,ardac
ON782,Brockley,,Ontario,CA,42.9156,-81.1967,ardac
ON783,Brocks Beach,,Ontario,CA,44.4672,-80.1058,ardac
ON784,Brocksden,,Ontario,CA,43.3881,-80.8869,ardac
ON785,Brockville,,Ontario,CA,44.5973,-75.6855,ardac
ON786,Brodhagen,,Ontario,CA,43.5603,-81.2094,ardac
ON787,Brodie,,Ontario,CA,45.4192,-74.5533,ardac
ON788,Brodie,,Ontario,CA,46.4894,-80.9711,ardac
ON789,Bromley,,Ontario,CA,45.5396,-76.884,ardac
ON790,Bronson,,Ontario,CA,45.0642,-77.7889,ardac
ON791,Bronson Station,,Ontario,CA,45.0386,-77.7914,ardac
ON792,Bronte,,Ontario,CA,43.3894,-79.7178,ardac
ON793,Bronte Station,,Ontario,CA,43.4053,-79.7317,ardac
ON794,Brooke,,Ontario,CA,44.5847,-80.9694,ardac
ON795,Brooke,,Ontario,CA,44.8561,-76.4306,ardac
ON796,Brookfield,,Ontario,CA,46.5328,-84.3908,ardac
ON797,Brookfield,,Ontario,CA,42.9607,-79.1606,ardac
ON798,Brooklin,,Ontario,CA,43.9583,-78.9597,ardac
ON799,Brooks Landing,,Ontario,CA,45.4327,-80.3365,ardac
ON800,Brooks Mill,,Ontario,CA,45.4222,-79.0172,ardac
ON801,Brooksdale,,Ontario,CA,43.2272,-80.9367,ardac
ON802,Brookside,,Ontario,CA,43.9786,-78.0828,ardac
ON803,Brookville,,Ontario,CA,43.5317,-80.0456,ardac
ON804,Brotherston,,Ontario,CA,43.8193,-80.9622,ardac
ON805,Brougham,,Ontario,CA,43.9183,-79.1072,ardac
ON806,Broughdale,,Ontario,CA,43.0096,-81.2598,ardac
ON807,Broulan Reef,,Ontario,CA,48.514,-81.1393,ardac
ON808,Brouseville,,Ontario,CA,44.8313,-75.4223,ardac
ON809,Brower,,Ontario,CA,49.0154,-80.8326,ardac
ON810,Brown Hill,,Ontario,CA,44.2226,-79.3294,ardac
ON811,Brown House Corner,,Ontario,CA,45.2233,-74.5669,ardac
ON812,Brown's Corners,,Ontario,CA,42.9298,-80.5815,ardac
ON813,Brown's Corners,,Ontario,CA,43.8497,-79.3586,ardac
ON814,Brown's Corners,,Ontario,CA,43.1812,-81.0887,ardac
ON815,Browning Island,,Ontario,CA,44.9998,-79.4066,ardac
ON816,Brownrigg,,Ontario,CA,49.6819,-81.5219,ardac
ON817,Browns Brae,,Ontario,CA,45.2127,-79.03,ardac
ON818,Browns Corners,,Ontario,CA,43.8124,-79.2468,ardac
ON819,Brownsville,,Ontario,CA,42.8617,-80.8394,ardac
ON820,Brownsville Station,,Ontario,CA,42.8554,-80.8371,ardac
ON821,Bruce Farm,,Ontario,CA,45.3333,-75.8,ardac
ON822,Bruce Lake,,Ontario,CA,50.8161,-93.3896,ardac
ON823,Bruce Mines,,Ontario,CA,46.301,-83.7947,ardac
ON824,Bruce Station,,Ontario,CA,46.3168,-83.7676,ardac
ON825,Brucedale,,Ontario,CA,43.6478,-80.1864,ardac
ON826,Brucefield,,Ontario,CA,43.5257,-81.5177,ardac
ON827,Bruces,,Ontario,CA,43.2743,-80.252,ardac
ON828,Bruceton,,Ontario,CA,45.2166,-77.3902,ardac
ON829,Brudenell,,Ontario,CA,45.4446,-77.3966,ardac
ON830,Brumsfield,,Ontario,CA,45.8172,-77.1353,ardac
ON831,Brunetville,,Ontario,CA,49.4197,-82.4067,ardac
ON832,Brunner,,Ontario,CA,43.5204,-80.9224,ardac
ON833,Brunswick,,Ontario,CA,44.2071,-78.5802,ardac
ON834,Brussels,,Ontario,CA,43.7428,-81.2508,ardac
ON835,Bryanston,,Ontario,CA,43.1256,-81.2692,ardac
ON836,Buchanan,,Ontario,CA,43.2347,-79.8936,ardac
ON837,Buck Lake,,Ontario,CA,44.5253,-76.4547,ardac
ON838,Buckham's Bay,,Ontario,CA,45.4978,-76.1008,ardac
ON839,Buckhorn,,Ontario,CA,44.553,-78.3511,ardac
ON840,Buckley,,Ontario,CA,46.5336,-84.3692,ardac
ON841,Buckskin,,Ontario,CA,44.8656,-79.6,ardac
ON842,Bucyrus,,Ontario,CA,46.9243,-84.2068,ardac
ON843,Buda,,Ontario,CA,48.6639,-89.8153,ardac
ON844,Budd Mills,,Ontario,CA,45.6373,-77.2551,ardac
ON845,Buena Vista Park,,Ontario,CA,44.7063,-79.386,ardac
ON846,Buffalo Heights,,Ontario,CA,42.8906,-78.9921,ardac
ON847,Buffalo Rock,,Ontario,CA,47.0143,-79.3665,ardac
ON848,Buffalo-Ankerite,,Ontario,CA,48.439,-81.2693,ardac
ON849,Bulgers Corners,,Ontario,CA,45.5936,-77.0219,ardac
ON850,Buller,,Ontario,CA,44.4492,-77.3731,ardac
ON851,Buller,,Ontario,CA,44.7968,-78.7537,ardac
ON852,Buller Siding,,Ontario,CA,44.4483,-77.3756,ardac
ON853,Bullock,,Ontario,CA,45.1039,-76.47,ardac
ON854,Bullocks Corners,,Ontario,CA,43.2785,-79.9857,ardac
ON855,Bummers' Roost,,Ontario,CA,45.8158,-79.6256,ardac
ON856,Bunessan,,Ontario,CA,44.1908,-80.7153,ardac
ON857,Bunker Hill,,Ontario,CA,45.0453,-75.0239,ardac
ON858,Bunyan,,Ontario,CA,42.9344,-82.2789,ardac
ON859,Bur Creek,,Ontario,CA,44.2969,-76.5603,ardac
ON860,Burchell Lake,,Ontario,CA,48.6032,-90.591,ardac
ON861,Burditt Lake,,Ontario,CA,48.9232,-93.8042,ardac
ON862,Burford,,Ontario,CA,43.1031,-80.4294,ardac
ON863,Burgess Mines,,Ontario,CA,45.2656,-77.7,ardac
ON864,Burgessville,,Ontario,CA,43.0247,-80.6533,ardac
ON865,Burgoyne,,Ontario,CA,44.4385,-81.3174,ardac
ON866,Burk's Falls,,Ontario,CA,45.6292,-79.4032,ardac
ON867,Burke Settlement,,Ontario,CA,44.8592,-76.7303,ardac
ON868,Burketon Station,,Ontario,CA,44.0537,-78.7931,ardac
ON869,Burleigh Falls,,Ontario,CA,44.5615,-78.2137,ardac
ON870,Burlington,,Ontario,CA,43.3701,-79.814,ardac
ON871,Burlington Beach,,Ontario,CA,43.3089,-79.8014,ardac
ON872,Burnaby,,Ontario,CA,42.8692,-79.3536,ardac
ON873,Burnbrae,,Ontario,CA,44.3224,-77.7079,ardac
ON874,Burnhamthorpe,,Ontario,CA,43.6231,-79.5931,ardac
ON875,Burnley,,Ontario,CA,44.1597,-78.0031,ardac
ON876,Burns,,Ontario,CA,43.6324,-80.8443,ardac
ON877,Burnside,,Ontario,CA,44.7526,-79.5187,ardac
ON878,Burnstown,,Ontario,CA,45.3878,-76.5794,ardac
ON879,Burnt Hills,,Ontario,CA,44.4542,-76.3044,ardac
ON880,Burnt Island,,Ontario,CA,45.8203,-82.9492,ardac
ON881,Burnt River,,Ontario,CA,44.675,-78.6978,ardac
ON882,Burpee,,Ontario,CA,45.7842,-82.5703,ardac
ON883,Burr,,Ontario,CA,44.0422,-77.38,ardac
ON884,Burridge,,Ontario,CA,44.6575,-76.5422,ardac
ON885,Burriss,,Ontario,CA,48.6786,-93.6721,ardac
ON886,Burritts Rapids,,Ontario,CA,44.9811,-75.7972,ardac
ON887,Burtch,,Ontario,CA,43.0611,-80.2674,ardac
ON888,Burton,,Ontario,CA,44.1285,-78.732,ardac
ON889,Burton,,Ontario,CA,45.7144,-80.2094,ardac
ON890,Burwash,,Ontario,CA,46.2394,-80.8508,ardac
ON891,Burys Green,,Ontario,CA,44.61,-78.6706,ardac
ON892,Bush Glen,,Ontario,CA,45.0442,-75.0978,ardac
ON893,Bushnell,,Ontario,CA,46.8044,-79.5744,ardac
ON894,Buskegau,,Ontario,CA,49.0944,-81.2,ardac
ON895,Busteed,,Ontario,CA,49.7544,-94.7722,ardac
ON896,Busy Bee Corners,,Ontario,CA,42.0984,-83.0349,ardac
ON897,Butler,,Ontario,CA,49.4645,-91.8169,ardac
ON898,Buttermilk Falls,,Ontario,CA,45.0969,-78.7458,ardac
ON899,Butternut Bay,,Ontario,CA,44.5199,-75.7807,ardac
ON900,Button's Corners,,Ontario,CA,47.4656,-79.8024,ardac
ON901,Buttonville,,Ontario,CA,43.8643,-79.3625,ardac
ON902,Buzwah,,Ontario,CA,45.7523,-81.782,ardac
ON903,Byersville,,Ontario,CA,44.2866,-78.3505,ardac
ON904,Byng,,Ontario,CA,42.8929,-79.6266,ardac
ON905,Byng Inlet,,Ontario,CA,45.7691,-80.5532,ardac
ON906,Byrnedale,,Ontario,CA,42.2466,-82.6696,ardac
ON907,Byron,,Ontario,CA,42.954,-81.3323,ardac
ON908,Cabbagetown,,Ontario,CA,43.6633,-79.3656,ardac
ON909,Cache Bay,,Ontario,CA,46.3734,-79.9896,ardac
ON910,Cachet,,Ontario,CA,43.8883,-79.345,ardac
ON911,Caderette,,Ontario,CA,46.3795,-80.0388,ardac
ON912,Cadmus,,Ontario,CA,44.1199,-78.7692,ardac
ON913,Caesarea,,Ontario,CA,44.1586,-78.8317,ardac
ON914,Cahore,,Ontario,CA,45.1781,-75.1947,ardac
ON915,Cainsville,,Ontario,CA,43.1453,-80.1966,ardac
ON916,Caintown,,Ontario,CA,44.5253,-75.8856,ardac
ON917,Cairngorm,,Ontario,CA,42.9038,-81.6697,ardac
ON918,Cairo,,Ontario,CA,42.7061,-81.8969,ardac
ON919,Caistor Centre,,Ontario,CA,43.0707,-79.6515,ardac
ON920,Caistorville,,Ontario,CA,43.0511,-79.7153,ardac
ON921,Calabogie,,Ontario,CA,45.3047,-76.7169,ardac
ON922,Calamity Corners,,Ontario,CA,43.0264,-81.2821,ardac
ON923,Calderwood,,Ontario,CA,44.0192,-80.8683,ardac
ON924,Caledon,,Ontario,CA,43.8661,-79.859,ardac
ON925,Caledon East,,Ontario,CA,43.8694,-79.8667,ardac
ON926,Caledon Village,,Ontario,CA,43.8625,-79.9946,ardac
ON927,Caledonia,,Ontario,CA,43.0711,-79.9536,ardac
ON928,Caledonia Front,,Ontario,CA,45.5411,-74.7275,ardac
ON929,Caledonia Springs,,Ontario,CA,45.5431,-74.8017,ardac
ON930,California,,Ontario,CA,44.545,-76.2761,ardac
ON931,California,,Ontario,CA,45.2193,-76.4877,ardac
ON932,Caliper Lake,,Ontario,CA,49.0603,-93.8947,ardac
ON933,Callander,,Ontario,CA,46.2234,-79.3646,ardac
ON934,Callum,,Ontario,CA,46.5155,-80.6276,ardac
ON935,Calm Lake,,Ontario,CA,48.7497,-92.1742,ardac
ON936,Calong,,Ontario,CA,49.7706,-86.5336,ardac
ON937,Calstock,,Ontario,CA,49.7881,-84.1382,ardac
ON938,Calton,,Ontario,CA,42.7114,-80.8594,ardac
ON939,Calvin Park,,Ontario,CA,44.2328,-76.5241,ardac
ON940,Camborne,,Ontario,CA,44.0372,-78.2194,ardac
ON941,Cambray,,Ontario,CA,44.4087,-78.8321,ardac
ON942,Cambrian Heights,,Ontario,CA,46.5114,-80.9983,ardac
ON943,Cambridge,,Ontario,CA,43.3972,-80.3114,ardac
ON944,Cambridge Forest Estates,,Ontario,CA,45.3578,-75.2524,ardac
ON945,Camden East,,Ontario,CA,44.335,-76.8319,ardac
ON946,Camel Chute,,Ontario,CA,45.1897,-77.1144,ardac
ON947,Camelot Beach,,Ontario,CA,42.8797,-79.3025,ardac
ON948,Cameron,,Ontario,CA,44.44,-78.7739,ardac
ON949,Cameron,,Ontario,CA,44.3258,-78.0944,ardac
ON950,Cameron Falls,,Ontario,CA,49.1524,-88.3455,ardac
ON951,Camerons Point,,Ontario,CA,45.0761,-74.5328,ardac
ON952,Camilla,,Ontario,CA,43.9996,-80.1165,ardac
ON953,Camlachie,,Ontario,CA,43.0365,-82.1629,ardac
ON954,Camp Acouchiching,,Ontario,CA,46.8553,-80.0714,ardac
ON955,Camp Agamik,,Ontario,CA,46.98,-80.0243,ardac
ON956,Camp Bigwee,,Ontario,CA,47.0125,-80.1147,ardac
ON957,Camp Cayuga,,Ontario,CA,47.0061,-80.1142,ardac
ON958,Camp Champlain,,Ontario,CA,46.3223,-79.2949,ardac
ON959,Camp Chimo,,Ontario,CA,46.9217,-80.0825,ardac
ON960,Camp Cochrane,,Ontario,CA,46.9003,-80.0767,ardac
ON961,Camp Kagawong,,Ontario,CA,44.55,-78.8294,ardac
ON962,Camp Kenda,,Ontario,CA,47.8344,-81.8786,ardac
ON963,Camp Kenogaming,,Ontario,CA,47.9703,-81.9436,ardac
ON964,Camp Ketchini,,Ontario,CA,47.8605,-81.8965,ardac
ON965,Camp Oconto,,Ontario,CA,44.6963,-76.6853,ardac
ON966,Camp Robinson,,Ontario,CA,50.1305,-93.221,ardac
ON967,Camp Wanapitei,,Ontario,CA,47.1631,-80.065,ardac
ON968,Camp White Bear,,Ontario,CA,46.8753,-80.1443,ardac
ON969,Camp Wigwasati,,Ontario,CA,46.9228,-80.1122,ardac
ON970,Campania,,Ontario,CA,43.9896,-80.3035,ardac
ON971,Campbell Maxwell Front,,Ontario,CA,44.3094,-76.2464,ardac
ON972,Campbellcroft,,Ontario,CA,44.0647,-78.3736,ardac
ON973,Campbellford,,Ontario,CA,44.3087,-77.7949,ardac
ON974,Campbells Beach,,Ontario,CA,44.615,-79.1172,ardac
ON975,Campbells Corners,,Ontario,CA,44.9082,-75.5626,ardac
ON976,Campbells Cross,,Ontario,CA,43.7838,-79.8668,ardac
ON977,Campbellton,,Ontario,CA,42.681,-81.5843,ardac
ON978,Campbelltown,,Ontario,CA,44.2169,-78.2331,ardac
ON979,Campbellville,,Ontario,CA,43.4881,-79.9822,ardac
ON980,Campden,,Ontario,CA,43.135,-79.4342,ardac
ON981,Camperdown,,Ontario,CA,44.5391,-80.4024,ardac
ON982,Canaan,,Ontario,CA,45.4507,-75.2927,ardac
ON983,Canal,,Ontario,CA,45.3382,-79.1355,ardac
ON984,Canborough,,Ontario,CA,42.9935,-79.6768,ardac
ON985,Candyville,,Ontario,CA,42.694,-80.9851,ardac
ON986,Cane,,Ontario,CA,47.6297,-80.0613,ardac
ON987,Canfield,,Ontario,CA,42.9753,-79.7514,ardac
ON988,Canfield Junction,,Ontario,CA,42.9673,-79.7336,ardac
ON989,Cankerville,,Ontario,CA,44.0604,-77.7609,ardac
ON990,Cannamore,,Ontario,CA,45.1982,-75.2419,ardac
ON991,Cannifton,,Ontario,CA,44.2006,-77.3917,ardac
ON992,Canning,,Ontario,CA,43.1958,-80.4681,ardac
ON993,Cannington,,Ontario,CA,44.3494,-79.0408,ardac
ON994,Canoe Lake,,Ontario,CA,45.5783,-78.7281,ardac
ON995,Canonto,,Ontario,CA,45.0619,-76.775,ardac
ON996,Canton,,Ontario,CA,43.9976,-78.351,ardac
ON997,Canyon,,Ontario,CA,49.98,-93.7415,ardac
ON998,Canyon,,Ontario,CA,47.4246,-84.4838,ardac
ON999,Cape Chin,,Ontario,CA,45.0645,-81.3173,ardac
ON1000,Cape Chin North,,Ontario,CA,45.1242,-81.3192,ardac
ON1001,Cape Chin South,,Ontario,CA,45.1067,-81.2807,ardac
ON1002,Cape Croker,,Ontario,CA,44.9229,-81.0201,ardac
ON1003,Capreol,,Ontario,CA,46.7044,-80.9189,ardac
ON1004,Caradoc,,Ontario,CA,42.9174,-81.5207,ardac
ON1005,Caramat,,Ontario,CA,49.6182,-86.1279,ardac
ON1006,Cardiff,,Ontario,CA,44.9994,-78.0137,ardac
ON1007,Cardinal,,Ontario,CA,44.7906,-75.3824,ardac
ON1008,Cardinal Heights,,Ontario,CA,45.4408,-75.6094,ardac
ON1009,Cardwell,,Ontario,CA,43.9761,-80.0987,ardac
ON1010,Cargill,,Ontario,CA,44.196,-81.2468,ardac
ON1011,Cargill Siding,,Ontario,CA,44.1972,-81.2358,ardac
ON1012,Carholme,,Ontario,CA,42.7381,-80.5222,ardac
ON1013,Caribou Falls,,Ontario,CA,50.2632,-94.9682,ardac
ON1014,Carleton Heights,,Ontario,CA,45.3586,-75.7074,ardac
ON1015,Carleton Place,,Ontario,CA,45.1381,-76.1422,ardac
ON1016,Carleton Square,,Ontario,CA,45.3667,-75.7167,ardac
ON1017,Carley,,Ontario,CA,44.6071,-79.6353,ardac
ON1018,Carleys Corner,,Ontario,CA,44.8651,-75.8086,ardac
ON1019,Carling,,Ontario,CA,45.4072,-80.166,ardac
ON1020,Carlingford,,Ontario,CA,43.3824,-81.1521,ardac
ON1021,Carlington,,Ontario,CA,45.3787,-75.7314,ardac
ON1022,Carlingwood,,Ontario,CA,45.3761,-75.7692,ardac
ON1023,Carlisle,,Ontario,CA,43.1289,-81.4833,ardac
ON1024,Carlisle,,Ontario,CA,43.3947,-79.9806,ardac
ON1025,Carlow,,Ontario,CA,43.7765,-81.6295,ardac
ON1026,Carlsbad Springs,,Ontario,CA,45.3691,-75.4562,ardac
ON1027,Carlsruhe,,Ontario,CA,44.1097,-81.0458,ardac
ON1028,Carlton Park,,Ontario,CA,43.1928,-79.2125,ardac
ON1029,Carluke,,Ontario,CA,43.1456,-79.986,ardac
ON1030,Carlyon,,Ontario,CA,44.7243,-79.4974,ardac
ON1031,Carman,,Ontario,CA,44.1141,-77.7243,ardac
ON1032,Carmel,,Ontario,CA,44.0908,-77.9961,ardac
ON1033,Carmel,,Ontario,CA,44.1128,-78.4267,ardac
ON1034,Carmunnock,,Ontario,CA,43.6092,-81.1367,ardac
ON1035,Carnarvon,,Ontario,CA,45.0511,-78.6983,ardac
ON1036,Carnegie Beach,,Ontario,CA,44.1993,-78.8607,ardac
ON1037,Carol Richard Park,,Ontario,CA,46.6236,-81.0122,ardac
ON1038,Caroline Village,,Ontario,CA,44.8978,-76.2553,ardac
ON1039,Carp,,Ontario,CA,45.3453,-76.0372,ardac
ON1040,Carpin Beach,,Ontario,CA,46.5003,-84.4564,ardac
ON1041,Carr,,Ontario,CA,46.0146,-79.6639,ardac
ON1042,Carr's Landing,,Ontario,CA,46.6605,-80.7604,ardac
ON1043,Carrville,,Ontario,CA,43.8472,-79.4592,ardac
ON1044,Carry,,Ontario,CA,48.2194,-84.0678,ardac
ON1045,Carrying Place,,Ontario,CA,44.0486,-77.5803,ardac
ON1046,Carson,,Ontario,CA,46.1643,-81.7436,ardac
ON1047,Carson Grove,,Ontario,CA,45.4347,-75.6229,ardac
ON1048,Carsonby,,Ontario,CA,45.1731,-75.7172,ardac
ON1049,Carss,,Ontario,CA,45.6548,-79.3993,ardac
ON1050,Carters Corners,,Ontario,CA,48.3815,-89.4718,ardac
ON1051,Carterton,,Ontario,CA,46.1979,-83.9555,ardac
ON1052,Carthage,,Ontario,CA,43.6614,-80.85,ardac
ON1053,Carthew Bay,,Ontario,CA,44.5269,-79.429,ardac
ON1054,Cartier,,Ontario,CA,46.7065,-81.554,ardac
ON1055,Cashel,,Ontario,CA,43.9156,-79.3225,ardac
ON1056,Cashions Glen,,Ontario,CA,45.1032,-74.6854,ardac
ON1057,Cashtown Corners,,Ontario,CA,44.3372,-80.0789,ardac
ON1058,Casimir,,Ontario,CA,46.3365,-80.4099,ardac
ON1059,Cass Bridge,,Ontario,CA,45.0495,-75.3188,ardac
ON1060,Cassburn,,Ontario,CA,45.5858,-74.7008,ardac
ON1061,Cassel,,Ontario,CA,43.2817,-80.7647,ardac
ON1062,Casselman,,Ontario,CA,45.3115,-75.0857,ardac
ON1063,Castile,,Ontario,CA,45.493,-77.3224,ardac
ON1064,Castle Glen Estates,,Ontario,CA,44.4631,-80.3258,ardac
ON1065,Castle Green,,Ontario,CA,43.4619,-79.6964,ardac
ON1066,Castle Heights,,Ontario,CA,45.4321,-75.6432,ardac
ON1067,Castlederg,,Ontario,CA,43.9178,-79.7669,ardac
ON1068,Castleford,,Ontario,CA,45.5244,-76.5857,ardac
ON1069,Castlemore,,Ontario,CA,43.791,-79.6897,ardac
ON1070,Castleton,,Ontario,CA,44.0932,-77.9387,ardac
ON1071,Casummit Lake,,Ontario,CA,51.4827,-92.356,ardac
ON1072,Caswell's Beach,,Ontario,CA,44.7417,-79.75,ardac
ON1073,Cat Lake,,Ontario,CA,51.7211,-91.8216,ardac
ON1074,Cataract,,Ontario,CA,43.8239,-80.0228,ardac
ON1075,Cataraqui,,Ontario,CA,44.2577,-76.546,ardac
ON1076,Catchacoma,,Ontario,CA,44.7403,-78.3325,ardac
ON1077,Cathcart,,Ontario,CA,43.1016,-80.5285,ardac
ON1078,Cavan,,Ontario,CA,44.2,-78.4692,ardac
ON1079,Cavan Station,,Ontario,CA,44.2082,-78.4465,ardac
ON1080,Cavell,,Ontario,CA,50.2294,-87.0189,ardac
ON1081,Caverlys Landing,,Ontario,CA,45.0731,-77.4564,ardac
ON1082,Cavers,,Ontario,CA,48.9025,-87.6942,ardac
ON1083,Cawaja Beach,,Ontario,CA,44.7107,-79.9955,ardac
ON1084,Cayuga,,Ontario,CA,42.9507,-79.8562,ardac
ON1085,Cecebe,,Ontario,CA,45.6439,-79.5497,ardac
ON1086,Cedar Bay,,Ontario,CA,42.8753,-79.1792,ardac
ON1087,Cedar Beach,,Ontario,CA,42.0057,-82.7947,ardac
ON1088,Cedar Beach,,Ontario,CA,44.426,-79.1685,ardac
ON1089,Cedar Beach,,Ontario,CA,45.8242,-77.0844,ardac
ON1090,Cedar Creek,,Ontario,CA,44.1044,-77.7647,ardac
ON1091,Cedar Croft,,Ontario,CA,45.6426,-79.7132,ardac
ON1092,Cedar Dale,,Ontario,CA,43.8785,-78.8414,ardac
ON1093,Cedar Glen,,Ontario,CA,44.4919,-78.6358,ardac
ON1094,Cedar Grove,,Ontario,CA,44.9972,-75.0556,ardac
ON1095,Cedar Grove,,Ontario,CA,43.8579,-79.2036,ardac
ON1096,Cedar Harbour,,Ontario,CA,44.3167,-79.5327,ardac
ON1097,Cedar Heights,,Ontario,CA,46.5447,-84.3117,ardac
ON1098,Cedar Hill,,Ontario,CA,45.2714,-76.3139,ardac
ON1099,Cedar Lake,,Ontario,CA,44.42,-76.4036,ardac
ON1100,Cedar Mills,,Ontario,CA,43.9269,-79.8031,ardac
ON1101,Cedar Mount,,Ontario,CA,44.3921,-79.554,ardac
ON1102,Cedar Nook,,Ontario,CA,44.9114,-79.7553,ardac
ON1103,Cedar Point,,Ontario,CA,44.8106,-80.115,ardac
ON1104,Cedar Point,,Ontario,CA,43.1391,-82.0604,ardac
ON1105,Cedar Shores,,Ontario,CA,44.1362,-78.9176,ardac
ON1106,Cedar Springs,,Ontario,CA,43.4157,-79.9204,ardac
ON1107,Cedar Springs,,Ontario,CA,42.2807,-82.0309,ardac
ON1108,Cedar Valley,,Ontario,CA,44.0642,-79.3544,ardac
ON1109,Cedar Valley,,Ontario,CA,43.7682,-80.1621,ardac
ON1110,Cedar Valley,,Ontario,CA,44.1764,-78.4081,ardac
ON1111,Cedar Village,,Ontario,CA,45.0516,-79.3892,ardac
ON1112,Cedarbrae,,Ontario,CA,44.247,-79.2843,ardac
ON1113,Cedardale,,Ontario,CA,45.3167,-75.7,ardac
ON1114,Cedardale,,Ontario,CA,45.1131,-76.4617,ardac
ON1115,Cedarhurst Beach,,Ontario,CA,44.4011,-79.1706,ardac
ON1116,Cedarhurst Park,,Ontario,CA,42.0145,-82.7821,ardac
ON1117,Cedarmont Beach,,Ontario,CA,44.5418,-79.4084,ardac
ON1118,Cedarvale,,Ontario,CA,43.6931,-79.4292,ardac
ON1119,Cedarville,,Ontario,CA,43.9961,-79.8769,ardac
ON1120,Cedarville,,Ontario,CA,44.0358,-80.5706,ardac
ON1121,Centennial,,Ontario,CA,43.7839,-79.1574,ardac
ON1122,Central,,Ontario,CA,43.2644,-79.8753,ardac
ON1123,Central Park,,Ontario,CA,45.3688,-75.7367,ardac
ON1124,Central Patricia,,Ontario,CA,51.4809,-90.1614,ardac
ON1125,Centralia,,Ontario,CA,43.2841,-81.4732,ardac
ON1126,Centre,,Ontario,CA,44.0814,-77.4242,ardac
ON1127,Centre Dummer,,Ontario,CA,44.4725,-78.0219,ardac
ON1128,Centre Inn,,Ontario,CA,43.6386,-80.1967,ardac
ON1129,Centre Lake Junction,,Ontario,CA,45.9283,-77.5017,ardac
ON1130,Centre-ville,,Ontario,CA,45.4153,-75.6964,ardac
ON1131,Centrefield,,Ontario,CA,45.5217,-75.0356,ardac
ON1132,Centrepointe,,Ontario,CA,45.3397,-75.7662,ardac
ON1133,Centreton,,Ontario,CA,44.0839,-78.0422,ardac
ON1134,Centretown,,Ontario,CA,45.4153,-75.6964,ardac
ON1135,Centreview,,Ontario,CA,45.3636,-77.7406,ardac
ON1136,Centreville,,Ontario,CA,44.4067,-76.905,ardac
ON1137,Centreville,,Ontario,CA,44.9508,-81.2778,ardac
ON1138,Centreville,,Ontario,CA,43.0564,-80.8589,ardac
ON1139,Centreville,,Ontario,CA,43.4312,-80.4287,ardac
ON1140,Centreville,,Ontario,CA,44.6228,-80.6178,ardac
ON1141,Centurion,,Ontario,CA,45.4057,-79.3174,ardac
ON1142,Ceylon,,Ontario,CA,44.243,-80.5732,ardac
ON1143,Chaffeys Locks,,Ontario,CA,44.5808,-76.3172,ardac
ON1144,Chalk River,,Ontario,CA,46.018,-77.453,ardac
ON1145,Chamberlain,,Ontario,CA,47.8567,-79.905,ardac
ON1146,Chambers Corners,,Ontario,CA,42.9446,-79.3789,ardac
ON1147,Champlain Park,,Ontario,CA,45.4028,-75.7459,ardac
ON1148,Champlain Park,,Ontario,CA,46.2483,-79.4233,ardac
ON1149,Chandos Lake,,Ontario,CA,44.7941,-78.0498,ardac
ON1150,Chantler,,Ontario,CA,43.0039,-79.3261,ardac
ON1151,Chantry,,Ontario,CA,44.6755,-76.101,ardac
ON1152,Chapleau,,Ontario,CA,47.8439,-83.4004,ardac
ON1153,Chapman,,Ontario,CA,44.4388,-77.3092,ardac
ON1154,Chapman's Landing,,Ontario,CA,46.1069,-79.5344,ardac
ON1155,Chaput Hughes,,Ontario,CA,48.1428,-80.0608,ardac
ON1156,Charing Cross,,Ontario,CA,42.3325,-82.0978,ardac
ON1157,Charlemont,,Ontario,CA,42.6403,-82.2822,ardac
ON1158,Charleston,,Ontario,CA,44.5753,-75.9972,ardac
ON1159,Charleville,,Ontario,CA,44.7515,-75.6129,ardac
ON1160,Charlton,,Ontario,CA,47.8101,-80.0047,ardac
ON1161,Charlton and Dack,,Ontario,CA,47.7961,-79.9533,ardac
ON1162,Charnwood,,Ontario,CA,43.4592,-79.66,ardac
ON1163,Chartrand Corner,,Ontario,CA,46.1363,-80.3794,ardac
ON1164,Chase Corners,,Ontario,CA,44.4703,-77.8114,ardac
ON1165,Chatham,,Ontario,CA,42.3999,-82.1898,ardac
ON1166,Chatham-Kent,,Ontario,CA,42.434,-82.1288,ardac
ON1167,Chats Haven,,Ontario,CA,45.4349,-76.3429,ardac
ON1168,Chatsworth,,Ontario,CA,44.4539,-80.895,ardac
ON1169,Chatterton,,Ontario,CA,44.2461,-77.4786,ardac
ON1170,Cheapside,,Ontario,CA,42.8392,-79.9814,ardac
ON1171,Cheddar,,Ontario,CA,44.9864,-78.1318,ardac
ON1172,Chedoke Park,,Ontario,CA,43.2496,-79.9108,ardac
ON1173,Cheeseborough,,Ontario,CA,44.36,-76.1797,ardac
ON1174,Chelmsford,,Ontario,CA,46.5786,-81.1969,ardac
ON1175,Chelsea Green,,Ontario,CA,42.9679,-81.2126,ardac
ON1176,Cheltenham,,Ontario,CA,43.7521,-79.9212,ardac
ON1177,Cheminis,,Ontario,CA,48.1629,-79.5252,ardac
ON1178,Chemong Heights,,Ontario,CA,44.3954,-78.3762,ardac
ON1179,Chemong Park,,Ontario,CA,44.3747,-78.3882,ardac
ON1180,Chenaux,,Ontario,CA,45.5722,-76.7164,ardac
ON1181,Cheney,,Ontario,CA,45.4134,-75.2432,ardac
ON1182,Chepstow,,Ontario,CA,44.154,-81.2764,ardac
ON1183,Cherry,,Ontario,CA,43.9704,-79.4736,ardac
ON1184,Cherry Grove,,Ontario,CA,43.1839,-81.1808,ardac
ON1185,Cherry Heights,,Ontario,CA,43.2154,-79.7448,ardac
ON1186,Cherry Lane Estates,,Ontario,CA,42.0306,-82.5954,ardac
ON1187,Cherry Valley,,Ontario,CA,43.9371,-77.1518,ardac
ON1188,Cherrywood,,Ontario,CA,43.8539,-79.1439,ardac
ON1189,Cherrywood Acres,,Ontario,CA,43.1085,-79.1024,ardac
ON1190,Cherrywood Station,,Ontario,CA,43.8467,-79.1281,ardac
ON1191,Chesley,,Ontario,CA,44.2976,-81.095,ardac
ON1192,Chesterfield,,Ontario,CA,43.2953,-80.6672,ardac
ON1193,Chesterville,,Ontario,CA,45.1036,-75.2311,ardac
ON1194,Chestnut Hills,,Ontario,CA,43.6597,-79.5231,ardac
ON1195,Chetwynd,,Ontario,CA,45.6207,-79.3219,ardac
ON1196,Chikopi,,Ontario,CA,45.6542,-79.7122,ardac
ON1197,Childs Mines,,Ontario,CA,45.0768,-77.6142,ardac
ON1198,Chippawa,,Ontario,CA,43.0558,-79.0469,ardac
ON1199,Chippawa Hill,,Ontario,CA,44.5134,-81.3336,ardac
ON1200,Chippewa,,Ontario,CA,44.4974,-76.8264,ardac
ON1201,Chiselhurst,,Ontario,CA,43.4398,-81.4302,ardac
ON1202,Chisholm's Mills,,Ontario,CA,44.3536,-77.3097,ardac
ON1203,Chiswick,,Ontario,CA,46.1142,-79.1807,ardac
ON1204,Christian Island,,Ontario,CA,44.8222,-80.1757,ardac
ON1205,Christian Valley,,Ontario,CA,46.0708,-79.4831,ardac
ON1206,Christie Beach,,Ontario,CA,44.5931,-80.5142,ardac
ON1207,Christie Lake,,Ontario,CA,44.8208,-76.4103,ardac
ON1208,Christies Corner,,Ontario,CA,43.2689,-80.0326,ardac
ON1209,Christina,,Ontario,CA,42.8626,-81.4879,ardac
ON1210,Chudleigh,,Ontario,CA,46.6415,-80.3838,ardac
ON1211,Churchill,,Ontario,CA,43.6569,-80.0558,ardac
ON1212,Churchill,,Ontario,CA,44.2519,-79.6014,ardac
ON1213,Churchill Heights,,Ontario,CA,45.0672,-74.7759,ardac
ON1214,Churchville,,Ontario,CA,43.63,-79.7556,ardac
ON1215,Churchville,,Ontario,CA,42.5647,-81.6178,ardac
ON1216,Chute-à-Blondeau,,Ontario,CA,45.5881,-74.4703,ardac
ON1217,City View,,Ontario,CA,45.3514,-75.7431,ardac
ON1218,Clachan,,Ontario,CA,42.58,-81.8006,ardac
ON1219,Claireville,,Ontario,CA,43.75,-79.6367,ardac
ON1220,Clairlea,,Ontario,CA,43.7156,-79.2939,ardac
ON1221,Clanbrassil,,Ontario,CA,42.9669,-79.9506,ardac
ON1222,Clandeboye,,Ontario,CA,43.1981,-81.4503,ardac
ON1223,Clappison's Corners,,Ontario,CA,43.3122,-79.9175,ardac
ON1224,Clara Belle,,Ontario,CA,46.5008,-81.0569,ardac
ON1225,Claraday,,Ontario,CA,44.2897,-78.3122,ardac
ON1226,Clardon Beach,,Ontario,CA,44.2336,-79.4681,ardac
ON1227,Clare,,Ontario,CA,43.9903,-80.6353,ardac
ON1228,Claremont,,Ontario,CA,43.9724,-79.1291,ardac
ON1229,Clarence,,Ontario,CA,45.564,-75.2482,ardac
ON1230,Clarence Creek,,Ontario,CA,45.5053,-75.2171,ardac
ON1231,Clarence-Rockland,,Ontario,CA,45.4881,-75.2149,ardac
ON1232,Clarendon Station,,Ontario,CA,44.8729,-76.6975,ardac
ON1233,Clarina,,Ontario,CA,44.5556,-78.0622,ardac
ON1234,Clarington,,Ontario,CA,43.9947,-78.675,ardac
ON1235,Clarkdon,,Ontario,CA,49.7777,-91.2442,ardac
ON1236,Clarke,,Ontario,CA,43.9651,-78.5471,ardac
ON1237,Clarke's Corners,,Ontario,CA,45.0256,-81.374,ardac
ON1238,Clarkes Hollow,,Ontario,CA,43.87,-79.1314,ardac
ON1239,Clarks Church,,Ontario,CA,44.1122,-81.5758,ardac
ON1240,Clarks Corners,,Ontario,CA,43.7947,-79.3031,ardac
ON1241,Clarksburg,,Ontario,CA,44.5458,-80.4615,ardac
ON1242,Clarksdale,,Ontario,CA,43.3532,-79.8138,ardac
ON1243,Clarkson,,Ontario,CA,43.519,-79.6339,ardac
ON1244,Claude,,Ontario,CA,43.7925,-79.9044,ardac
ON1245,Clavering,,Ontario,CA,44.6811,-81.1369,ardac
ON1246,Clay Bank,,Ontario,CA,45.3892,-76.4171,ardac
ON1247,Clay Hills,,Ontario,CA,44.9028,-81.0442,ardac
ON1248,Clay Valley,,Ontario,CA,45.4269,-76.441,ardac
ON1249,Clayton,,Ontario,CA,45.1922,-76.3258,ardac
ON1250,Clear Creek,,Ontario,CA,42.5814,-80.5914,ardac
ON1251,Clear Lake,,Ontario,CA,45.0081,-79.0157,ardac
ON1252,Clear Lake,,Ontario,CA,45.5033,-79.2677,ardac
ON1253,Cleardale,,Ontario,CA,42.9411,-81.2525,ardac
ON1254,Clearview,,Ontario,CA,43.5036,-79.6686,ardac
ON1255,Clearview,,Ontario,CA,45.3275,-75.7044,ardac
ON1256,Clearview Estates,,Ontario,CA,43.2279,-79.9982,ardac
ON1257,Clearview Heights,,Ontario,CA,43.9235,-79.523,ardac
ON1258,Clearville,,Ontario,CA,42.4692,-81.7108,ardac
ON1259,Clearwater Bay,,Ontario,CA,49.7121,-94.8089,ardac
ON1260,Clearwater Beach,,Ontario,CA,44.8515,-79.9125,ardac
ON1261,Cliffcrest,,Ontario,CA,43.7242,-79.2257,ardac
ON1262,Clifford,,Ontario,CA,43.9692,-80.9792,ardac
ON1263,Cliffside,,Ontario,CA,43.7075,-79.2547,ardac
ON1264,Clifton,,Ontario,CA,43.1264,-79.0956,ardac
ON1265,Clinton,,Ontario,CA,43.6167,-81.5397,ardac
ON1266,Clontarf,,Ontario,CA,45.4116,-77.1359,ardac
ON1267,Cloud Bay,,Ontario,CA,48.1307,-89.4298,ardac
ON1268,Cloudslee,,Ontario,CA,46.3235,-83.7053,ardac
ON1269,Clover Valley,,Ontario,CA,44.0139,-81.5928,ardac
ON1270,Clover Valley,,Ontario,CA,45.7136,-81.8136,ardac
ON1271,Cloverdale,,Ontario,CA,45.1178,-75.4006,ardac
ON1272,Cloyne,,Ontario,CA,44.8164,-77.1856,ardac
ON1273,Clute,,Ontario,CA,49.1897,-81.0736,ardac
ON1274,Clyde,,Ontario,CA,43.3843,-80.2283,ardac
ON1275,Clyde Forks,,Ontario,CA,45.1314,-76.6764,ardac
ON1276,Clydesville,,Ontario,CA,45.0387,-76.3932,ardac
ON1277,Coatsworth,,Ontario,CA,42.1695,-82.3549,ardac
ON1278,Cobalt,,Ontario,CA,47.3992,-79.6806,ardac
ON1279,Cobble Hill,,Ontario,CA,43.1197,-81.0928,ardac
ON1280,Cobden,,Ontario,CA,45.6267,-76.8819,ardac
ON1281,Coboconk,,Ontario,CA,44.6582,-78.7986,ardac
ON1282,Cobourg,,Ontario,CA,43.9631,-78.1647,ardac
ON1283,Cochenour,,Ontario,CA,51.0756,-93.8094,ardac
ON1284,Cochrane,,Ontario,CA,49.1747,-81.0631,ardac
ON1285,Cochrane,,Ontario,CA,49.0706,-81.0206,ardac
ON1286,Codes Corner,,Ontario,CA,44.2987,-76.424,ardac
ON1287,Codrington,,Ontario,CA,44.1619,-77.8006,ardac
ON1288,Cody's Corners,,Ontario,CA,43.1237,-80.8684,ardac
ON1289,Coe Hill,,Ontario,CA,44.8619,-77.8364,ardac
ON1290,Cognashene,,Ontario,CA,44.9264,-79.9219,ardac
ON1291,Coins Gratton,,Ontario,CA,45.6125,-74.9253,ardac
ON1292,Colbeck,,Ontario,CA,43.9911,-80.3619,ardac
ON1293,Colborne,,Ontario,CA,42.8616,-80.3128,ardac
ON1294,Colborne,,Ontario,CA,44.0058,-77.8881,ardac
ON1295,Colchester,,Ontario,CA,41.9864,-82.9347,ardac
ON1296,Cold Springs,,Ontario,CA,44.0653,-78.2092,ardac
ON1297,Cold Springs,,Ontario,CA,45.8622,-82.1072,ardac
ON1298,Coldsprings,,Ontario,CA,44.2855,-78.3054,ardac
ON1299,Coldstream,,Ontario,CA,43.0192,-81.4997,ardac
ON1300,Coldwater,,Ontario,CA,44.7097,-79.6419,ardac
ON1301,Coldwell,,Ontario,CA,48.7624,-86.5287,ardac
ON1302,Cole Lake,,Ontario,CA,44.5806,-76.6706,ardac
ON1303,Cole Wharf,,Ontario,CA,44.1422,-77.0678,ardac
ON1304,Colebrook,,Ontario,CA,44.3886,-76.77,ardac
ON1305,Coleman,,Ontario,CA,47.3936,-79.7031,ardac
ON1306,Coleman's Shore,,Ontario,CA,45.0531,-76.1614,ardac
ON1307,Colemans,,Ontario,CA,43.2338,-79.124,ardac
ON1308,Coleraine,,Ontario,CA,43.8203,-79.6797,ardac
ON1309,Colgan,,Ontario,CA,44.0279,-79.8469,ardac
ON1310,Colinville,,Ontario,CA,42.8622,-82.3403,ardac
ON1311,Collingwood,,Ontario,CA,44.5014,-80.2407,ardac
ON1312,Collins,,Ontario,CA,50.2952,-89.446,ardac
ON1313,Collins Bay,,Ontario,CA,44.2457,-76.613,ardac
ON1314,Collins Inlet,,Ontario,CA,46.0019,-81.1992,ardac
ON1315,Collison Heights,,Ontario,CA,44.2786,-78.3131,ardac
ON1316,Colpoy's Bay,,Ontario,CA,44.7825,-81.1283,ardac
ON1317,Colquhoun,,Ontario,CA,45.0149,-75.1396,ardac
ON1318,Columbus,,Ontario,CA,43.9829,-78.9109,ardac
ON1319,Colwell,,Ontario,CA,44.3419,-79.7897,ardac
ON1320,Comber,,Ontario,CA,42.231,-82.5527,ardac
ON1321,Combermere,,Ontario,CA,45.3642,-77.6247,ardac
ON1322,Comet,,Ontario,CA,42.0132,-82.9857,ardac
ON1323,Commanda,,Ontario,CA,45.951,-79.6066,ardac
ON1324,Community Beach,,Ontario,CA,43.2382,-79.7327,ardac
ON1325,Concord,,Ontario,CA,43.8083,-79.4689,ardac
ON1326,Concord Point,,Ontario,CA,44.5392,-79.2106,ardac
ON1327,Conestogo,,Ontario,CA,43.5414,-80.5042,ardac
ON1328,Confederation Heights,,Ontario,CA,45.3767,-75.6871,ardac
ON1329,Coningsby,,Ontario,CA,43.7436,-80.1253,ardac
ON1330,Coniston,,Ontario,CA,46.4906,-80.8479,ardac
ON1331,Conmee,,Ontario,CA,48.5388,-89.6415,ardac
ON1332,Conn,,Ontario,CA,43.9982,-80.568,ardac
ON1333,Connaught,,Ontario,CA,45.6389,-77.0053,ardac
ON1334,Connaught,,Ontario,CA,45.1456,-75.2133,ardac
ON1335,Connaught,,Ontario,CA,48.6186,-80.9368,ardac
ON1336,Connaught Hill,,Ontario,CA,48.4709,-81.2054,ardac
ON1337,Connaught Shore,,Ontario,CA,44.4458,-78.3742,ardac
ON1338,Connellys,,Ontario,CA,44.3567,-77.8261,ardac
ON1339,Connor,,Ontario,CA,43.9858,-79.925,ardac
ON1340,Conover,,Ontario,CA,44.1906,-80.2131,ardac
ON1341,Conroy,,Ontario,CA,43.2933,-81.0486,ardac
ON1342,Consecon,,Ontario,CA,43.9956,-77.5221,ardac
ON1343,Constance Bay,,Ontario,CA,45.4867,-76.0756,ardac
ON1344,Constance Lake (Achikamii/Achikamaw),,Ontario,CA,49.805,-84.1348,ardac
ON1345,Constant Creek,,Ontario,CA,45.4146,-77.0126,ardac
ON1346,Convent Glen,,Ontario,CA,45.4667,-75.5333,ardac
ON1347,Conway,,Ontario,CA,44.1121,-76.9148,ardac
ON1348,Cooke's Shore,,Ontario,CA,45.045,-76.2108,ardac
ON1349,Cooks Mills,,Ontario,CA,46.4045,-79.4671,ardac
ON1350,Cooks Mills,,Ontario,CA,42.9964,-79.1789,ardac
ON1351,Cookstown,,Ontario,CA,44.1903,-79.7019,ardac
ON1352,Cooksville,,Ontario,CA,43.5803,-79.6158,ardac
ON1353,Cooper,,Ontario,CA,44.6453,-77.4746,ardac
ON1354,Cooper's Trailer Park,,Ontario,CA,44.3149,-78.1993,ardac
ON1355,Coopers Falls,,Ontario,CA,44.7872,-79.2333,ardac
ON1356,Cootes Paradise,,Ontario,CA,43.2675,-79.9456,ardac
ON1357,Copeland Park,,Ontario,CA,45.3636,-75.7478,ardac
ON1358,Copenhagen,,Ontario,CA,42.6774,-80.9853,ardac
ON1359,Copetown,,Ontario,CA,43.2438,-80.0557,ardac
ON1360,Copp,,Ontario,CA,45.4686,-77.4517,ardac
ON1361,Coppell,,Ontario,CA,49.536,-83.8292,ardac
ON1362,Copper Cliff,,Ontario,CA,46.4767,-81.0681,ardac
ON1363,Copperhead,,Ontario,CA,45.1557,-80.1315,ardac
ON1364,Copperkettle,,Ontario,CA,44.6487,-81.0053,ardac
ON1365,Coppin's Corners,,Ontario,CA,44.0458,-79.1472,ardac
ON1366,Coral,,Ontario,CA,50.2171,-81.6787,ardac
ON1367,Corbeil,,Ontario,CA,46.2608,-79.2906,ardac
ON1368,Corbett,,Ontario,CA,43.2453,-81.6914,ardac
ON1369,Corbetton,,Ontario,CA,44.1388,-80.327,ardac
ON1370,Corbyville,,Ontario,CA,44.2158,-77.3828,ardac
ON1371,Cordova Mines,,Ontario,CA,44.5418,-77.7828,ardac
ON1372,Corinth,,Ontario,CA,42.8217,-80.8332,ardac
ON1373,Coristine,,Ontario,CA,46.091,-78.8905,ardac
ON1374,Corkery,,Ontario,CA,45.2833,-76.1019,ardac
ON1375,Corktown,,Ontario,CA,43.2492,-79.8669,ardac
ON1376,Cormac,,Ontario,CA,45.4633,-77.2942,ardac
ON1377,Cornell,,Ontario,CA,42.9043,-80.6265,ardac
ON1378,Cornwall,,Ontario,CA,45.0264,-74.7264,ardac
ON1379,Cornwall Centre,,Ontario,CA,45.0479,-74.8012,ardac
ON1380,Cornwall Island,,Ontario,CA,45.0114,-74.6811,ardac
ON1381,Coronation Gardens,,Ontario,CA,43.9572,-79.0086,ardac
ON1382,Coronation Park,,Ontario,CA,42.9693,-82.3721,ardac
ON1383,Corsons,,Ontario,CA,44.6292,-78.8919,ardac
ON1384,Corunna,,Ontario,CA,42.8856,-82.4483,ardac
ON1385,Corwhin,,Ontario,CA,43.5097,-80.105,ardac
ON1386,Corwin Crescent,,Ontario,CA,43.0842,-79.1036,ardac
ON1387,Cosy Cove,,Ontario,CA,44.4908,-77.2808,ardac
ON1388,Cotieville,,Ontario,CA,45.4799,-76.7171,ardac
ON1389,Cotnam Island,,Ontario,CA,45.7989,-77.0319,ardac
ON1390,Cotswold,,Ontario,CA,43.8694,-80.7906,ardac
ON1391,Cottam,,Ontario,CA,42.1296,-82.7443,ardac
ON1392,Cottesloe,,Ontario,CA,44.4067,-78.0806,ardac
ON1393,Coughlin,,Ontario,CA,48.8882,-88.3836,ardac
ON1394,Coulson,,Ontario,CA,44.5763,-79.6157,ardac
ON1395,Coulson's Hill,,Ontario,CA,44.1634,-79.5769,ardac
ON1396,Coulterville,,Ontario,CA,43.8319,-80.0297,ardac
ON1397,Country Hills,,Ontario,CA,43.415,-80.4739,ardac
ON1398,Country Place,,Ontario,CA,45.3217,-75.7072,ardac
ON1399,County of Brant,,Ontario,CA,43.1392,-80.2814,ardac
ON1400,Courtice,,Ontario,CA,43.9117,-78.7782,ardac
ON1401,Courtland,,Ontario,CA,42.8425,-80.6333,ardac
ON1402,Courtland Park,,Ontario,CA,45.3713,-75.7121,ardac
ON1403,Courtright,,Ontario,CA,42.8186,-82.4689,ardac
ON1404,Coutnac Beach,,Ontario,CA,44.8299,-79.9171,ardac
ON1405,Couttsville,,Ontario,CA,47.6675,-79.6944,ardac
ON1406,Cove Beach,,Ontario,CA,44.7472,-80.1136,ardac
ON1407,Cove Beach,,Ontario,CA,43.9217,-77.1776,ardac
ON1408,Cove Inlet,,Ontario,CA,49.3528,-88.1319,ardac
ON1409,Coventry,,Ontario,CA,43.9042,-79.7308,ardac
ON1410,Coverdale,,Ontario,CA,43.9611,-78.1443,ardac
ON1411,Cowan's Bay,,Ontario,CA,44.3358,-78.5433,ardac
ON1412,Coxvale,,Ontario,CA,44.8797,-76.8703,ardac
ON1413,Coyle,,Ontario,CA,42.9809,-79.2707,ardac
ON1414,Cozy Corners,,Ontario,CA,48.9431,-94.2947,ardac
ON1415,Craig Henry,,Ontario,CA,45.3325,-75.7683,ardac
ON1416,Craig Shore,,Ontario,CA,45.0417,-76.1678,ardac
ON1417,Craighurst,,Ontario,CA,44.5291,-79.7257,ardac
ON1418,Craigleith,,Ontario,CA,44.5246,-80.3296,ardac
ON1419,Craigmawr Beach,,Ontario,CA,44.2387,-79.4729,ardac
ON1420,Craigmont,,Ontario,CA,45.2958,-77.635,ardac
ON1421,Craigsholme,,Ontario,CA,43.7817,-80.2769,ardac
ON1422,Crampton,,Ontario,CA,42.9446,-80.9423,ardac
ON1423,Cranberry,,Ontario,CA,45.9117,-80.5728,ardac
ON1424,Cranbrook,,Ontario,CA,43.7035,-81.194,ardac
ON1425,Cranston,,Ontario,CA,42.9994,-79.9292,ardac
ON1426,Crathie,,Ontario,CA,43.029,-81.6304,ardac
ON1427,Crawford,,Ontario,CA,44.2618,-80.9322,ardac
ON1428,Crawford's Grove,,Ontario,CA,44.2764,-78.3339,ardac
ON1429,Crean Hill,,Ontario,CA,46.4272,-81.3515,ardac
ON1430,Crediton,,Ontario,CA,43.3006,-81.5485,ardac
ON1431,Creditville,,Ontario,CA,43.1522,-80.61,ardac
ON1432,Cree,,Ontario,CA,49.211,-84.7088,ardac
ON1433,Creek Bank,,Ontario,CA,43.7051,-80.536,ardac
ON1434,Creemore,,Ontario,CA,44.3264,-80.1058,ardac
ON1435,Creighton,,Ontario,CA,44.6192,-79.5917,ardac
ON1436,Creighton,,Ontario,CA,46.4581,-81.1806,ardac
ON1437,Creighton Heights,,Ontario,CA,44.0177,-78.1467,ardac
ON1438,Creosote,,Ontario,CA,46.4729,-81.0238,ardac
ON1439,Crerar,,Ontario,CA,46.6315,-80.548,ardac
ON1440,Crescent Bay,,Ontario,CA,42.7903,-80.1219,ardac
ON1441,Crescent Beach,,Ontario,CA,42.884,-78.9688,ardac
ON1442,Crescent Beach,,Ontario,CA,44.3106,-79.4414,ardac
ON1443,Crescent Harbour,,Ontario,CA,44.3724,-79.5317,ardac
ON1444,Crescent Park,,Ontario,CA,42.8951,-78.965,ardac
ON1445,Crescent Town,,Ontario,CA,43.6978,-79.2939,ardac
ON1446,Cresswell,,Ontario,CA,44.2875,-78.9706,ardac
ON1447,Cressy,,Ontario,CA,44.0911,-76.8786,ardac
ON1448,Crestview,,Ontario,CA,45.3422,-75.7364,ardac
ON1449,Crewe,,Ontario,CA,43.9008,-81.6417,ardac
ON1450,Crewsons Corners,,Ontario,CA,43.6301,-80.0864,ardac
ON1451,Crieff,,Ontario,CA,43.4242,-80.1515,ardac
ON1452,Crilly,,Ontario,CA,48.7504,-92.2773,ardac
ON1453,Crinan,,Ontario,CA,42.65,-81.6661,ardac
ON1454,Crofton,,Ontario,CA,44.0686,-77.3117,ardac
ON1455,Cromar,,Ontario,CA,42.7875,-82.2617,ardac
ON1456,Cromarty,,Ontario,CA,43.4272,-81.3506,ardac
ON1457,Crombies,,Ontario,CA,44.0181,-80.189,ardac
ON1458,Crooked Bay,,Ontario,CA,44.9223,-79.7671,ardac
ON1459,Crooked Creek,,Ontario,CA,43.9738,-78.5115,ardac
ON1460,Crooks,,Ontario,CA,48.0792,-89.5229,ardac
ON1461,Crookston,,Ontario,CA,44.4303,-77.4486,ardac
ON1462,Crosby,,Ontario,CA,44.6539,-76.2586,ardac
ON1463,Cross Lake,,Ontario,CA,45.4114,-77.9218,ardac
ON1464,Crosshill,,Ontario,CA,43.5304,-80.7428,ardac
ON1465,Crossland,,Ontario,CA,44.5339,-79.9139,ardac
ON1466,Crossley Hunter,,Ontario,CA,42.8536,-81.0344,ardac
ON1467,Croton,,Ontario,CA,42.6124,-82.0438,ardac
ON1468,Crow Lake,,Ontario,CA,49.1732,-93.929,ardac
ON1469,Crow Lake,,Ontario,CA,44.732,-76.6065,ardac
ON1470,Crowe Bridge,,Ontario,CA,44.3833,-77.755,ardac
ON1471,Crowes Landing,,Ontario,CA,44.5628,-78.0648,ardac
ON1472,Crowland,,Ontario,CA,42.9832,-79.2527,ardac
ON1473,Crown Hill,,Ontario,CA,44.4339,-79.6419,ardac
ON1474,Croydon,,Ontario,CA,44.4209,-76.9779,ardac
ON1475,Crozier,,Ontario,CA,48.6145,-93.5374,ardac
ON1476,Cruickshank,,Ontario,CA,44.5961,-81.0428,ardac
ON1477,Crumlin,,Ontario,CA,43.0127,-81.1443,ardac
ON1478,Cryderman Subdivision,,Ontario,CA,46.6753,-80.7478,ardac
ON1479,Crysler,,Ontario,CA,45.2167,-75.1522,ardac
ON1480,Crystal,,Ontario,CA,44.7922,-75.9044,ardac
ON1481,Crystal Bay,,Ontario,CA,45.355,-75.84,ardac
ON1482,Crystal Beach,,Ontario,CA,45.3483,-75.8331,ardac
ON1483,Crystal Beach,,Ontario,CA,42.8675,-79.0592,ardac
ON1484,Crystal Falls,,Ontario,CA,46.4543,-79.8849,ardac
ON1485,Crystal Rock,,Ontario,CA,44.7965,-75.494,ardac
ON1486,Crystal Springs,,Ontario,CA,44.2257,-78.3172,ardac
ON1487,Culloden,,Ontario,CA,42.8894,-80.8472,ardac
ON1488,Cultus,,Ontario,CA,42.6347,-80.6142,ardac
ON1489,Cumberland,,Ontario,CA,45.5182,-75.4076,ardac
ON1490,Cumberland,,Ontario,CA,45.4333,-75.4333,ardac
ON1491,Cumberland Beach,,Ontario,CA,44.7029,-79.3856,ardac
ON1492,Cumnock,,Ontario,CA,43.7597,-80.4569,ardac
ON1493,Cundles,,Ontario,CA,44.4053,-79.7036,ardac
ON1494,Cunningham's Corners,,Ontario,CA,44.3371,-78.6904,ardac
ON1495,Curran,,Ontario,CA,45.4953,-74.9947,ardac
ON1496,Curries,,Ontario,CA,43.0617,-80.7169,ardac
ON1497,Curry Hill,,Ontario,CA,45.2072,-74.3924,ardac
ON1498,Curve Lake,,Ontario,CA,44.4607,-78.3711,ardac
ON1499,Cushendall,,Ontario,CA,44.3272,-76.3853,ardac
ON1500,Cutler,,Ontario,CA,46.2017,-82.4615,ardac
ON1501,Cyrville,,Ontario,CA,45.4247,-75.6342,ardac
ON1502,Côte-de-Sable,,Ontario,CA,45.4252,-75.6786,ardac
ON1503,Dacre,,Ontario,CA,45.3707,-76.966,ardac
ON1504,Dagmar,,Ontario,CA,44.0022,-79.0375,ardac
ON1505,Dahlia,,Ontario,CA,45.7834,-77.5518,ardac
ON1506,Dain City,,Ontario,CA,42.9458,-79.2433,ardac
ON1507,Dale,,Ontario,CA,43.9869,-78.2911,ardac
ON1508,Dalhousie Lake,,Ontario,CA,44.9586,-76.6003,ardac
ON1509,Dalhousie Mills,,Ontario,CA,45.3173,-74.4711,ardac
ON1510,Dalkeith,,Ontario,CA,45.4456,-74.5731,ardac
ON1511,Dalmeny,,Ontario,CA,45.1461,-75.5308,ardac
ON1512,Dalrymple,,Ontario,CA,44.6408,-79.1039,ardac
ON1513,Dalston,,Ontario,CA,44.4818,-79.6832,ardac
ON1514,Dalton,,Ontario,CA,48.1544,-84.0336,ardac
ON1515,Dalton Mills,,Ontario,CA,48.1217,-84.0711,ardac
ON1516,Damascus,,Ontario,CA,43.9164,-80.4821,ardac
ON1517,Dana,,Ontario,CA,48.8392,-84.1442,ardac
ON1518,Dancaster Courts,,Ontario,CA,43.2125,-79.9886,ardac
ON1519,Dance,,Ontario,CA,48.7678,-93.6703,ardac
ON1520,Dane,,Ontario,CA,48.0722,-80.0314,ardac
ON1521,Danforth Station,,Ontario,CA,43.6861,-79.2997,ardac
ON1522,Darbyville,,Ontario,CA,43.545,-80.0644,ardac
ON1523,Darling,,Ontario,CA,44.9578,-79.6319,ardac
ON1524,Darling Road,,Ontario,CA,42.9669,-79.6996,ardac
ON1525,Darlingside,,Ontario,CA,44.3675,-75.9708,ardac
ON1526,Darlington,,Ontario,CA,43.8783,-78.7854,ardac
ON1527,Darrell,,Ontario,CA,42.4781,-82.1828,ardac
ON1528,Dartford,,Ontario,CA,44.2222,-77.9389,ardac
ON1529,Dashwood,,Ontario,CA,43.346,-81.6354,ardac
ON1530,Daventry,,Ontario,CA,46.061,-78.6685,ardac
ON1531,Davidson's Corners,,Ontario,CA,44.0243,-78.3016,ardac
ON1532,Davidsons Beach,,Ontario,CA,44.3647,-76.5492,ardac
ON1533,Davis Lock,,Ontario,CA,44.5647,-76.2889,ardac
ON1534,Davis Mills,,Ontario,CA,45.7564,-77.2039,ardac
ON1535,Davisville,,Ontario,CA,43.7019,-79.3889,ardac
ON1536,Dawn Mills,,Ontario,CA,42.5847,-82.1294,ardac
ON1537,Dawn Valley,,Ontario,CA,42.6578,-82.2275,ardac
ON1538,Day Mills,,Ontario,CA,46.295,-83.3528,ardac
ON1539,Dayton,,Ontario,CA,46.2519,-83.3533,ardac
ON1540,Daytonia Beach,,Ontario,CA,44.4803,-78.7314,ardac
ON1541,Daytown,,Ontario,CA,44.6311,-76.1086,ardac
ON1542,De Grassi Point,,Ontario,CA,44.2552,-79.5295,ardac
ON1543,DeCew Falls,,Ontario,CA,43.1097,-79.2653,ardac
ON1544,DeWitts Corners,,Ontario,CA,44.8449,-76.3623,ardac
ON1545,Deacon,,Ontario,CA,45.6021,-77.3799,ardac
ON1546,Dealtown,,Ontario,CA,42.2481,-82.0982,ardac
ON1547,Dean Lake,,Ontario,CA,46.215,-83.155,ardac
ON1548,Deanlea Beach,,Ontario,CA,44.615,-79.9969,ardac
ON1549,Deans,,Ontario,CA,45.9071,-79.3546,ardac
ON1550,Dearlock,,Ontario,CA,48.8408,-94.0956,ardac
ON1551,Decewsville,,Ontario,CA,42.9369,-79.9114,ardac
ON1552,Decker Hollow,,Ontario,CA,44.0127,-78.4693,ardac
ON1553,Deckers Hill,,Ontario,CA,43.8646,-79.0811,ardac
ON1554,Dee Bank,,Ontario,CA,45.1797,-79.5231,ardac
ON1555,Deemerton,,Ontario,CA,44.0483,-81.0778,ardac
ON1556,Deep Bay,,Ontario,CA,44.8532,-78.7993,ardac
ON1557,Deep River,,Ontario,CA,46.0503,-77.4178,ardac
ON1558,Deer Bay,,Ontario,CA,44.5432,-78.278,ardac
ON1559,Deer Lake,,Ontario,CA,45.0558,-78.0806,ardac
ON1560,Deer Lake,,Ontario,CA,52.6475,-94.1975,ardac
ON1561,Deer Park,,Ontario,CA,43.6797,-79.4111,ardac
ON1562,Deerbrook,,Ontario,CA,42.2942,-82.6231,ardac
ON1563,Deerhurst,,Ontario,CA,44.1829,-79.5812,ardac
ON1564,Dejong,,Ontario,CA,43.0038,-81.7668,ardac
ON1565,Del Ray,,Ontario,CA,43.7036,-79.4832,ardac
ON1566,Delamere,,Ontario,CA,46.1732,-80.7115,ardac
ON1567,Delaware,,Ontario,CA,42.9097,-81.4211,ardac
ON1568,Delaware West,,Ontario,CA,42.9033,-81.4303,ardac
ON1569,Delhi,,Ontario,CA,42.8494,-80.4917,ardac
ON1570,Delisle's Corners,,Ontario,CA,42.185,-83.0175,ardac
ON1571,Delmer,,Ontario,CA,42.8711,-80.7958,ardac
ON1572,Delnite,,Ontario,CA,48.4361,-81.2997,ardac
ON1573,Deloro,,Ontario,CA,44.5116,-77.6235,ardac
ON1574,Delrex,,Ontario,CA,43.6444,-79.9153,ardac
ON1575,Delta,,Ontario,CA,44.6088,-76.123,ardac
ON1576,Demorestville,,Ontario,CA,44.0921,-77.2098,ardac
ON1577,Denbigh,,Ontario,CA,45.139,-77.2731,ardac
ON1578,Denfield,,Ontario,CA,43.1282,-81.4323,ardac
ON1579,Denison,,Ontario,CA,48.6142,-85.4317,ardac
ON1580,Departure Lake,,Ontario,CA,49.2877,-81.7979,ardac
ON1581,Depew,,Ontario,CA,48.5467,-85.2034,ardac
ON1582,Depot Harbour,,Ontario,CA,45.3171,-80.0995,ardac
ON1583,Dereham Centre,,Ontario,CA,42.9259,-80.8116,ardac
ON1584,Derland,,Ontario,CA,46.2233,-79.3478,ardac
ON1585,Dermid,,Ontario,CA,48.6788,-93.738,ardac
ON1586,Derry West,,Ontario,CA,43.6461,-79.7058,ardac
ON1587,Derrynane,,Ontario,CA,43.9454,-80.5895,ardac
ON1588,Derryville,,Ontario,CA,44.3247,-79.0886,ardac
ON1589,Derwent,,Ontario,CA,42.9243,-81.0983,ardac
ON1590,Desbarats,,Ontario,CA,46.3476,-83.9242,ardac
ON1591,Desboro,,Ontario,CA,44.3989,-80.9889,ardac
ON1592,Deseronto,,Ontario,CA,44.1966,-77.051,ardac
ON1593,Desert Lake,,Ontario,CA,44.5128,-76.5969,ardac
ON1594,Desmond,,Ontario,CA,44.3956,-76.8403,ardac
ON1595,Detlor,,Ontario,CA,45.0338,-77.7359,ardac
ON1596,Deux-Rivières,,Ontario,CA,46.2492,-78.2935,ardac
ON1597,Devizes,,Ontario,CA,43.1694,-81.228,ardac
ON1598,Devlin,,Ontario,CA,48.6186,-93.6721,ardac
ON1599,Devon,,Ontario,CA,47.7633,-83.3694,ardac
ON1600,Devonshire,,Ontario,CA,48.8194,-80.8246,ardac
ON1601,Dewars,,Ontario,CA,45.4767,-76.4778,ardac
ON1602,Dexter,,Ontario,CA,42.6739,-81.1283,ardac
ON1603,Diamond Lake,,Ontario,CA,48.1125,-79.7525,ardac
ON1604,Dickson Hill,,Ontario,CA,43.9431,-79.2775,ardac
ON1605,Dicksons Corners,,Ontario,CA,43.0465,-80.9496,ardac
ON1606,Dill Siding,,Ontario,CA,46.4256,-80.8389,ardac
ON1607,Dillon,,Ontario,CA,45.425,-80.3219,ardac
ON1608,Dinner Point Depot,,Ontario,CA,45.9926,-81.734,ardac
ON1609,Dinorwic,,Ontario,CA,49.6917,-92.4956,ardac
ON1610,Dirleton,,Ontario,CA,45.4953,-76.1428,ardac
ON1611,Dishnish,,Ontario,CA,48.8552,-83.7174,ardac
ON1612,Diver,,Ontario,CA,46.7186,-79.5019,ardac
ON1613,Dixie,,Ontario,CA,43.5975,-79.6014,ardac
ON1614,Dixie,,Ontario,CA,43.8576,-79.121,ardac
ON1615,Dixon,,Ontario,CA,45.0875,-74.9764,ardac
ON1616,Dixons Corners,,Ontario,CA,44.9236,-75.3511,ardac
ON1617,Dobbinton,,Ontario,CA,44.3908,-81.1331,ardac
ON1618,Dobie,,Ontario,CA,48.1331,-79.8215,ardac
ON1619,Dock Siding,,Ontario,CA,45.1914,-79.7824,ardac
ON1620,Dockmure,,Ontario,CA,45.2994,-79.9572,ardac
ON1621,Doe Lake,,Ontario,CA,45.5532,-79.4264,ardac
ON1622,Dogs Nest,,Ontario,CA,42.805,-80.1642,ardac
ON1623,Doherty,,Ontario,CA,46.9747,-79.7425,ardac
ON1624,Dokis,,Ontario,CA,46.1309,-80.0313,ardac
ON1625,Dome,,Ontario,CA,48.4644,-81.2428,ardac
ON1626,Dome Extension,,Ontario,CA,48.4625,-81.2331,ardac
ON1627,Dominionville,,Ontario,CA,45.2594,-74.8314,ardac
ON1628,Domville,,Ontario,CA,44.7611,-75.5558,ardac
ON1629,Don Lita,,Ontario,CA,46.5181,-80.9192,ardac
ON1630,Don Mills,,Ontario,CA,43.7358,-79.3419,ardac
ON1631,Don Vale,,Ontario,CA,43.6728,-79.3656,ardac
ON1632,Donald,,Ontario,CA,44.9819,-78.5319,ardac
ON1633,Donaldson,,Ontario,CA,44.9842,-76.7381,ardac
ON1634,Donegal,,Ontario,CA,43.6299,-80.9622,ardac
ON1635,Donegal,,Ontario,CA,45.5024,-77.1369,ardac
ON1636,Dongola,,Ontario,CA,44.7432,-78.757,ardac
ON1637,Donnybrook,,Ontario,CA,43.8364,-81.4819,ardac
ON1638,Donwood,,Ontario,CA,44.3281,-78.2831,ardac
ON1639,Doon,,Ontario,CA,43.3918,-80.4121,ardac
ON1640,Dorchester,,Ontario,CA,42.9865,-81.0581,ardac
ON1641,Dorion,,Ontario,CA,48.7945,-88.5415,ardac
ON1642,Dorion Landing,,Ontario,CA,48.7831,-88.5286,ardac
ON1643,Dorking,,Ontario,CA,43.6481,-80.7546,ardac
ON1644,Dorland,,Ontario,CA,44.0836,-77.0072,ardac
ON1645,Dorland,,Ontario,CA,43.1114,-80.7932,ardac
ON1646,Dornie,,Ontario,CA,45.3162,-74.7115,ardac
ON1647,Dornoch,,Ontario,CA,44.3113,-80.8565,ardac
ON1648,Dorset,,Ontario,CA,45.2447,-78.8928,ardac
ON1649,Dorset Park,,Ontario,CA,43.7525,-79.2806,ardac
ON1650,Dorset Park,,Ontario,CA,43.5269,-79.8775,ardac
ON1651,Doré Bay,,Ontario,CA,45.6437,-77.229,ardac
ON1652,Douglas,,Ontario,CA,45.5097,-76.9391,ardac
ON1653,Douglas,,Ontario,CA,45.4917,-76.9208,ardac
ON1654,Douglastown,,Ontario,CA,42.9706,-79.0246,ardac
ON1655,Douro,,Ontario,CA,44.3767,-78.1936,ardac
ON1656,Dover Centre,,Ontario,CA,42.4899,-82.3179,ardac
ON1657,Dover Heights,,Ontario,CA,45.0142,-74.7603,ardac
ON1658,Dowling,,Ontario,CA,46.5911,-81.3392,ardac
ON1659,Downard,,Ontario,CA,48.9864,-80.9396,ardac
ON1660,Downers Corners,,Ontario,CA,44.2906,-78.2967,ardac
ON1661,Downeys,,Ontario,CA,43.4788,-80.2279,ardac
ON1662,Downeyville,,Ontario,CA,44.3725,-78.5932,ardac
ON1663,Downsview,,Ontario,CA,43.7307,-79.4906,ardac
ON1664,Doyles,,Ontario,CA,42.3363,-82.1652,ardac
ON1665,Dracon,,Ontario,CA,43.8193,-80.3821,ardac
ON1666,Dranoel,,Ontario,CA,44.165,-78.5333,ardac
ON1667,Drayton,,Ontario,CA,43.7546,-80.6715,ardac
ON1668,Drefal,,Ontario,CA,47.2631,-82.0528,ardac
ON1669,Dresden,,Ontario,CA,42.5903,-82.1815,ardac
ON1670,Drew,,Ontario,CA,43.9789,-80.8883,ardac
ON1671,Driftwood,,Ontario,CA,49.1414,-81.3828,ardac
ON1672,Drocourt,,Ontario,CA,45.7719,-80.3492,ardac
ON1673,Dromore,,Ontario,CA,44.1174,-80.6669,ardac
ON1674,Drumbo,,Ontario,CA,43.236,-80.5534,ardac
ON1675,Drummond,,Ontario,CA,44.2562,-78.2256,ardac
ON1676,Drummond Centre,,Ontario,CA,44.9956,-76.2311,ardac
ON1677,Drummond Heights,,Ontario,CA,43.0688,-79.1032,ardac
ON1678,Drumquin,,Ontario,CA,43.5358,-79.7811,ardac
ON1679,Drury,,Ontario,CA,46.3808,-81.5056,ardac
ON1680,Dryden,,Ontario,CA,43.815,-80.8861,ardac
ON1681,Dryden,,Ontario,CA,49.78,-92.8339,ardac
ON1682,Dryden,,Ontario,CA,49.7833,-92.7653,ardac
ON1683,Dryden's Corner,,Ontario,CA,45.7127,-82.2713,ardac
ON1684,Drysdale,,Ontario,CA,43.4503,-81.7013,ardac
ON1685,Duart,,Ontario,CA,42.5019,-81.7518,ardac
ON1686,Dublin,,Ontario,CA,48.9369,-87.9219,ardac
ON1687,Dublin,,Ontario,CA,43.5042,-81.2861,ardac
ON1688,Duclos Point,,Ontario,CA,44.3512,-79.2496,ardac
ON1689,Dudley,,Ontario,CA,45.0462,-79.619,ardac
ON1690,Duff Corners,,Ontario,CA,44.3989,-77.2914,ardac
ON1691,Duff's Corners,,Ontario,CA,43.195,-80.0222,ardac
ON1692,Dufferin,,Ontario,CA,42.9778,-79.9767,ardac
ON1693,Dufferin Bridge,,Ontario,CA,45.4731,-79.6819,ardac
ON1694,Duffy,,Ontario,CA,42.9347,-78.9672,ardac
ON1695,Duffy,,Ontario,CA,45.0809,-79.709,ardac
ON1696,Dugwal,,Ontario,CA,48.5797,-81.0149,ardac
ON1697,Duke Crossing,,Ontario,CA,45.9614,-77.3669,ardac
ON1698,Dulcemaine,,Ontario,CA,44.4479,-76.0506,ardac
ON1699,Duluth Junction,,Ontario,CA,48.6196,-93.3838,ardac
ON1700,Dunbar,,Ontario,CA,45.0442,-75.2314,ardac
ON1701,Dunbarton,,Ontario,CA,43.8285,-79.1207,ardac
ON1702,Dunblane,,Ontario,CA,44.3858,-81.3015,ardac
ON1703,Dunboyne,,Ontario,CA,42.7125,-80.9849,ardac
ON1704,Duncan,,Ontario,CA,44.4222,-80.4764,ardac
ON1705,Dunchurch,,Ontario,CA,45.6486,-79.8512,ardac
ON1706,Duncrief,,Ontario,CA,43.0705,-81.4623,ardac
ON1707,Dundalk,,Ontario,CA,44.1704,-80.3935,ardac
ON1708,Dundas,,Ontario,CA,43.2729,-79.9422,ardac
ON1709,Dundela,,Ontario,CA,44.9404,-75.306,ardac
ON1710,Dundonald,,Ontario,CA,44.0679,-77.861,ardac
ON1711,Dundurn,,Ontario,CA,42.9611,-80.3019,ardac
ON1712,Dunedin,,Ontario,CA,44.2974,-80.1747,ardac
ON1713,Dungannon,,Ontario,CA,43.8543,-81.5993,ardac
ON1714,Dunkeld,,Ontario,CA,44.1636,-81.2132,ardac
ON1715,Dunkerron,,Ontario,CA,44.0408,-79.6633,ardac
ON1716,Dunlop,,Ontario,CA,43.7769,-81.6994,ardac
ON1717,Dunn's Corner,,Ontario,CA,43.0778,-80.8934,ardac
ON1718,Dunnet's Corner,,Ontario,CA,46.3778,-80.3525,ardac
ON1719,Dunnette Landing,,Ontario,CA,44.1933,-78.1031,ardac
ON1720,Dunning,,Ontario,CA,49.0444,-80.8319,ardac
ON1721,Dunns Valley,,Ontario,CA,46.4666,-83.6247,ardac
ON1722,Dunnville,,Ontario,CA,42.9,-79.6167,ardac
ON1723,Dunrankin,,Ontario,CA,48.5782,-83.1167,ardac
ON1724,Dunrobin,,Ontario,CA,45.4215,-76.02,ardac
ON1725,Dunrobin Shore,,Ontario,CA,45.4573,-75.9654,ardac
ON1726,Dunsford,,Ontario,CA,44.4519,-78.6428,ardac
ON1727,Duntroon,,Ontario,CA,44.3992,-80.1947,ardac
ON1728,Dunvegan,,Ontario,CA,45.3636,-74.8188,ardac
ON1729,Durham,,Ontario,CA,44.1779,-80.8175,ardac
ON1730,Dutch Line,,Ontario,CA,44.8618,-78.6239,ardac
ON1731,Duthill,,Ontario,CA,42.6919,-82.3907,ardac
ON1732,Dutton,,Ontario,CA,42.6647,-81.5021,ardac
ON1733,Duttona Beach,,Ontario,CA,42.585,-81.4689,ardac
ON1734,Dwight,,Ontario,CA,45.33,-79.0125,ardac
ON1735,Dwyer Hill,,Ontario,CA,45.1257,-75.947,ardac
ON1736,Dyer,,Ontario,CA,45.2703,-74.9142,ardac
ON1737,Dyer's Bay,,Ontario,CA,45.1631,-81.3389,ardac
ON1738,Dyment,,Ontario,CA,49.6156,-92.315,ardac
ON1739,Dymond,,Ontario,CA,47.5375,-79.6719,ardac
ON1740,Dynes,,Ontario,CA,43.345,-79.7854,ardac
ON1741,Désaulniers,,Ontario,CA,46.5522,-80.1097,ardac
ON1742,Eabamet Lake,,Ontario,CA,51.556,-87.9873,ardac
ON1743,Eades,,Ontario,CA,48.9387,-79.8804,ardac
ON1744,Eads Bush,,Ontario,CA,45.9336,-81.9367,ardac
ON1745,Eady,,Ontario,CA,44.6537,-79.6178,ardac
ON1746,Eagle,,Ontario,CA,42.5678,-81.5619,ardac
ON1747,Eagle Lake,,Ontario,CA,45.1274,-78.5099,ardac
ON1748,Eagle Lake,,Ontario,CA,45.7947,-79.4786,ardac
ON1749,Eagle Mountain,,Ontario,CA,49.0525,-88.6078,ardac
ON1750,Eagle Place,,Ontario,CA,43.1322,-80.2721,ardac
ON1751,Eagle River,,Ontario,CA,49.7919,-93.1947,ardac
ON1752,Eagles Nest,,Ontario,CA,45.7158,-81.9192,ardac
ON1753,Eaglesons Corners,,Ontario,CA,45.3043,-75.8758,ardac
ON1754,Eamers Corners,,Ontario,CA,45.0598,-74.7652,ardac
ON1755,Ear Falls,,Ontario,CA,50.6384,-93.2366,ardac
ON1756,Earlton,,Ontario,CA,47.7102,-79.8212,ardac
ON1757,Earnscliffe,,Ontario,CA,44.1353,-80.0642,ardac
ON1758,East Colborne,,Ontario,CA,44.0107,-77.8676,ardac
ON1759,East Creighton,,Ontario,CA,46.4631,-81.176,ardac
ON1760,East Gwillimbury,,Ontario,CA,44.1392,-79.4239,ardac
ON1761,East Harrow,,Ontario,CA,42.035,-82.8908,ardac
ON1762,East Hungerford,,Ontario,CA,44.5025,-77.1539,ardac
ON1763,East Korah,,Ontario,CA,46.5656,-84.35,ardac
ON1764,East Linton,,Ontario,CA,44.6467,-80.9385,ardac
ON1765,East McKirdy,,Ontario,CA,49.2736,-88.1333,ardac
ON1766,East Oakland,,Ontario,CA,43.0322,-80.2842,ardac
ON1767,East Oro,,Ontario,CA,44.5307,-79.4962,ardac
ON1768,East Oxford,,Ontario,CA,44.9189,-75.6506,ardac
ON1769,East Preston,,Ontario,CA,43.3881,-80.3422,ardac
ON1770,East Windsor,,Ontario,CA,42.32,-82.9883,ardac
ON1771,East York,,Ontario,CA,43.7039,-79.3404,ardac
ON1772,Eastbourne,,Ontario,CA,44.294,-79.4832,ardac
ON1773,Eastford,,Ontario,CA,49.2539,-81.1031,ardac
ON1774,Eastons Corners,,Ontario,CA,44.8388,-75.8843,ardac
ON1775,Eastside,,Ontario,CA,46.5233,-84.2689,ardac
ON1776,Eastview,,Ontario,CA,44.2596,-76.3813,ardac
ON1777,Eastview,,Ontario,CA,46.3221,-79.4379,ardac
ON1778,Eastview,,Ontario,CA,49.424,-82.4135,ardac
ON1779,Eastway Gardens,,Ontario,CA,45.418,-75.6443,ardac
ON1780,Eastwood,,Ontario,CA,43.1425,-80.6672,ardac
ON1781,Eatonville,,Ontario,CA,42.365,-81.8833,ardac
ON1782,Eau Claire,,Ontario,CA,46.2489,-78.89,ardac
ON1783,Eau Claire Station,,Ontario,CA,46.2735,-78.9183,ardac
ON1784,Ebbs Shore,,Ontario,CA,45.0425,-76.1942,ardac
ON1785,Ebenezer,,Ontario,CA,43.7722,-79.6633,ardac
ON1786,Ebenezer,,Ontario,CA,44.3861,-76.0474,ardac
ON1787,Ebenezer,,Ontario,CA,44.3204,-77.1032,ardac
ON1788,Ebenezer,,Ontario,CA,44.6889,-79.8158,ardac
ON1789,Eberts,,Ontario,CA,42.5018,-82.1815,ardac
ON1790,Echo,,Ontario,CA,44.6017,-76.7531,ardac
ON1791,Echo Bay,,Ontario,CA,46.4854,-84.0673,ardac
ON1792,Echo Beach,,Ontario,CA,45.1947,-79.459,ardac
ON1793,Echo Place,,Ontario,CA,43.1469,-80.2153,ardac
ON1794,Echo River,,Ontario,CA,46.5097,-84.0375,ardac
ON1795,Eddystone,,Ontario,CA,44.0559,-78.0192,ardac
ON1796,Eden,,Ontario,CA,42.7933,-80.746,ardac
ON1797,Eden Grove,,Ontario,CA,44.4014,-76.0947,ardac
ON1798,Eden Grove,,Ontario,CA,44.2157,-81.2406,ardac
ON1799,Eden Mills,,Ontario,CA,43.5786,-80.1433,ardac
ON1800,Edenhurst,,Ontario,CA,44.9191,-81.261,ardac
ON1801,Edenvale,,Ontario,CA,44.4508,-79.9019,ardac
ON1802,Edgar,,Ontario,CA,44.5084,-79.6212,ardac
ON1803,Edgars,,Ontario,CA,42.1556,-82.9089,ardac
ON1804,Edge Hill,,Ontario,CA,44.2294,-80.7981,ardac
ON1805,Edgeley,,Ontario,CA,43.7914,-79.5203,ardac
ON1806,Edgewater Beach,,Ontario,CA,42.1509,-83.1124,ardac
ON1807,Edgewood Park,,Ontario,CA,44.2778,-78.4358,ardac
ON1808,Edgewood Park,,Ontario,CA,42.9049,-78.9852,ardac
ON1809,Edison,,Ontario,CA,49.812,-93.5299,ardac
ON1810,Edmison Heights,,Ontario,CA,44.3388,-78.3205,ardac
ON1811,Edmore Beach,,Ontario,CA,44.6006,-80.0081,ardac
ON1812,Edville,,Ontario,CA,44.0586,-77.8231,ardac
ON1813,Edwards,,Ontario,CA,45.3225,-75.4664,ardac
ON1814,Edys Mills,,Ontario,CA,42.7388,-82.123,ardac
ON1815,Effingham,,Ontario,CA,43.0744,-79.3072,ardac
ON1816,Egan Creek,,Ontario,CA,45.0488,-77.7111,ardac
ON1817,Egan Creek,,Ontario,CA,44.9657,-77.7286,ardac
ON1818,Eganville,,Ontario,CA,45.5408,-77.0997,ardac
ON1819,Egbert,,Ontario,CA,44.2338,-79.761,ardac
ON1820,Egerton,,Ontario,CA,44.0081,-80.5213,ardac
ON1821,Egmondville,,Ontario,CA,43.5447,-81.4029,ardac
ON1822,Egypt,,Ontario,CA,44.27,-79.3046,ardac
ON1823,Eight Mile Point,,Ontario,CA,44.5139,-79.4281,ardac
ON1824,Ekfrid,,Ontario,CA,42.7597,-81.6019,ardac
ON1825,Elba,,Ontario,CA,44.0542,-80.1319,ardac
ON1826,Elcho,,Ontario,CA,43.0149,-79.5545,ardac
ON1827,Elco Beach,,Ontario,CA,42.8792,-79.1539,ardac
ON1828,Eldee,,Ontario,CA,46.65,-79.0872,ardac
ON1829,Elder,,Ontario,CA,44.0719,-80.0497,ardac
ON1830,Elder Mills,,Ontario,CA,43.8067,-79.6308,ardac
ON1831,Elder Station,,Ontario,CA,43.8089,-79.6333,ardac
ON1832,Eldon,,Ontario,CA,44.5094,-79.0136,ardac
ON1833,Eldorado,,Ontario,CA,44.5878,-77.5194,ardac
ON1834,Eldorado Park,,Ontario,CA,43.6464,-79.7727,ardac
ON1835,Electric,,Ontario,CA,42.5177,-82.3521,ardac
ON1836,Eley,,Ontario,CA,46.2224,-83.2371,ardac
ON1837,Elford,,Ontario,CA,42.1053,-82.8178,ardac
ON1838,Elfrida,,Ontario,CA,43.1744,-79.7811,ardac
ON1839,Elgin,,Ontario,CA,44.6078,-76.2211,ardac
ON1840,Elgin Mills,,Ontario,CA,43.8942,-79.4431,ardac
ON1841,Elginburg,,Ontario,CA,44.3192,-76.5419,ardac
ON1842,Elginfield,,Ontario,CA,43.1673,-81.3559,ardac
ON1843,Elimere Point,,Ontario,CA,44.7533,-79.8485,ardac
ON1844,Elimville,,Ontario,CA,43.3331,-81.4011,ardac
ON1845,Elizabeth,,Ontario,CA,48.735,-91.8392,ardac
ON1846,Elizabeth Bay,,Ontario,CA,45.8206,-82.7002,ardac
ON1847,Elizabeth Gardens,,Ontario,CA,43.3713,-79.7381,ardac
ON1848,Elizabeth Park,,Ontario,CA,45.335,-75.6732,ardac
ON1849,Elizabethville,,Ontario,CA,44.0424,-78.4634,ardac
ON1850,Elk Lake,,Ontario,CA,47.7308,-80.3344,ardac
ON1851,Ellengowan,,Ontario,CA,44.2585,-81.2407,ardac
ON1852,Ellesmere,,Ontario,CA,43.7661,-79.2844,ardac
ON1853,Elliot Lake,,Ontario,CA,46.3811,-82.6572,ardac
ON1854,Elliott,,Ontario,CA,44.8381,-76.4019,ardac
ON1855,Elliotts Corners,,Ontario,CA,44.7114,-79.8119,ardac
ON1856,Ellis,,Ontario,CA,48.5639,-89.7046,ardac
ON1857,Ellisville,,Ontario,CA,44.4895,-76.1562,ardac
ON1858,Ellsmere Village,,Ontario,CA,46.5764,-79.6386,ardac
ON1859,Ellwood,,Ontario,CA,45.3667,-75.6642,ardac
ON1860,Elm,,Ontario,CA,45.3558,-76.0936,ardac
ON1861,Elm Tree,,Ontario,CA,44.6866,-77.0166,ardac
ON1862,Elm Tree Corners,,Ontario,CA,44.3139,-78.7886,ardac
ON1863,Elma,,Ontario,CA,45.0158,-75.2331,ardac
ON1864,Elmbrook,,Ontario,CA,44.0559,-77.1416,ardac
ON1865,Elmdale,,Ontario,CA,42.0428,-82.4806,ardac
ON1866,Elmgrove,,Ontario,CA,44.1928,-79.8206,ardac
ON1867,Elmgrove,,Ontario,CA,44.8321,-76.2083,ardac
ON1868,Elmhedge,,Ontario,CA,44.5531,-80.6806,ardac
ON1869,Elmhurst Beach,,Ontario,CA,44.2167,-79.4683,ardac
ON1870,Elmira,,Ontario,CA,43.5933,-80.5624,ardac
ON1871,Elmstead,,Ontario,CA,42.2889,-82.846,ardac
ON1872,Elmvale,,Ontario,CA,44.5839,-79.8669,ardac
ON1873,Elmvale Acres,,Ontario,CA,45.3965,-75.6321,ardac
ON1874,Elmview,,Ontario,CA,46.6494,-80.9917,ardac
ON1875,Elmwood,,Ontario,CA,44.2292,-76.6283,ardac
ON1876,Elmwood,,Ontario,CA,44.2429,-81.0563,ardac
ON1877,Eloida,,Ontario,CA,44.6793,-75.9667,ardac
ON1878,Elora,,Ontario,CA,43.685,-80.4271,ardac
ON1879,Elphin,,Ontario,CA,44.9228,-76.6168,ardac
ON1880,Elsas,,Ontario,CA,48.5216,-82.9045,ardac
ON1881,Elsinore,,Ontario,CA,44.5236,-81.2431,ardac
ON1882,Elzevir,,Ontario,CA,44.6406,-77.2736,ardac
ON1883,Embro,,Ontario,CA,43.1552,-80.9006,ardac
ON1884,Embrun,,Ontario,CA,45.275,-75.2767,ardac
ON1885,Emerald,,Ontario,CA,44.1472,-76.7756,ardac
